~Version Information Block
VERS .                 2.00:  CWLS LOG ASCII STANDARD - VERSION 2.00
WRAP .                   NO:  One line per depth step
~Well Information Block
STRT.ft        4040.5000                               : Start Depth
STOP.ft        9769.0000                               : Stop Depth
STEP.ft        0.5000                                  : Step
NULL.          -999.2500                               : Null Value
COMP.          Marathon Oil U.K                        : Company
WELL.          153/5-1                                 : Well
FLD .          EXPLORATION                             : Field
LOC .          NORTH SEA                               : Location
LOC1.          -                                       : Location 1 
CTRY.          UK                                      : Country
PROV.          UKCS                                    : Province
UWI .          7037                                    : UWI Number
API .          -                                       : API Number
SECT.          -                                       : Section
TOWN.          -                                       : Township
RNGE.          -                                       : Range
PDAT.          MSL                                     : Perm Datum
EPD .ft        0.0                                     : Elevation
LMF .          DF                                      : Log Measured From
DMF .          DF                                      : Drill Measured From
APD .ft        84.0                                    : Above Perm Datum
EKB .ft        84.0                                    : Elev-Kelly Bushing
EDF .ft        84.0                                    : Elev-Drill Floor
EGL .ft        -4096                                   : Elev-Ground Level (Water Depth)
TDD .ft        9800.00                                 : Total Depth (Driller)
TDL .ft        -                                       : Total Depth (Logger)
SRVC.          Baker Hughes                            : Service Company
LATI.          58 53 55.67 N                           : Latitude
LONG.          08 04 43.07 W                           : Longitude
DATE.          APR-MAY-2000                            : Logging Date
PROJ.          UKCS                                    : Project
SET .          COMP WIRE                               : Set
~Curve Information Block
#MNEM.UNIT         API CODE   Curve Description
#---------- ----------------  -----------------
DEPTH.FT                   :  Depth in Feet
BDCM .G/CC                 :  LWD Bulk Density Compensated
DRHM .G/CC                 :  LWD Density Correction
DTC  .US/FT                :  Compressional Slowness (Pathfinder)
GR   .GAPI                 :  Hybrid MLR GRC - LWD GRAM
NPLM .PU                   :  LWD Neutron Porosity (LS)
RACH .OHMM                 :  LWD Resistivity (AT) 2MHz Borehole Corrected
RACM .OHMM                 :  LWD Resistivity (AT)
RPCH .OHMM                 :  LWD Resistivity (PD) 2MHz Borehole Corrected
RPCM .OHMM                 :  LWD Resistivity (PD)
~A
# ...
      9022.5000         2.4311        -0.0060        90.4509         8.0920        33.5680         3.0045      -999.2500         2.8622      -999.2500 
      9023.0000         2.4230        -0.0100        91.0179        19.6550        35.2150         3.0170      -999.2500         2.9250      -999.2500 
      9023.5000         2.4386        -0.0085        92.5012        24.2940        29.7737         3.0085      -999.2500         2.8466      -999.2500 
      9024.0000         2.4214        -0.0170        93.3397        12.7310        30.9046         2.9635      -999.2500         2.7563      -999.2500 
      9024.5000         2.3859        -0.0030        94.7942        12.7080        28.0279         2.9247      -999.2500         2.6308      -999.2500 
      9025.0000         2.4048         0.0029        96.5292        18.5010        30.7049         2.9156      -999.2500         2.4450      -999.2500 
      9025.5000         2.4276         0.0019        98.0649        20.8320        27.7231         2.8663      -999.2500         2.4389      -999.2500 
      9026.0000         2.4358        -0.0010        96.8763        29.4990        27.8225         2.8297      -999.2500         2.5072      -999.2500 
      9026.5000         2.4450        -0.0030        95.2981        10.4000        27.1740         2.8518      -999.2500         2.6970      -999.2500 
      9027.0000         2.4461        -0.0080        94.6726        18.5010        24.6350         2.8195      -999.2500         2.5343      -999.2500 
      9027.5000         2.4406        -0.0120        96.3620        30.0870        32.7704         2.8709      -999.2500         2.5230      -999.2500 
      9028.0000         2.4092        -0.0125        98.9128        11.5770        32.8927         2.9450      -999.2500         2.5382      -999.2500 
      9028.5000         2.4245         0.0043        98.6530        18.5240        28.2825         2.9514      -999.2500         2.6765      -999.2500 
      9029.0000         2.3980         0.0003        97.6992        13.8850        27.4851         2.9977      -999.2500         2.7640      -999.2500 
      9029.5000         2.4109         0.0089        97.1337        13.8850        24.6054         3.1444      -999.2500         2.8140      -999.2500 
      9030.0000         2.4073         0.0140        96.9645        15.6050        29.7998         3.2459      -999.2500         3.0711      -999.2500 
      9030.5000         2.3843         0.0039        96.4519        18.5010        27.2015         3.3760      -999.2500         3.1831      -999.2500 
      9031.0000         2.3320        -0.0190        96.2609        21.9410        28.7180         3.3623      -999.2500         3.1561      -999.2500 
      9031.5000         2.4200         0.0198        97.4641        20.8100        30.6240         3.2472      -999.2500         2.8648      -999.2500 
      9032.0000         2.4663         0.0355        97.6674        13.8850        31.7350         3.1098      -999.2500         2.6926      -999.2500 
      9032.5000         2.4533         0.0142        96.8242        18.5010        32.0523         3.0025      -999.2500         2.7161      -999.2500 
      9033.0000         2.4299         0.0048        96.8226        35.2920        37.5525         2.9219      -999.2500         2.7163      -999.2500 
      9033.5000         2.4411         0.0181        97.8516        16.1930        33.3830         2.9111      -999.2500         2.5978      -999.2500 
      9034.0000         2.4501         0.0107        98.5042        25.4710        32.9241         2.8679      -999.2500         2.5673      -999.2500 
      9034.5000         2.4229        -0.0060        97.3298        26.6480        39.6509         2.8450      -999.2500         2.5610      -999.2500 
      9035.0000         2.3983         0.0083        96.2945        19.6780        30.3773         2.8202      -999.2500         2.5462      -999.2500 
      9035.5000         2.4313         0.0089        96.0810        23.1180        29.4559         2.8140      -999.2500         2.5241      -999.2500 
      9036.0000         2.3788         0.0058        95.5954        26.6480        25.8820         2.8155      -999.2500         2.5466      -999.2500 
      9036.5000         2.2729        -0.0231        96.2392        16.1930        27.5905         2.8298      -999.2500         2.6337      -999.2500 
      9037.0000         2.3881         0.0359        95.8999        28.9110        30.4502         2.8251      -999.2500         2.6588      -999.2500 
      9037.5000         2.3860         0.0121        95.3552        26.6030        26.5446         2.8149      -999.2500         2.5273      -999.2500 
      9038.0000         2.3822        -0.0055        94.3137        21.9860        26.8841         2.7900      -999.2500         2.4722      -999.2500 
      9038.5000         2.3899         0.0010        93.7415        35.2920        26.9012         2.8299      -999.2500         2.4808      -999.2500 
      9039.0000         2.3920         0.0159        94.5948        26.6480        25.9744         2.8370      -999.2500         2.5191      -999.2500 
      9039.5000         2.3955         0.0122        93.0801        24.2940        13.1548         2.8135      -999.2500         2.5869      -999.2500 
      9040.0000         2.4157         0.0127        94.0490        17.7470        24.8725         2.8086      -999.2500         2.5747      -999.2500 
      9040.5000         2.3735         0.0016        95.4114        20.8100        27.1399         2.8621      -999.2500         2.5792      -999.2500 
      9041.0000         2.3766        -0.0009        95.2615        21.9860        26.1154         2.8792      -999.2500         2.5763      -999.2500 
      9041.5000         2.3681        -0.0049        94.0726        27.7340        26.2541         2.8828      -999.2500         2.5959      -999.2500 
      9042.0000         2.3722        -0.0013        93.9455        26.6480        24.3946         2.9384      -999.2500         2.6479      -999.2500 
      9042.5000         2.3648         0.0039        96.0073        30.0870        21.4440         2.9547      -999.2500         2.7358      -999.2500 
      9043.0000         2.3687         0.0032        98.5522        12.7080        22.0178         2.9385      -999.2500         2.7701      -999.2500 
      9043.5000         2.3510        -0.0030        98.2994        19.0900        28.0703         2.9410      -999.2500         2.7490      -999.2500 
      9044.0000         2.3582        -0.0062        94.7225        25.0790        27.2924         2.9375      -999.2500         2.7065      -999.2500 
      9044.5000         2.3612        -0.0152        94.7827        21.9410        26.5410         2.9339      -999.2500         2.6480      -999.2500 
      9045.0000         2.3597        -0.0217        96.3164        23.1180        25.2440         2.9307      -999.2500         2.5752      -999.2500 
      9045.5000         2.3750        -0.0205        96.6586        26.0140        23.5426         2.9182      -999.2500         2.6142      -999.2500 
      9046.0000         2.3834         0.0064        95.3051        16.1930        30.2960         2.8990      -999.2500         2.6860      -999.2500 
      9046.5000         2.4210         0.0148        93.3842        17.9360        27.0742         2.6695      -999.2500         2.4860      -999.2500 
      9047.0000         2.3603         0.0079        92.8701        26.0140        27.3229         3.3928      -999.2500         3.1634      -999.2500 
      9047.5000         2.3561         0.0013        94.7568        19.0900        22.5860         2.9151      -999.2500         2.6456      -999.2500 
      9048.0000         2.3580        -0.0020        94.5553        23.1180        28.2375         2.8716      -999.2500         2.6884      -999.2500 
      9048.5000         2.3571        -0.0036        92.3478        21.9410        27.9300         2.8682      -999.2500         2.6851      -999.2500 
