~Version Information Block
VERS .                 2.00:  CWLS LOG ASCII STANDARD - VERSION 2.00
WRAP .                   NO:  One line per depth step
~Well Information Block
STRT.ft        4040.5000                               : Start Depth
STOP.ft        9769.0000                               : Stop Depth
STEP.ft        0.5000                                  : Step
NULL.          -999.2500                               : Null Value
COMP.          Marathon Oil U.K                        : Company
WELL.          153/5-1                                 : Well
FLD .          EXPLORATION                             : Field
LOC .          NORTH SEA                               : Location
LOC1.          -                                       : Location 1 
CTRY.          UK                                      : Country
PROV.          UKCS                                    : Province
UWI .          7037                                    : UWI Number
API .          -                                       : API Number
SECT.          -                                       : Section
TOWN.          -                                       : Township
RNGE.          -                                       : Range
PDAT.          MSL                                     : Perm Datum
EPD .ft        0.0                                     : Elevation
LMF .          DF                                      : Log Measured From
DMF .          DF                                      : Drill Measured From
APD .ft        84.0                                    : Above Perm Datum
EKB .ft        84.0                                    : Elev-Kelly Bushing
EDF .ft        84.0                                    : Elev-Drill Floor
EGL .ft        -4096                                   : Elev-Ground Level (Water Depth)
TDD .ft        9800.00                                 : Total Depth (Driller)
TDL .ft        -                                       : Total Depth (Logger)
SRVC.          Baker Hughes                            : Service Company
LATI.          58 53 55.67 N                           : Latitude
LONG.          08 04 43.07 W                           : Longitude
DATE.          APR-MAY-2000                            : Logging Date
PROJ.          UKCS                                    : Project
SET .          COMP WIRE                               : Set
~Curve Information Block
#MNEM.UNIT         API CODE   Curve Description
#---------- ----------------  -----------------
DEPTH.FT                   :  Depth in Feet
BDCM .G/CC                 :  LWD Bulk Density Compensated
DRHM .G/CC                 :  LWD Density Correction
DTC  .US/FT                :  Compressional Slowness (Pathfinder)
GR   .GAPI                 :  Hybrid MLR GRC - LWD GRAM
NPLM .PU                   :  LWD Neutron Porosity (LS)
RACH .OHMM                 :  LWD Resistivity (AT) 2MHz Borehole Corrected
RACM .OHMM                 :  LWD Resistivity (AT)
RPCH .OHMM                 :  LWD Resistivity (PD) 2MHz Borehole Corrected
RPCM .OHMM                 :  LWD Resistivity (PD)
~A
# ...
      9446.5000         2.5399        -0.0001       109.3693        25.0190        20.2338         2.1207      -999.2500         1.2560      -999.2500 
      9447.0000         2.4379        -0.0250       109.3222        27.7570        23.8057         2.0976      -999.2500         1.1917      -999.2500 
      9447.5000         2.4569        -0.0070       110.7775        30.4800        26.0031         2.0399      -999.2500         1.2321      -999.2500 
      9448.0000         2.4533        -0.0060       113.2952        26.0590        25.6594         1.9262      -999.2500         1.2652      -999.2500 
      9448.5000         2.4590        -0.0070       114.1147        26.0140        26.3075         1.7928      -999.2500         1.2360      -999.2500 
      9449.0000         2.4271        -0.0258       110.4913        31.2190        33.4316         1.6130      -999.2500         1.2046      -999.2500 
      9449.5000         2.4674         0.0010       110.5600        30.6300        27.1337         1.5172      -999.2500         1.1253      -999.2500 
      9450.0000         2.4536        -0.0083       113.6479        26.0140        27.0470         1.4700      -999.2500         1.0583      -999.2500 
      9450.5000         2.4034        -0.0265       111.6692        22.5750        25.0512         1.4741      -999.2500         1.0185      -999.2500 
      9451.0000         2.4068        -0.0174       110.5113        32.4410        28.6406         1.5144      -999.2500         1.0449      -999.2500 
      9451.5000         2.4128        -0.0140       113.3978        21.9860        22.7651         1.6423      -999.2500         1.2323      -999.2500 
      9452.0000         2.4579         0.0055       115.6668        29.4990        28.6243         1.7842      -999.2500         1.4672      -999.2500 
      9452.5000         2.4532         0.0008       112.9759        22.5290        26.3476         1.8655      -999.2500         1.6262      -999.2500 
      9453.0000         2.4440         0.0040       109.4680        28.5490        26.3895         1.9990      -999.2500         1.6138      -999.2500 
      9453.5000         2.4298        -0.0076       109.9891        31.8520        25.0202         2.1272      -999.2500         1.4947      -999.2500 
      9454.0000         2.4239        -0.0131       113.5237        33.5500        26.4953         2.1224      -999.2500         1.4560      -999.2500 
      9454.5000         2.4064        -0.0077       113.4222        30.6760        26.7305         2.0908      -999.2500         1.4338      -999.2500 
      9455.0000         2.4088        -0.0023       113.2822        31.8520        31.8681         1.9832      -999.2500         1.4314      -999.2500 
      9455.5000         2.4305        -0.0010       114.3186        33.9800        30.5202         1.9371      -999.2500         1.3975      -999.2500 
      9456.0000         2.4221        -0.0005       115.6814        32.3960        27.3230         1.9725      -999.2500         1.2756      -999.2500 
      9456.5000         2.3749        -0.0218       115.7291        38.7770        29.9669         2.0159      -999.2500         1.2372      -999.2500 
      9457.0000         2.3571        -0.0043       115.0155        31.8520        36.3510         2.0197      -999.2500         1.2679      -999.2500 
      9457.5000         2.3580         0.0078       114.1415        30.6760        33.7098         1.9973      -999.2500         1.3844      -999.2500 
      9458.0000         2.3533         0.0056       113.9493        41.1300        32.6382         2.0190      -999.2500         1.5658      -999.2500 
      9458.5000         2.4072         0.0360       113.5956        37.6000        30.1370         2.0590      -999.2500         1.6928      -999.2500 
      9459.0000         2.4504         0.0550       113.0667        17.3470        27.3066         2.1056      -999.2500         1.7987      -999.2500 
      9459.5000         2.4426         0.0446       112.5692        32.9840        24.0485         2.2018      -999.2500         1.7898      -999.2500 
      9460.0000         2.4155         0.0302       113.0087        46.9230        25.9424         2.1608      -999.2500         1.9662      -999.2500 
      9460.5000         2.4346         0.0469       109.8835        43.9820        23.1469         2.0775      -999.2500         2.0358      -999.2500 
      9461.0000         2.5000         0.0950       111.4738        34.1610        23.2332         2.0801      -999.2500         1.8086      -999.2500 
      9461.5000         2.4639         0.0381       114.8113        41.6730        26.0168         2.1087      -999.2500         1.6853      -999.2500 
      9462.0000         2.3953        -0.0235       117.2627        32.3960        26.6650         2.1809      -999.2500         1.7011      -999.2500 
      9462.5000         2.4017        -0.0113       115.9225        41.0850        25.9502         2.2774      -999.2500         1.9103      -999.2500 
      9463.0000         2.4225        -0.0061       114.8392        27.7340        28.3246         2.3451      -999.2500         1.9948      -999.2500 
      9463.5000         2.4740         0.0090       113.6039        32.9840        28.2440         2.3339      -999.2500         2.2101      -999.2500 
      9464.0000         2.5117         0.0210       112.3218        34.7040        26.5576         2.3134      -999.2500         2.3841      -999.2500 
      9464.5000         2.4827        -0.0010       105.6278        42.8500        24.6927         2.3180      -999.2500         2.1544      -999.2500 
      9465.0000         2.4219        -0.0244       102.3780        35.8800        26.1961         2.3114      -999.2500         1.9383      -999.2500 
      9465.5000         2.3348        -0.0557       102.9333        31.2190        28.6997         2.2754      -999.2500         1.6886      -999.2500 
      9466.0000         2.3346        -0.0413       103.6318        35.2920        27.2180         2.1466      -999.2500         1.6091      -999.2500 
      9466.5000         2.3360        -0.0249       103.9453        41.6730        29.9771         1.9623      -999.2500         1.4262      -999.2500 
      9467.0000         2.2895        -0.0256       102.0495        52.0830        30.6959         1.8041      -999.2500         1.2538      -999.2500 
      9467.5000         2.3050        -0.0136       100.2667        41.6730        29.9795         1.6273      -999.2500         1.2213      -999.2500 
      9468.0000         2.3639         0.0308        98.4918        44.0270        31.7230         1.6115      -999.2500         1.2243      -999.2500 
      9468.5000         2.3355         0.0044        96.9356        33.5270        33.6936         1.6784      -999.2500         1.2632      -999.2500 
      9469.0000         2.3180        -0.0050        96.5330        42.2620        26.8267         1.7340      -999.2500         1.4280      -999.2500 
      9469.5000         2.3224         0.0065        93.6311        33.5720        33.3741         1.9408      -999.2500         1.5295      -999.2500 
      9470.0000         2.3303         0.0205        93.7301        23.1480        25.1814         2.2610      -999.2500         1.6561      -999.2500 
      9470.5000         2.3137         0.0097        96.2719        18.5010        28.6955         2.7656      -999.2500         2.0420      -999.2500 
      9471.0000         2.4380         0.0541        96.4673        13.8850        23.8426         3.2983      -999.2500         2.6032      -999.2500 
      9471.5000         2.5308         0.0989        96.5704        13.8850        23.5811         4.0333      -999.2500         3.9673      -999.2500 
      9472.0000         2.6344         0.1354       105.2597        23.7290        20.4211         4.3801      -999.2500         5.2315      -999.2500 
      9472.5000         2.7740         0.1730       111.4029        15.0620        20.2488         4.8281      -999.2500         5.1900      -999.2500 
