~Version Information Block
VERS .                 2.00:  CWLS LOG ASCII STANDARD - VERSION 2.00
WRAP .                   NO:  One line per depth step
~Well Information Block
STRT.ft        4040.5000                               : Start Depth
STOP.ft        9769.0000                               : Stop Depth
STEP.ft        0.5000                                  : Step
NULL.          -999.2500                               : Null Value
COMP.          Marathon Oil U.K                        : Company
WELL.          153/5-1                                 : Well
FLD .          EXPLORATION                             : Field
LOC .          NORTH SEA                               : Location
LOC1.          -                                       : Location 1 
CTRY.          UK                                      : Country
PROV.          UKCS                                    : Province
UWI .          7037                                    : UWI Number
API .          -                                       : API Number
SECT.          -                                       : Section
TOWN.          -                                       : Township
RNGE.          -                                       : Range
PDAT.          MSL                                     : Perm Datum
EPD .ft        0.0                                     : Elevation
LMF .          DF                                      : Log Measured From
DMF .          DF                                      : Drill Measured From
APD .ft        84.0                                    : Above Perm Datum
EKB .ft        84.0                                    : Elev-Kelly Bushing
EDF .ft        84.0                                    : Elev-Drill Floor
EGL .ft        -4096                                   : Elev-Ground Level (Water Depth)
TDD .ft        9800.00                                 : Total Depth (Driller)
TDL .ft        -                                       : Total Depth (Logger)
SRVC.          Baker Hughes                            : Service Company
LATI.          58 53 55.67 N                           : Latitude
LONG.          08 04 43.07 W                           : Longitude
DATE.          APR-MAY-2000                            : Logging Date
PROJ.          UKCS                                    : Project
SET .          COMP WIRE                               : Set
~Curve Information Block
#MNEM.UNIT         API CODE   Curve Description
#---------- ----------------  -----------------
DEPTH.FT                   :  Depth in Feet
BDCM .G/CC                 :  LWD Bulk Density Compensated
DRHM .G/CC                 :  LWD Density Correction
DTC  .US/FT                :  Compressional Slowness (Pathfinder)
GR   .GAPI                 :  Hybrid MLR GRC - LWD GRAM
NPLM .PU                   :  LWD Neutron Porosity (LS)
RACH .OHMM                 :  LWD Resistivity (AT) 2MHz Borehole Corrected
RACM .OHMM                 :  LWD Resistivity (AT)
RPCH .OHMM                 :  LWD Resistivity (PD) 2MHz Borehole Corrected
RPCM .OHMM                 :  LWD Resistivity (PD)
~A
# ...
      7989.0000         2.1550        -0.0102       122.7657        28.9560        63.4880         0.9084      -999.2500         0.8125      -999.2500 
      7989.5000         2.1502        -0.0159       120.7103        26.6480        48.5039         1.0326      -999.2500         0.8907      -999.2500 
      7990.0000         2.1915         0.0007       118.2026        38.2340        41.7942         1.1245      -999.2500         1.1804      -999.2500 
      7990.5000         2.2130         0.0070       115.2356        30.0870        44.8241         1.1528      -999.2500         1.4180      -999.2500 
      7991.0000         2.2530         0.0179       114.2027        38.2110        45.9204         1.1662      -999.2500         1.5149      -999.2500 
      7991.5000         2.2819         0.0239       120.4930        40.8890        50.6009         1.1720      -999.2500         1.2313      -999.2500 
      7992.0000         2.1568        -0.0420       120.2504        44.0270        52.7693         1.0082      -999.2500         0.9737      -999.2500 
      7992.5000         2.2416         0.0054       115.0985        50.9060        59.4385         0.9951      -999.2500         0.9540      -999.2500 
      7993.0000         2.1972        -0.0123       116.2891        39.3200        61.4095         1.0030      -999.2500         0.9259      -999.2500 
      7993.5000         2.1265        -0.0323       121.5953        34.7040        46.4169         1.0155      -999.2500         0.8930      -999.2500 
      7994.0000         2.1310        -0.0162       118.1457        45.1580        55.9382         1.0113      -999.2500         0.9068      -999.2500 
      7994.5000         2.1261        -0.0090       112.9111        52.1280        58.2247         1.0183      -999.2500         0.9179      -999.2500 
      7995.0000         2.1184        -0.0047       106.7178        42.0510        47.0600         1.0049      -999.2500         0.9096      -999.2500 
      7995.5000         2.1636         0.0085       102.5238        36.6350        48.1560         0.9883      -999.2500         0.9044      -999.2500 
      7996.0000         2.1738         0.0037       102.8038        24.2940        51.4200         0.9957      -999.2500         0.8863      -999.2500 
      7996.5000         2.1688        -0.0172       104.5005        37.0570        54.7520         1.0301      -999.2500         0.8588      -999.2500 
      7997.0000         2.1852        -0.0015       103.9328        50.5440        57.9963         1.0892      -999.2500         0.9861      -999.2500 
      7997.5000         2.1658        -0.0200       101.6925        46.2900        57.2272         1.1351      -999.2500         1.2608      -999.2500 
      7998.0000         2.1190        -0.0271       102.9767        44.0270        54.5795         1.1477      -999.2500         1.1100      -999.2500 
      7998.5000         2.1612         0.0027       105.3630        41.6730        47.4990         1.1182      -999.2500         0.9977      -999.2500 
      7999.0000         2.1655         0.0070       108.6495        48.6430        40.0710         1.0974      -999.2500         0.9925      -999.2500 
      7999.5000         2.3965         0.1242       110.6368        59.0520        45.5299         1.0452      -999.2500         1.1083      -999.2500 
      8000.0000         2.2784         0.0155       109.1765        42.8500        49.2440         1.0250      -999.2500         1.1297      -999.2500 
      8000.5000         2.1990        -0.0509       108.9430        44.0270        44.7259         1.0239      -999.2500         1.1093      -999.2500 
      8001.0000         2.1150        -0.0980       111.8325        38.7770        41.4124         1.0301      -999.2500         1.0275      -999.2500 
      8001.5000         2.1130        -0.0980       109.2234        42.2160        31.1078         1.0450      -999.2500         0.8761      -999.2500 
      8002.0000         2.1110        -0.0970       109.2340        39.3200        36.7321         0.9886      -999.2500         0.9264      -999.2500 
      8002.5000         2.1020        -0.0929       115.6405        36.4230        39.8738         0.9962      -999.2500         0.8412      -999.2500 
      8003.0000         2.0860        -0.0840       115.6848        35.2920        36.2998         1.0222      -999.2500         0.8535      -999.2500 
      8003.5000         2.0704        -0.0743       113.6737        25.4710        50.1111         1.0756      -999.2500         1.0209      -999.2500 
      8004.0000         2.0819        -0.0520       115.0435        41.6730        58.4412         1.1295      -999.2500         1.0925      -999.2500 
      8004.5000         2.0983        -0.0229       117.9486        33.5270        53.3340         1.1491      -999.2500         1.1161      -999.2500 
      8005.0000         2.1267        -0.0023       119.7400        27.7790        47.9850         1.1915      -999.2500         1.1730      -999.2500 
      8005.5000         2.1300         0.0010       119.8985        19.6780        49.6678         1.2640      -999.2500         1.3512      -999.2500 
      8006.0000         2.1151        -0.0060       119.7958        53.2590        57.4160         1.2577      -999.2500         1.3879      -999.2500 
      8006.5000         2.1330         0.0040       120.2044        30.0870        65.1720         1.0795      -999.2500         0.9852      -999.2500 
      8007.0000         2.1811         0.0270       120.5002        31.2640        69.6575         1.0214      -999.2500         0.9313      -999.2500 
      8007.5000         2.2719         0.0493       121.7201        28.9110        57.6939         1.0512      -999.2500         0.9765      -999.2500 
      8008.0000         2.0848        -0.0291       126.7651        33.5270        50.5534         1.2581      -999.2500         1.3369      -999.2500 
      8008.5000         2.1133         0.0108       128.8964        40.4970        49.7892         1.2691      -999.2500         1.1682      -999.2500 
      8009.0000         2.1190         0.0140       125.6292        35.8800        46.7090         1.3922      -999.2500         1.5985      -999.2500 
      8009.5000         2.1191         0.0140       121.9581        28.3680        41.1845         1.3715      -999.2500         1.2818      -999.2500 
      8010.0000         2.1190         0.0140       121.9354        26.5670        40.2183         1.3141      -999.2500         1.2500      -999.2500 
      8010.5000         2.1181         0.0141       122.6362        39.3200        44.0353         1.2694      -999.2500         1.2375      -999.2500 
      8011.0000         2.1220         0.0160       124.1158        28.9110        47.0900         1.2431      -999.2500         1.2007      -999.2500 
      8011.5000         2.1269         0.0190       117.9887        29.9890        49.9090         1.2329      -999.2500         1.1528      -999.2500 
      8012.0000         2.1311         0.0208       113.2045        35.6260        52.7270         1.2300      -999.2500         1.1362      -999.2500 
      8012.5000         2.1930         0.0430       111.5268        34.2250        55.5450         1.2280      -999.2500         1.1201      -999.2500 
      8013.0000         2.2562         0.0647       113.3110        23.1180        58.3639         1.2240      -999.2500         1.0891      -999.2500 
      8013.5000         2.2830         0.0630       115.4184        26.0140        61.1788         1.1891      -999.2500         1.0151      -999.2500 
      8014.0000         2.2928         0.0465       115.1780        19.1120        64.0000         1.1241      -999.2500         0.9521      -999.2500 
      8014.5000         2.2850         0.0280       114.6747        18.5240        66.8180         1.0936      -999.2500         0.8783      -999.2500 
      8015.0000         2.2651        -0.0013       114.1608        21.5160        69.6370         1.0356      -999.2500         0.8819      -999.2500 
