~Version Information Block
VERS .                 2.00:  CWLS LOG ASCII STANDARD - VERSION 2.00
WRAP .                   NO:  One line per depth step
~Well Information Block
STRT.ft        4040.5000                               : Start Depth
STOP.ft        9769.0000                               : Stop Depth
STEP.ft        0.5000                                  : Step
NULL.          -999.2500                               : Null Value
COMP.          Marathon Oil U.K                        : Company
WELL.          153/5-1                                 : Well
FLD .          EXPLORATION                             : Field
LOC .          NORTH SEA                               : Location
LOC1.          -                                       : Location 1 
CTRY.          UK                                      : Country
PROV.          UKCS                                    : Province
UWI .          7037                                    : UWI Number
API .          -                                       : API Number
SECT.          -                                       : Section
TOWN.          -                                       : Township
RNGE.          -                                       : Range
PDAT.          MSL                                     : Perm Datum
EPD .ft        0.0                                     : Elevation
LMF .          DF                                      : Log Measured From
DMF .          DF                                      : Drill Measured From
APD .ft        84.0                                    : Above Perm Datum
EKB .ft        84.0                                    : Elev-Kelly Bushing
EDF .ft        84.0                                    : Elev-Drill Floor
EGL .ft        -4096                                   : Elev-Ground Level (Water Depth)
TDD .ft        9800.00                                 : Total Depth (Driller)
TDL .ft        -                                       : Total Depth (Logger)
SRVC.          Baker Hughes                            : Service Company
LATI.          58 53 55.67 N                           : Latitude
LONG.          08 04 43.07 W                           : Longitude
DATE.          APR-MAY-2000                            : Logging Date
PROJ.          UKCS                                    : Project
SET .          COMP WIRE                               : Set
~Curve Information Block
#MNEM.UNIT         API CODE   Curve Description
#---------- ----------------  -----------------
DEPTH.FT                   :  Depth in Feet
BDCM .G/CC                 :  LWD Bulk Density Compensated
DRHM .G/CC                 :  LWD Density Correction
DTC  .US/FT                :  Compressional Slowness (Pathfinder)
GR   .GAPI                 :  Hybrid MLR GRC - LWD GRAM
NPLM .PU                   :  LWD Neutron Porosity (LS)
RACH .OHMM                 :  LWD Resistivity (AT) 2MHz Borehole Corrected
RACM .OHMM                 :  LWD Resistivity (AT)
RPCH .OHMM                 :  LWD Resistivity (PD) 2MHz Borehole Corrected
RPCM .OHMM                 :  LWD Resistivity (PD)
~A
# ...
      9605.5000         2.3302         0.0011        95.3251        16.8900        30.4900         8.2427      -999.2500         2.6891      -999.2500 
      9606.0000         2.4157         0.0108        96.3530        22.9190        32.9415         7.6408      -999.2500         2.6942      -999.2500 
      9606.5000         2.4013         0.0007        97.2343        16.4990        36.7909         6.6930      -999.2500         2.6068      -999.2500 
      9607.0000         2.3187         0.0069        97.8634        14.6390        29.7557         6.6573      -999.2500         2.4979      -999.2500 
      9607.5000         2.2208        -0.0264        97.3435        22.7560        40.4506         7.3184      -999.2500         2.4765      -999.2500 
      9608.0000         2.2630         0.0010        95.6861        10.7770        36.6813         7.5243      -999.2500         2.5186      -999.2500 
      9608.5000         2.2729         0.0041        94.6854        17.9360        51.1013         7.4988      -999.2500         2.6045      -999.2500 
      9609.0000         2.2507         0.0048        95.1513        16.1930        41.3091         7.5347      -999.2500         2.6315      -999.2500 
      9609.5000         2.2239        -0.0128        95.1316        11.5770        48.1449         7.2891      -999.2500         2.5755      -999.2500 
      9610.0000         2.2428         0.0037        96.0129         7.7150        42.1686         6.8268      -999.2500         2.4750      -999.2500 
      9610.5000         2.3097         0.0267        97.2457        17.3470        38.6611         6.2631      -999.2500         2.4494      -999.2500 
      9611.0000         2.3145         0.0081        98.6396        16.7820        39.3531         5.3655      -999.2500         2.5225      -999.2500 
      9611.5000         2.2954        -0.0098        99.3891        20.2660        36.9499         4.6443      -999.2500         2.6028      -999.2500 
      9612.0000         2.3131         0.0030       101.0240        13.8850        31.6303         3.9497      -999.2500         2.4324      -999.2500 
      9612.5000         2.3247         0.0234        99.1180        34.1610        31.4446         3.5353      -999.2500         2.0610      -999.2500 
      9613.0000         2.2682        -0.0013        93.9753        34.7490        33.1445         3.3504      -999.2500         2.0095      -999.2500 
      9613.5000         2.2909         0.0172        92.5509        35.2920        27.1443         3.2216      -999.2500         2.3257      -999.2500 
      9614.0000         2.3547         0.0622        94.1637         9.2460        22.1371         3.1321      -999.2500         2.6571      -999.2500 
      9614.5000         2.3926         0.0657        92.2466        28.9110        24.6572         3.1542      -999.2500         2.6555      -999.2500 
      9615.0000         2.3748         0.0399        89.7772        23.7060        24.5511         3.2371      -999.2500         2.5180      -999.2500 
      9615.5000         2.2050        -0.0153        89.2312        20.8100        29.9038         3.2983      -999.2500         2.5541      -999.2500 
      9616.0000         2.2158        -0.0029        88.3863        26.6030        31.2033         3.3879      -999.2500         2.8320      -999.2500 
      9616.5000         2.2559        -0.0094        89.2906        30.0870        36.9537         3.7113      -999.2500         2.5627      -999.2500 
      9617.0000         2.2419        -0.0074        91.5504        20.8550        34.6213         8.5218      -999.2500         2.7732      -999.2500 
      9617.5000         2.2943         0.0123        93.6767        22.5520        32.3242         3.7775      -999.2500         3.2448      -999.2500 
      9618.0000         2.3464         0.0231        95.2528        26.0140        29.1369         3.7701      -999.2500         3.2984      -999.2500 
      9618.5000         2.3719         0.0122        95.8711        28.1560        33.9905         3.7314      -999.2500         3.3586      -999.2500 
      9619.0000         2.3958         0.0182        95.2708        38.9580        28.0131         3.7213      -999.2500         3.3503      -999.2500 
      9619.5000         2.3381        -0.0089        94.1865        42.2620        32.1380         3.7347      -999.2500         3.2782      -999.2500 
      9620.0000         2.3288        -0.0244        89.1153        39.3650        34.2387         3.8236      -999.2500         2.9490      -999.2500 
      9620.5000         2.3649         0.0018        83.9065        29.5440        27.6171         3.8199      -999.2500         2.8135      -999.2500 
      9621.0000         2.3721        -0.0001        85.8411        23.7060        26.6784         3.7987      -999.2500         2.8396      -999.2500 
      9621.5000         2.4171         0.0086        87.0475        41.8980        22.6571         3.7770      -999.2500         3.1465      -999.2500 
      9622.0000         2.4464         0.0148        86.4525        19.6780        24.5421         3.8721      -999.2500         3.4543      -999.2500 
      9622.5000         2.4685         0.0292        88.7180        31.2530        27.7591         4.0594      -999.2500         3.5714      -999.2500 
      9623.0000         2.4660         0.0170        90.4839        19.6630        28.2982         4.1609      -999.2500         3.6559      -999.2500 
      9623.5000         2.4136        -0.0183        90.3581        19.1120        41.0768         4.3730      -999.2500         3.7985      -999.2500 
      9624.0000         2.3545        -0.0288        89.3086        12.7080        36.8793         4.5556      -999.2500         3.8680      -999.2500 
      9624.5000         2.3103        -0.0221        87.0637         4.6070        39.9042         4.7461      -999.2500         3.9310      -999.2500 
      9625.0000         2.3077         0.0002        86.1326        28.3680        41.9434         5.0096      -999.2500         4.0478      -999.2500 
      9625.5000         2.2965         0.0063        85.4422        13.3190        36.8469         5.3235      -999.2500         4.1053      -999.2500 
      9626.0000         2.2906         0.0155        85.7215        15.0620        40.4935         5.5161      -999.2500         4.0823      -999.2500 
      9626.5000         2.2925        -0.0064        84.7201        21.3980        39.7212         5.5685      -999.2500         3.9356      -999.2500 
      9627.0000         2.3386         0.0121        85.1285        25.0640        34.8725         5.4681      -999.2500         3.7305      -999.2500 
      9627.5000         2.4461         0.0414        87.1764        19.6780        31.2299         5.0447      -999.2500         3.5951      -999.2500 
      9628.0000         2.4633         0.0254        86.8577        25.4260        32.5021         4.5413      -999.2500         3.6934      -999.2500 
      9628.5000         2.3961         0.0045        87.0160        20.2660        34.9802         4.2563      -999.2500         3.6890      -999.2500 
      9629.0000         2.3708         0.0054        87.1569        11.5540        42.0087         4.0844      -999.2500         3.5000      -999.2500 
      9629.5000         2.3464         0.0123        86.1446        17.3550        48.6737         3.9489      -999.2500         3.1957      -999.2500 
      9630.0000         2.3610         0.0268        85.6106        18.5010        42.8665         3.8181      -999.2500         2.9022      -999.2500 
      9630.5000         2.3783         0.0218        85.9629        22.5750        36.4906         3.6862      -999.2500         2.7525      -999.2500 
      9631.0000         2.3870         0.0110        86.6586        18.7960        42.3750         3.5823      -999.2500         2.6901      -999.2500 
      9631.5000         2.3943         0.0061        87.3585        18.8070        39.6398         3.4945      -999.2500         2.6622      -999.2500 
