~Version Information Block
VERS .                 2.00:  CWLS LOG ASCII STANDARD - VERSION 2.00
WRAP .                   NO:  One line per depth step
~Well Information Block
STRT.ft        4040.5000                               : Start Depth
STOP.ft        9769.0000                               : Stop Depth
STEP.ft        0.5000                                  : Step
NULL.          -999.2500                               : Null Value
COMP.          Marathon Oil U.K                        : Company
WELL.          153/5-1                                 : Well
FLD .          EXPLORATION                             : Field
LOC .          NORTH SEA                               : Location
LOC1.          -                                       : Location 1 
CTRY.          UK                                      : Country
PROV.          UKCS                                    : Province
UWI .          7037                                    : UWI Number
API .          -                                       : API Number
SECT.          -                                       : Section
TOWN.          -                                       : Township
RNGE.          -                                       : Range
PDAT.          MSL                                     : Perm Datum
EPD .ft        0.0                                     : Elevation
LMF .          DF                                      : Log Measured From
DMF .          DF                                      : Drill Measured From
APD .ft        84.0                                    : Above Perm Datum
EKB .ft        84.0                                    : Elev-Kelly Bushing
EDF .ft        84.0                                    : Elev-Drill Floor
EGL .ft        -4096                                   : Elev-Ground Level (Water Depth)
TDD .ft        9800.00                                 : Total Depth (Driller)
TDL .ft        -                                       : Total Depth (Logger)
SRVC.          Baker Hughes                            : Service Company
LATI.          58 53 55.67 N                           : Latitude
LONG.          08 04 43.07 W                           : Longitude
DATE.          APR-MAY-2000                            : Logging Date
PROJ.          UKCS                                    : Project
SET .          COMP WIRE                               : Set
~Curve Information Block
#MNEM.UNIT         API CODE   Curve Description
#---------- ----------------  -----------------
DEPTH.FT                   :  Depth in Feet
BDCM .G/CC                 :  LWD Bulk Density Compensated
DRHM .G/CC                 :  LWD Density Correction
DTC  .US/FT                :  Compressional Slowness (Pathfinder)
GR   .GAPI                 :  Hybrid MLR GRC - LWD GRAM
NPLM .PU                   :  LWD Neutron Porosity (LS)
RACH .OHMM                 :  LWD Resistivity (AT) 2MHz Borehole Corrected
RACM .OHMM                 :  LWD Resistivity (AT)
RPCH .OHMM                 :  LWD Resistivity (PD) 2MHz Borehole Corrected
RPCM .OHMM                 :  LWD Resistivity (PD)
~A
# ...
      8572.0000         2.2280         0.0290        94.1597        44.0270        31.8710         4.1564      -999.2500         3.8963      -999.2500 
      8572.5000         2.2353         0.0310        93.4367        53.2590        33.3081         4.1698      -999.2500         3.9697      -999.2500 
      8573.0000         2.2552         0.0275        94.7582        50.9060        30.3365         4.1660      -999.2500         3.9996      -999.2500 
      8573.5000         2.2470         0.0161        94.1305        50.3630        28.0570         4.1630      -999.2500         4.0220      -999.2500 
      8574.0000         2.2442         0.0208        93.8296        50.3630        29.3838         4.1610      -999.2500         4.0450      -999.2500 
      8574.5000         2.2238         0.0193        94.9842        41.0850        27.8229         4.1595      -999.2500         4.0625      -999.2500 
      8575.0000         2.2357         0.0278        94.8536        42.8050        32.8648         4.1537      -999.2500         3.9625      -999.2500 
      8575.5000         2.2388         0.0303        95.2107        58.1700        29.6340         4.1365      -999.2500         3.8372      -999.2500 
      8576.0000         2.2633         0.0405        96.0638        46.0390        25.6606         4.0866      -999.2500         3.7494      -999.2500 
      8576.5000         2.2497         0.0224        95.8921        49.1360        25.4936         4.0723      -999.2500         3.7317      -999.2500 
      8577.0000         2.2540         0.0160        95.3733        51.3280        27.6567         4.0301      -999.2500         3.7090      -999.2500 
      8577.5000         2.2330         0.0062        94.3189        52.8670        27.5589         4.0095      -999.2500         3.6853      -999.2500 
      8578.0000         2.2350         0.0130        93.6026        49.8200        25.2986         3.9897      -999.2500         3.6816      -999.2500 
      8578.5000         2.2360         0.0170        93.4165        55.0010        27.3159         3.9643      -999.2500         3.6572      -999.2500 
      8579.0000         2.2289         0.0162        93.2676        60.1830        29.0579         3.9373      -999.2500         3.6266      -999.2500 
      8579.5000         2.2262         0.0228        94.1278        65.3640        29.7288         3.9210      -999.2500         3.6080      -999.2500 
      8580.0000         2.2344         0.0211        94.9862        40.4970        26.0827         3.8952      -999.2500         3.5961      -999.2500 
      8580.5000         2.2508         0.0230        95.0070        50.9060        25.2822         3.8750      -999.2500         3.5697      -999.2500 
      8581.0000         2.2379         0.0161        94.1278        32.4410        30.6204         3.8702      -999.2500         3.5442      -999.2500 
      8581.5000         2.2223         0.0090        93.2443        53.2590        25.3817         3.8518      -999.2500         3.5369      -999.2500 
      8582.0000         2.2637         0.0136        93.0749        45.1130        35.3141         3.8286      -999.2500         3.5410      -999.2500 
      8582.5000         2.2482         0.0101        93.2580        38.2340        36.1164         3.8291      -999.2500         3.5404      -999.2500 
      8583.0000         2.2564         0.0253        94.3322        45.7470        28.3460         3.8284      -999.2500         3.5171      -999.2500 
      8583.5000         2.2573         0.0218        96.2499        39.3200        26.8890         3.8298      -999.2500         3.5088      -999.2500 
      8584.0000         2.2600         0.0300        97.8270        50.9510        26.2084         3.8152      -999.2500         3.5275      -999.2500 
      8584.5000         2.2622         0.0354        97.6106        53.8480        29.2685         3.8096      -999.2500         3.5282      -999.2500 
      8585.0000         2.2680         0.0250        95.5540        45.1580        29.3346         3.7990      -999.2500         3.5090      -999.2500 
      8585.5000         2.2612         0.0181        94.6943        54.3910        27.8458         3.7934      -999.2500         3.5052      -999.2500 
      8586.0000         2.2421         0.0090        94.6290        42.8500        36.0860         3.7842      -999.2500         3.5153      -999.2500 
      8586.5000         2.2430         0.0100        94.3055        59.0520        27.3750         3.7803      -999.2500         3.5324      -999.2500 
      8587.0000         2.2558         0.0161        93.8877        45.1130        28.2900         3.7791      -999.2500         3.5497      -999.2500 
      8587.5000         2.2416         0.0232        94.2314        33.5270        26.8183         3.7794      -999.2500         3.5453      -999.2500 
      8588.0000         2.2619         0.0326        94.9395        20.8550        25.5264         3.7694      -999.2500         3.5481      -999.2500 
      8588.5000         2.2659         0.0261        95.8105        37.6000        28.4086         3.7540      -999.2500         3.5527      -999.2500 
      8589.0000         2.2770         0.0320        95.7512        44.0270        27.8630         3.7434      -999.2500         3.5334      -999.2500 
      8589.5000         2.2888         0.0388        94.6769        50.9060        28.4979         3.7411      -999.2500         3.4971      -999.2500 
      8590.0000         2.2460         0.0083        93.7970        51.4940        27.8352         3.7416      -999.2500         3.4944      -999.2500 
      8590.5000         2.2568         0.0139        93.4217        39.3650        29.9139         3.7384      -999.2500         3.4815      -999.2500 
      8591.0000         2.2523         0.0169        93.0665        53.8480        36.1666         3.7341      -999.2500         3.4608      -999.2500 
      8591.5000         2.2327         0.0128        92.7112        43.9820        31.9617         3.7461      -999.2500         3.4414      -999.2500 
      8592.0000         2.2419         0.0234        92.3659        36.4690        25.4167         3.7447      -999.2500         3.4346      -999.2500 
      8592.5000         2.2470         0.0202        92.5518        58.5090        27.5420         3.7652      -999.2500         3.4494      -999.2500 
      8593.0000         2.1998         0.0058        94.4367        40.4970        30.6135         3.7849      -999.2500         3.4926      -999.2500 
      8593.5000         2.2136         0.0088        94.0126        50.9060        29.3916         3.7746      -999.2500         3.6425      -999.2500 
      8594.0000         2.2468         0.0221        92.8213        46.2900        29.7708         3.8057      -999.2500         3.5630      -999.2500 
      8594.5000         2.2504         0.0304        93.3024        31.2640        33.9327         3.7941      -999.2500         3.5080      -999.2500 
      8595.0000         2.2271         0.0238        93.0234        34.7040        25.5585         3.7923      -999.2500         3.4924      -999.2500 
      8595.5000         2.2260         0.0219        94.4417        48.0090        27.2836         3.7728      -999.2500         3.4680      -999.2500 
      8596.0000         2.2585         0.0417        96.2477        44.0270        25.4910         3.7645      -999.2500         3.4453      -999.2500 
      8596.5000         2.2418         0.0300        95.2186        41.6730        31.2146         3.7558      -999.2500         3.4567      -999.2500 
      8597.0000         2.2278         0.0152        95.7006        48.6430        26.5194         3.7452      -999.2500         3.4493      -999.2500 
      8597.5000         2.2429         0.0100        95.5463        46.2900        26.1481         3.7401      -999.2500         3.4350      -999.2500 
      8598.0000         2.2200         0.0040        94.1808        48.6430        36.6430         3.7540      -999.2500         3.4497      -999.2500 
