~Version Information Block
VERS .                 2.00:  CWLS LOG ASCII STANDARD - VERSION 2.00
WRAP .                   NO:  One line per depth step
~Well Information Block
STRT.ft        4040.5000                               : Start Depth
STOP.ft        9769.0000                               : Stop Depth
STEP.ft        0.5000                                  : Step
NULL.          -999.2500                               : Null Value
COMP.          Marathon Oil U.K                        : Company
WELL.          153/5-1                                 : Well
FLD .          EXPLORATION                             : Field
LOC .          NORTH SEA                               : Location
LOC1.          -                                       : Location 1 
CTRY.          UK                                      : Country
PROV.          UKCS                                    : Province
UWI .          7037                                    : UWI Number
API .          -                                       : API Number
SECT.          -                                       : Section
TOWN.          -                                       : Township
RNGE.          -                                       : Range
PDAT.          MSL                                     : Perm Datum
EPD .ft        0.0                                     : Elevation
LMF .          DF                                      : Log Measured From
DMF .          DF                                      : Drill Measured From
APD .ft        84.0                                    : Above Perm Datum
EKB .ft        84.0                                    : Elev-Kelly Bushing
EDF .ft        84.0                                    : Elev-Drill Floor
EGL .ft        -4096                                   : Elev-Ground Level (Water Depth)
TDD .ft        9800.00                                 : Total Depth (Driller)
TDL .ft        -                                       : Total Depth (Logger)
SRVC.          Baker Hughes                            : Service Company
LATI.          58 53 55.67 N                           : Latitude
LONG.          08 04 43.07 W                           : Longitude
DATE.          APR-MAY-2000                            : Logging Date
PROJ.          UKCS                                    : Project
SET .          COMP WIRE                               : Set
~Curve Information Block
#MNEM.UNIT         API CODE   Curve Description
#---------- ----------------  -----------------
DEPTH.FT                   :  Depth in Feet
BDCM .G/CC                 :  LWD Bulk Density Compensated
DRHM .G/CC                 :  LWD Density Correction
DTC  .US/FT                :  Compressional Slowness (Pathfinder)
GR   .GAPI                 :  Hybrid MLR GRC - LWD GRAM
NPLM .PU                   :  LWD Neutron Porosity (LS)
RACH .OHMM                 :  LWD Resistivity (AT) 2MHz Borehole Corrected
RACM .OHMM                 :  LWD Resistivity (AT)
RPCH .OHMM                 :  LWD Resistivity (PD) 2MHz Borehole Corrected
RPCM .OHMM                 :  LWD Resistivity (PD)
~A
# ...
      9314.0000         2.3388         0.0075        99.1131        22.5520        34.8456         2.2000      -999.2500         1.9931      -999.2500 
      9314.5000         2.3163        -0.0057        99.0985        12.1430        35.5173         2.2051      -999.2500         1.9946      -999.2500 
      9315.0000         2.3440         0.0240        98.9259        15.0390        39.5850         2.1800      -999.2500         2.0480      -999.2500 
      9315.5000         2.3500         0.0311        97.5648        26.6180        37.3603         2.2052      -999.2500         2.0098      -999.2500 
      9316.0000         2.3573         0.0191        97.7569        10.9890        39.7782         2.2203      -999.2500         1.9975      -999.2500 
      9316.5000         2.3376         0.0033       101.9715        25.4710        38.5236         2.2085      -999.2500         2.0461      -999.2500 
      9317.0000         2.3548         0.0169       101.6996        13.8850        33.3922         2.2327      -999.2500         2.0399      -999.2500 
      9317.5000         2.3484         0.0135        98.9801        16.7820        57.6756         2.2274      -999.2500         2.0673      -999.2500 
      9318.0000         2.3566         0.0166        98.4636        11.9540        35.4091         2.2430      -999.2500         2.0516      -999.2500 
      9318.5000         2.3434         0.0003        99.8050        15.6280        47.8726         2.2490      -999.2500         2.0471      -999.2500 
      9319.0000         2.3296         0.0233        99.9534         8.0920        36.7241         2.2481      -999.2500         2.0502      -999.2500 
      9319.5000         2.3322         0.0129        99.1080        12.1650        38.8363         2.2450      -999.2500         2.0579      -999.2500 
      9320.0000         2.3177        -0.0119        98.5777        15.8160        47.8661         2.2431      -999.2500         2.0579      -999.2500 
      9320.5000         2.3312        -0.0048        98.2284        16.9630        49.9918         2.2412      -999.2500         2.0639      -999.2500 
      9321.0000         2.3110        -0.0107        98.3891        19.2710        47.9856         2.2422      -999.2500         2.0672      -999.2500 
      9321.5000         2.3168        -0.0001        98.4056        20.8100        48.1250         2.2471      -999.2500         2.0671      -999.2500 
      9322.0000         2.3118        -0.0049        98.7585        19.6780        31.4020         2.2531      -999.2500         2.0659      -999.2500 
      9322.5000         2.2971        -0.0039        99.5983        23.1630        42.7575         2.2632      -999.2500         2.0661      -999.2500 
      9323.0000         2.3289         0.0050        99.4608        16.1930        43.0200         2.2810      -999.2500         2.0850      -999.2500 
      9323.5000         2.3103         0.0009        99.2496        20.8550        37.4820         2.2822      -999.2500         2.1334      -999.2500 
      9324.0000         2.2863        -0.0008        98.2049         8.6800        33.7956         2.2899      -999.2500         2.1469      -999.2500 
      9324.5000         2.2421         0.0110        96.5090        13.8620        35.1748         2.2938      -999.2500         2.1449      -999.2500 
      9325.0000         2.2247         0.0195        96.8087        18.5010        34.6236         2.2907      -999.2500         2.1328      -999.2500 
      9325.5000         2.2885         0.0661        97.6789        27.7340        33.0910         2.2744      -999.2500         2.1108      -999.2500 
      9326.0000         2.3392         0.0887        98.4009        25.4710        34.9611         2.2711      -999.2500         2.0899      -999.2500 
      9326.5000         2.3332         0.0812        99.2764         9.2690        34.8321         2.2680      -999.2500         2.0721      -999.2500 
      9327.0000         2.3299         0.0771        99.4344        13.8850        36.7523         2.2638      -999.2500         2.0611      -999.2500 
      9327.5000         2.3539         0.0771        98.9250        11.5770        34.8638         2.2540      -999.2500         2.0540      -999.2500 
      9328.0000         2.3881         0.0828        98.0643        10.4000        38.2451         2.2489      -999.2500         2.0421      -999.2500 
      9328.5000         2.3723         0.0315        97.8762        15.0470        45.1791         2.2421      -999.2500         2.0340      -999.2500 
      9329.0000         2.3649         0.0031        98.3993        13.4930        47.9557         2.2391      -999.2500         2.0335      -999.2500 
      9329.5000         2.3429        -0.0102        99.0774        13.1010        40.6701         2.0772      -999.2500         1.9243      -999.2500 
      9330.0000         2.3723        -0.0092        98.9347         6.1760        42.2746         2.2686      -999.2500         2.0889      -999.2500 
      9330.5000         2.3531        -0.0196        99.0663        11.9540        44.5695         2.2471      -999.2500         2.0580      -999.2500 
      9331.0000         2.3539        -0.0171        98.2189         6.3500        32.7708         2.2490      -999.2500         2.0600      -999.2500 
      9331.5000         2.3540        -0.0152        97.3877        15.0390        34.0227         2.2530      -999.2500         2.0650      -999.2500 
      9332.0000         2.3753        -0.0059        98.0313        13.8850        36.7533         2.2580      -999.2500         2.0738      -999.2500 
      9332.5000         2.3536        -0.0193        98.2167        17.3470        41.8203         2.2649      -999.2500         2.0752      -999.2500 
      9333.0000         2.3172        -0.0138        98.3992        14.4730        31.2381         2.2731      -999.2500         2.0661      -999.2500 
      9333.5000         2.3263        -0.0211        98.7366        17.1170        38.8546         2.2931      -999.2500         2.0638      -999.2500 
      9334.0000         2.3035         0.0069        98.6029        11.9540        45.4350         2.3093      -999.2500         2.0788      -999.2500 
      9334.5000         2.4026         0.1023        99.2795        13.5910        35.1114         2.3311      -999.2500         2.1373      -999.2500 
      9335.0000         2.3474         0.0192        99.6122        16.1100        36.7787         2.3178      -999.2500         2.1275      -999.2500 
      9335.5000         2.3589         0.0109        99.2828        11.6820        46.1237         2.3419      -999.2500         2.0931      -999.2500 
      9336.0000         2.3788         0.0057        98.9791        13.5080        41.4716         2.3353      -999.2500         2.1079      -999.2500 
      9336.5000         2.3358        -0.0065        99.9866        12.7390        43.9722         2.3339      -999.2500         2.1230      -999.2500 
      9337.0000         2.3697         0.0077       100.6565        15.0320        35.4637         2.3119      -999.2500         2.1326      -999.2500 
      9337.5000         2.3509         0.0011        99.8164        21.9640        31.9994         2.2741      -999.2500         2.1602      -999.2500 
      9338.0000         2.3765         0.0052        98.9524        20.8550        31.9282         2.2162      -999.2500         2.1687      -999.2500 
      9338.5000         2.3932         0.0092        99.2767        17.3700        34.3530         2.1481      -999.2500         2.1518      -999.2500 
      9339.0000         2.4138         0.0089        99.4603        32.3960        30.2185         2.0720      -999.2500         2.1018      -999.2500 
      9339.5000         2.3814        -0.0089        99.4781        34.3420        26.1256         1.9851      -999.2500         1.9828      -999.2500 
      9340.0000         2.3845         0.0105        99.9202        38.2040        26.6762         1.8785      -999.2500         1.7429      -999.2500 
