~Version Information Block
VERS .                 2.00:  CWLS LOG ASCII STANDARD - VERSION 2.00
WRAP .                   NO:  One line per depth step
~Well Information Block
STRT.ft        4040.5000                               : Start Depth
STOP.ft        9769.0000                               : Stop Depth
STEP.ft        0.5000                                  : Step
NULL.          -999.2500                               : Null Value
COMP.          Marathon Oil U.K                        : Company
WELL.          153/5-1                                 : Well
FLD .          EXPLORATION                             : Field
LOC .          NORTH SEA                               : Location
LOC1.          -                                       : Location 1 
CTRY.          UK                                      : Country
PROV.          UKCS                                    : Province
UWI .          7037                                    : UWI Number
API .          -                                       : API Number
SECT.          -                                       : Section
TOWN.          -                                       : Township
RNGE.          -                                       : Range
PDAT.          MSL                                     : Perm Datum
EPD .ft        0.0                                     : Elevation
LMF .          DF                                      : Log Measured From
DMF .          DF                                      : Drill Measured From
APD .ft        84.0                                    : Above Perm Datum
EKB .ft        84.0                                    : Elev-Kelly Bushing
EDF .ft        84.0                                    : Elev-Drill Floor
EGL .ft        -4096                                   : Elev-Ground Level (Water Depth)
TDD .ft        9800.00                                 : Total Depth (Driller)
TDL .ft        -                                       : Total Depth (Logger)
SRVC.          Baker Hughes                            : Service Company
LATI.          58 53 55.67 N                           : Latitude
LONG.          08 04 43.07 W                           : Longitude
DATE.          APR-MAY-2000                            : Logging Date
PROJ.          UKCS                                    : Project
SET .          COMP WIRE                               : Set
~Curve Information Block
#MNEM.UNIT         API CODE   Curve Description
#---------- ----------------  -----------------
DEPTH.FT                   :  Depth in Feet
BDCM .G/CC                 :  LWD Bulk Density Compensated
DRHM .G/CC                 :  LWD Density Correction
DTC  .US/FT                :  Compressional Slowness (Pathfinder)
GR   .GAPI                 :  Hybrid MLR GRC - LWD GRAM
NPLM .PU                   :  LWD Neutron Porosity (LS)
RACH .OHMM                 :  LWD Resistivity (AT) 2MHz Borehole Corrected
RACM .OHMM                 :  LWD Resistivity (AT)
RPCH .OHMM                 :  LWD Resistivity (PD) 2MHz Borehole Corrected
RPCM .OHMM                 :  LWD Resistivity (PD)
~A
# ...
      9738.0000         2.7016         0.0100      -999.2500        22.8460        17.8748        50.3645      -999.2500        21.4875      -999.2500 
      9738.5000         2.6864         0.0031      -999.2500        15.7020        19.6263        52.6552      -999.2500        21.8775      -999.2500 
      9739.0000         2.6583         0.0012      -999.2500        21.6630        20.4905        64.8198      -999.2500        22.3080      -999.2500 
      9739.5000         2.6693         0.0214      -999.2500        23.6280        21.9296        62.2894      -999.2500        22.4623      -999.2500 
      9740.0000         2.6788         0.0274      -999.2500        23.8090        22.7459        63.0565      -999.2500        22.6151      -999.2500 
      9740.5000         2.6611         0.0150      -999.2500        21.8050        19.3296        69.2767      -999.2500        23.0083      -999.2500 
      9741.0000         2.6826         0.0213      -999.2500        22.9520        19.1992        70.7424      -999.2500        23.0439      -999.2500 
      9741.5000         2.6701         0.0056      -999.2500        21.1590        20.5176        67.9417      -999.2500        23.3259      -999.2500 
      9742.0000         2.6845         0.0128      -999.2500        26.2660        19.1284        69.0501      -999.2500        23.7668      -999.2500 
      9742.5000         2.6666         0.0114      -999.2500        26.7770        19.9886        76.0598      -999.2500        24.0294      -999.2500 
      9743.0000         2.6863         0.0174      -999.2500        23.6350        20.8115        68.3212      -999.2500        24.3105      -999.2500 
      9743.5000         2.6796         0.0226      -999.2500        19.5310        20.2540        64.4988      -999.2500        24.5846      -999.2500 
      9744.0000         2.6643         0.0141      -999.2500        23.5700        20.4643        64.2872      -999.2500        24.8553      -999.2500 
      9744.5000         2.6785         0.0232      -999.2500        25.6670        18.1919        61.7194      -999.2500        25.1714      -999.2500 
      9745.0000         2.6790         0.0250      -999.2500        31.8300        14.9316        55.9765      -999.2500        25.2658      -999.2500 
      9745.5000         2.6749         0.0169      -999.2500        22.5600        16.5879        51.9577      -999.2500        25.0090      -999.2500 
      9746.0000         2.7138         0.0238      -999.2500        24.7070        17.9837        50.0199      -999.2500        24.6517      -999.2500 
      9746.5000         2.7219         0.0129      -999.2500        23.5870        16.9278        50.4478      -999.2500        23.9261      -999.2500 
      9747.0000         2.7606         0.0138      -999.2500        23.4670        15.8578        50.9010      -999.2500        23.1481      -999.2500 
      9747.5000         2.6970         0.0005      -999.2500        20.1140        18.7706        48.2438      -999.2500        22.0608      -999.2500 
      9748.0000         2.6594        -0.0076      -999.2500        20.8250      -999.2500        45.8907      -999.2500        20.9220      -999.2500 
      9748.5000         2.6381         0.0149      -999.2500        17.1820      -999.2500        51.1041      -999.2500        19.9928      -999.2500 
      9749.0000         2.6300         0.0153      -999.2500        24.2940      -999.2500        47.4973      -999.2500        18.8716      -999.2500 
      9749.5000         2.6610         0.0384      -999.2500        22.1480      -999.2500        43.7785      -999.2500        17.6514      -999.2500 
      9750.0000         2.6332         0.0167      -999.2500        24.6440      -999.2500        40.3477      -999.2500        16.4498      -999.2500 
      9750.5000         2.6580         0.0127      -999.2500        19.0060      -999.2500        42.7362      -999.2500        15.4886      -999.2500 
      9751.0000         2.6673         0.0071      -999.2500        25.2900      -999.2500        43.9666      -999.2500        15.3076      -999.2500 
      9751.5000         2.6727         0.0165      -999.2500        16.6980      -999.2500        37.9192      -999.2500        15.4729      -999.2500 
      9752.0000         2.6699         0.0237      -999.2500        23.3290      -999.2500        38.2717      -999.2500        15.4943      -999.2500 
      9752.5000         2.6532         0.0134      -999.2500        23.1180      -999.2500        37.8893      -999.2500        15.2077      -999.2500 
      9753.0000         2.6341         0.0140      -999.2500        23.1330      -999.2500        36.7564      -999.2500        14.9862      -999.2500 
      9753.5000         2.6100         0.0114      -999.2500        19.4820      -999.2500        37.7096      -999.2500        14.8507      -999.2500 
      9754.0000      -999.2500      -999.2500      -999.2500        22.1670      -999.2500        37.4747      -999.2500        14.8153      -999.2500 
      9754.5000      -999.2500      -999.2500      -999.2500        21.1460      -999.2500        35.5651      -999.2500        14.7878      -999.2500 
      9755.0000      -999.2500      -999.2500      -999.2500        17.8780      -999.2500        35.9036      -999.2500        14.7432      -999.2500 
      9755.5000      -999.2500      -999.2500      -999.2500        20.4470      -999.2500        37.9199      -999.2500        14.8500      -999.2500 
      9756.0000      -999.2500      -999.2500      -999.2500        19.6720      -999.2500        34.5186      -999.2500        15.1873      -999.2500 
      9756.5000      -999.2500      -999.2500      -999.2500        19.9610      -999.2500        29.8741      -999.2500        15.7754      -999.2500 
      9757.0000      -999.2500      -999.2500      -999.2500        22.6330      -999.2500        31.8775      -999.2500        15.9720      -999.2500 
      9757.5000      -999.2500      -999.2500      -999.2500        18.1910      -999.2500        34.4769      -999.2500        15.8572      -999.2500 
      9758.0000      -999.2500      -999.2500      -999.2500        21.9990      -999.2500        36.1110      -999.2500        15.7640      -999.2500 
      9758.5000      -999.2500      -999.2500      -999.2500        21.9950      -999.2500        37.9105      -999.2500        15.7257      -999.2500 
      9759.0000      -999.2500      -999.2500      -999.2500        21.7030      -999.2500        40.3317      -999.2500        15.7690      -999.2500 
      9759.5000      -999.2500      -999.2500      -999.2500        24.0590      -999.2500        41.4465      -999.2500        16.1029      -999.2500 
      9760.0000      -999.2500      -999.2500      -999.2500        26.6090      -999.2500        40.6530      -999.2500        16.4264      -999.2500 
      9760.5000      -999.2500      -999.2500      -999.2500        22.3160      -999.2500        40.2314      -999.2500        17.0185      -999.2500 
      9761.0000      -999.2500      -999.2500      -999.2500        19.6720      -999.2500        43.2504      -999.2500        17.9770      -999.2500 
      9761.5000      -999.2500      -999.2500      -999.2500        22.3630      -999.2500        41.5773      -999.2500        18.9921      -999.2500 
      9762.0000      -999.2500      -999.2500      -999.2500        17.5510      -999.2500        39.3820      -999.2500        19.6249      -999.2500 
      9762.5000      -999.2500      -999.2500      -999.2500        18.7550      -999.2500        36.2840      -999.2500        20.1160      -999.2500 
      9763.0000      -999.2500      -999.2500      -999.2500        21.2890      -999.2500        38.0215      -999.2500        19.9729      -999.2500 
      9763.5000      -999.2500      -999.2500      -999.2500        21.9860      -999.2500        44.9040      -999.2500        19.5371      -999.2500 
      9764.0000      -999.2500      -999.2500      -999.2500        26.0140      -999.2500        52.3106      -999.2500        19.1669      -999.2500 
