~Version Information Block
VERS .                 2.00:  CWLS LOG ASCII STANDARD - VERSION 2.00
WRAP .                   NO:  One line per depth step
~Well Information Block
STRT.ft        4040.5000                               : Start Depth
STOP.ft        9769.0000                               : Stop Depth
STEP.ft        0.5000                                  : Step
NULL.          -999.2500                               : Null Value
COMP.          Marathon Oil U.K                        : Company
WELL.          153/5-1                                 : Well
FLD .          EXPLORATION                             : Field
LOC .          NORTH SEA                               : Location
LOC1.          -                                       : Location 1 
CTRY.          UK                                      : Country
PROV.          UKCS                                    : Province
UWI .          7037                                    : UWI Number
API .          -                                       : API Number
SECT.          -                                       : Section
TOWN.          -                                       : Township
RNGE.          -                                       : Range
PDAT.          MSL                                     : Perm Datum
EPD .ft        0.0                                     : Elevation
LMF .          DF                                      : Log Measured From
DMF .          DF                                      : Drill Measured From
APD .ft        84.0                                    : Above Perm Datum
EKB .ft        84.0                                    : Elev-Kelly Bushing
EDF .ft        84.0                                    : Elev-Drill Floor
EGL .ft        -4096                                   : Elev-Ground Level (Water Depth)
TDD .ft        9800.00                                 : Total Depth (Driller)
TDL .ft        -                                       : Total Depth (Logger)
SRVC.          Baker Hughes                            : Service Company
LATI.          58 53 55.67 N                           : Latitude
LONG.          08 04 43.07 W                           : Longitude
DATE.          APR-MAY-2000                            : Logging Date
PROJ.          UKCS                                    : Project
SET .          COMP WIRE                               : Set
~Curve Information Block
#MNEM.UNIT         API CODE   Curve Description
#---------- ----------------  -----------------
DEPTH.FT                   :  Depth in Feet
BDCM .G/CC                 :  LWD Bulk Density Compensated
DRHM .G/CC                 :  LWD Density Correction
DTC  .US/FT                :  Compressional Slowness (Pathfinder)
GR   .GAPI                 :  Hybrid MLR GRC - LWD GRAM
NPLM .PU                   :  LWD Neutron Porosity (LS)
RACH .OHMM                 :  LWD Resistivity (AT) 2MHz Borehole Corrected
RACM .OHMM                 :  LWD Resistivity (AT)
RPCH .OHMM                 :  LWD Resistivity (PD) 2MHz Borehole Corrected
RPCM .OHMM                 :  LWD Resistivity (PD)
~A
# ...
      7697.5000         2.1629        -0.0460       134.4417        18.5010        48.9420         1.1590      -999.2500         1.0079      -999.2500 
      7698.0000         2.1511        -0.0292       128.5421        22.5750        52.9711         1.1489      -999.2500         0.9903      -999.2500 
      7698.5000         2.1420        -0.0140       122.8876        17.9360        61.0203         1.1449      -999.2500         0.9850      -999.2500 
      7699.0000         2.1300        -0.0104       119.7147        26.6480        65.1270         1.1371      -999.2500         0.9853      -999.2500 
      7699.5000         2.1441         0.0029       123.8370        17.3700        65.7839         1.1291      -999.2500         0.9933      -999.2500 
      7700.0000         2.1280         0.0083       125.8590        26.6480        65.9662         1.1200      -999.2500         1.0103      -999.2500 
      7700.5000         2.1561         0.0280       127.5247        11.5770        58.8900         1.1086      -999.2500         1.0302      -999.2500 
      7701.0000         2.1731         0.0390       130.6517        22.5290        60.0120         1.1129      -999.2500         0.9931      -999.2500 
      7701.5000         2.1869         0.0401       131.4964        22.5750        66.6474         1.1120      -999.2500         0.9830      -999.2500 
      7702.0000         2.1630         0.0230       126.5984        19.6780        61.6640         1.1080      -999.2500         0.9912      -999.2500 
      7702.5000         2.1263         0.0005       123.3778        19.1120        52.4784         1.1032      -999.2500         1.0165      -999.2500 
      7703.0000         2.1195         0.0062       120.0831        28.1560        63.1410         1.0808      -999.2500         1.0780      -999.2500 
      7703.5000         2.1320         0.0219       113.2150        24.8830        53.3230         1.0868      -999.2500         1.0342      -999.2500 
      7704.0000         2.1435         0.0349       111.5509        25.4710        33.9688         1.0809      -999.2500         1.0032      -999.2500 
      7704.5000         2.1670         0.0450       117.3684        22.5750        45.5833         1.0732      -999.2500         0.9930      -999.2500 
      7705.0000         2.1905         0.0538       121.8039        21.9410        48.5840         1.0807      -999.2500         0.9862      -999.2500 
      7705.5000         2.1980         0.0480       122.4911        20.8550        48.4956         1.0960      -999.2500         0.9790      -999.2500 
      7706.0000         2.2019         0.0324       124.6438        35.8800        44.0757         1.1328      -999.2500         0.9817      -999.2500 
      7706.5000         2.1740         0.0110       125.8401        20.8550        54.5325         1.1549      -999.2500         1.0149      -999.2500 
      7707.0000         2.1240        -0.0196       125.6614        28.0450        58.4927         1.1703      -999.2500         1.0417      -999.2500 
      7707.5000         2.1351        -0.0060       129.6241        30.0070        55.3106         1.2082      -999.2500         1.0743      -999.2500 
      7708.0000         2.1433         0.0031       128.6116        26.6480        43.8319         1.2204      -999.2500         1.1549      -999.2500 
      7708.5000         2.1589         0.0081       123.5793        24.2940        45.5632         1.2407      -999.2500         1.1548      -999.2500 
      7709.0000         2.1670         0.0109       125.2730        21.8360        42.0028         1.2529      -999.2500         1.0942      -999.2500 
      7709.5000         2.1668         0.0037       133.5150        23.1180        59.7898         1.2428      -999.2500         1.0916      -999.2500 
      7710.0000         2.1621        -0.0089       137.5422        13.8850        66.8298         1.2290      -999.2500         1.1036      -999.2500 
      7710.5000         2.1491        -0.0119       134.9842        23.1180        74.5213         1.2218      -999.2500         1.0621      -999.2500 
      7711.0000         2.1324        -0.0107       133.7787        18.5010        61.1759         1.2032      -999.2500         1.0241      -999.2500 
      7711.5000         2.1384        -0.0001       136.1043        32.4410        83.8554         1.1945      -999.2500         1.0060      -999.2500 
      7712.0000         2.1464         0.0026       130.4151        21.9410        47.0784         1.1781      -999.2500         0.9705      -999.2500 
      7712.5000         2.1511         0.0008       127.6078        33.5270        46.6039         1.1629      -999.2500         0.9501      -999.2500 
      7713.0000         2.1345         0.0012       132.6671        19.6780        47.3062         1.1347      -999.2500         0.9444      -999.2500 
      7713.5000         2.1050         0.0140       134.5759        21.9410        43.4418         1.1180      -999.2500         0.9510      -999.2500 
      7714.0000         2.1339         0.0291       131.5186        15.0620        69.2707         1.1104      -999.2500         0.9475      -999.2500 
      7714.5000         2.1295         0.0044       129.0753        19.6780        38.4709         1.0932      -999.2500         0.9320      -999.2500 
      7715.0000         2.1475         0.0100       130.8188        15.0620        45.3709         1.0893      -999.2500         0.9175      -999.2500 
      7715.5000         2.1476         0.0084       131.8321         9.2690        45.5103         1.0933      -999.2500         0.9058      -999.2500 
      7716.0000         2.1361         0.0056       130.1764        21.9410        52.4992         1.1057      -999.2500         0.9146      -999.2500 
      7716.5000         2.1832         0.0312       130.1647        16.1930        50.2662         1.1066      -999.2500         0.9422      -999.2500 
      7717.0000         2.0153         0.0927       131.0109         9.7940        48.6198         1.1259      -999.2500         0.9877      -999.2500 
      7717.5000         1.5398         0.0515       130.7970        25.4710        49.7410         1.1431      -999.2500         1.0079      -999.2500 
      7718.0000         2.2131         0.0271       129.4371        13.8850        52.0076         1.1670      -999.2500         1.1591      -999.2500 
      7718.5000         2.0897         0.0158       130.2816        27.7340        60.5473         1.1839      -999.2500         1.2934      -999.2500 
      7719.0000         2.2042         0.1617       134.8640        26.6480        52.6211         1.2347      -999.2500         1.2698      -999.2500 
      7719.5000         2.2748         0.2229       136.3743        38.1720        50.0870         1.2217      -999.2500         1.0859      -999.2500 
      7720.0000         2.3030         0.2052       132.9352        28.9110        55.3527         1.1374      -999.2500         0.9408      -999.2500 
      7720.5000         2.2096         0.0696       133.3033        40.4970        55.2046         1.1141      -999.2500         0.9390      -999.2500 
      7721.0000         2.1733         0.0172       132.3216        24.0400        41.4619         1.1171      -999.2500         0.9419      -999.2500 
      7721.5000         2.1481         0.0020       132.6802        31.2640        38.0573         1.1210      -999.2500         0.9430      -999.2500 
      7722.0000         2.0920        -0.0177       133.2100        33.1580        42.3864         1.1142      -999.2500         0.9673      -999.2500 
      7722.5000         2.0126        -0.0290       130.7518        30.0870        45.4280         1.1240      -999.2500         0.9918      -999.2500 
      7723.0000         2.0379        -0.0110       130.0421        23.1180        45.5780         1.1419      -999.2500         0.9967      -999.2500 
      7723.5000         2.1136         0.0182       131.7286        12.7080        49.7782         1.1439      -999.2500         1.0296      -999.2500 
