~Version Information Block
VERS .                 2.00:  CWLS LOG ASCII STANDARD - VERSION 2.00
WRAP .                   NO:  One line per depth step
~Well Information Block
STRT.ft        4040.5000                               : Start Depth
STOP.ft        9769.0000                               : Stop Depth
STEP.ft        0.5000                                  : Step
NULL.          -999.2500                               : Null Value
COMP.          Marathon Oil U.K                        : Company
WELL.          153/5-1                                 : Well
FLD .          EXPLORATION                             : Field
LOC .          NORTH SEA                               : Location
LOC1.          -                                       : Location 1 
CTRY.          UK                                      : Country
PROV.          UKCS                                    : Province
UWI .          7037                                    : UWI Number
API .          -                                       : API Number
SECT.          -                                       : Section
TOWN.          -                                       : Township
RNGE.          -                                       : Range
PDAT.          MSL                                     : Perm Datum
EPD .ft        0.0                                     : Elevation
LMF .          DF                                      : Log Measured From
DMF .          DF                                      : Drill Measured From
APD .ft        84.0                                    : Above Perm Datum
EKB .ft        84.0                                    : Elev-Kelly Bushing
EDF .ft        84.0                                    : Elev-Drill Floor
EGL .ft        -4096                                   : Elev-Ground Level (Water Depth)
TDD .ft        9800.00                                 : Total Depth (Driller)
TDL .ft        -                                       : Total Depth (Logger)
SRVC.          Baker Hughes                            : Service Company
LATI.          58 53 55.67 N                           : Latitude
LONG.          08 04 43.07 W                           : Longitude
DATE.          APR-MAY-2000                            : Logging Date
PROJ.          UKCS                                    : Project
SET .          COMP WIRE                               : Set
~Curve Information Block
#MNEM.UNIT         API CODE   Curve Description
#---------- ----------------  -----------------
DEPTH.FT                   :  Depth in Feet
BDCM .G/CC                 :  LWD Bulk Density Compensated
DRHM .G/CC                 :  LWD Density Correction
DTC  .US/FT                :  Compressional Slowness (Pathfinder)
GR   .GAPI                 :  Hybrid MLR GRC - LWD GRAM
NPLM .PU                   :  LWD Neutron Porosity (LS)
RACH .OHMM                 :  LWD Resistivity (AT) 2MHz Borehole Corrected
RACM .OHMM                 :  LWD Resistivity (AT)
RPCH .OHMM                 :  LWD Resistivity (PD) 2MHz Borehole Corrected
RPCM .OHMM                 :  LWD Resistivity (PD)
~A
# ...
      8439.5000         2.3110         0.0259        97.0802        35.9110        28.5915         2.5797      -999.2500         2.3315      -999.2500 
      8440.0000         2.2895         0.0138        99.2388        39.7120        27.3943         2.5470      -999.2500         2.3015      -999.2500 
      8440.5000         2.2489        -0.0029        95.4865        31.2410        33.5265         2.5046      -999.2500         2.3261      -999.2500 
      8441.0000         2.2108        -0.0172        93.4687        44.0270        32.9349         2.4907      -999.2500         2.3326      -999.2500 
      8441.5000         2.2389        -0.0011        89.7484        50.9060        45.1947         2.4704      -999.2500         2.3020      -999.2500 
      8442.0000         2.2382        -0.0048        88.2402        30.0870        42.4573         2.4633      -999.2500         2.2951      -999.2500 
      8442.5000         2.2061        -0.0198        93.2924        28.9110        44.1620         2.4523      -999.2500         2.3568      -999.2500 
      8443.0000         2.1961        -0.0180        95.2672        42.8500        39.0333         2.4548      -999.2500         2.3980      -999.2500 
      8443.5000         2.1890        -0.0170        88.0151        48.6430        37.3620         2.4660      -999.2500         2.3880      -999.2500 
      8444.0000         2.1811        -0.0170        84.8650        33.5270        37.7737         2.4732      -999.2500         2.3516      -999.2500 
      8444.5000         2.1690        -0.0130        92.2291        28.9110        34.2745         2.4825      -999.2500         2.3096      -999.2500 
      8445.0000         2.1504        -0.0043        97.9603        19.6780        38.8073         2.4890      -999.2500         2.2554      -999.2500 
      8445.5000         2.1859         0.0209        98.5693        31.9880        25.4234         2.4696      -999.2500         2.3845      -999.2500 
      8446.0000         2.2028         0.0160       101.4960        36.4690        28.0967         2.5210      -999.2500         2.3880      -999.2500 
      8446.5000         2.2003         0.0111       103.5568        29.3330        28.8331         2.5233      -999.2500         2.3427      -999.2500 
      8447.0000         2.1574         0.0053        98.8665        30.0870        33.4989         2.5128      -999.2500         2.2978      -999.2500 
      8447.5000         2.1998         0.0554        97.3708        40.4970        33.3092         2.4965      -999.2500         2.2645      -999.2500 
      8448.0000         2.2320         0.0680        96.4702        35.8800        35.5360         2.4883      -999.2500         2.2806      -999.2500 
      8448.5000         2.2697         0.0815        96.9994        37.8940        40.1440         2.5213      -999.2500         2.3880      -999.2500 
      8449.0000         2.2570         0.0640        97.9733        40.8460        37.0780         2.5200      -999.2500         2.3799      -999.2500 
      8449.5000         2.2268         0.0269        98.7507        36.4460        32.5784         2.5038      -999.2500         2.2807      -999.2500 
      8450.0000         2.2099         0.0131       102.5359        31.2640        32.5060         2.4604      -999.2500         2.1589      -999.2500 
      8450.5000         2.1935         0.0030       105.1583        48.6430        36.4791         2.4367      -999.2500         2.1369      -999.2500 
      8451.0000         2.1775         0.0032       102.0546        39.3200        33.3349         2.4045      -999.2500         2.1232      -999.2500 
      8451.5000         2.2061         0.0050        94.7525        27.7340        35.7831         2.3659      -999.2500         2.1100      -999.2500 
      8452.0000         2.2300         0.0179        93.1700        38.2340        34.6541         2.3293      -999.2500         2.1068      -999.2500 
      8452.5000         2.2270         0.0170        96.3145        35.8800        34.6400         2.2695      -999.2500         2.0505      -999.2500 
      8453.0000         2.2389         0.0220        97.4108        37.0570        34.5516         2.2539      -999.2500         2.0231      -999.2500 
      8453.5000         2.2410         0.0229        98.1126        26.6480        32.3061         2.2389      -999.2500         2.0032      -999.2500 
      8454.0000         2.2295         0.0163        98.0933        49.8200        30.2951         2.2178      -999.2500         1.9903      -999.2500 
      8454.5000         2.2450         0.0249        96.5409        30.6180        32.8537         2.1941      -999.2500         2.0334      -999.2500 
      8455.0000         2.2556         0.0298        99.7246        26.6480        28.7854         2.1831      -999.2500         2.0619      -999.2500 
      8455.5000         2.2090         0.0095       101.8616        24.2940        34.0151         2.1741      -999.2500         2.0712      -999.2500 
      8456.0000         2.2169         0.0180        99.5808        50.9060        43.6244         2.1679      -999.2500         2.0829      -999.2500 
      8456.5000         2.2260         0.0241        99.7080        45.4270        39.0927         2.1571      -999.2500         2.0826      -999.2500 
      8457.0000         2.2295         0.0240        99.2125        33.5270        39.1455         2.1547      -999.2500         2.0792      -999.2500 
      8457.5000         2.1981         0.0097        99.2000        39.7420        37.9288         2.1458      -999.2500         2.0793      -999.2500 
      8458.0000         2.2021         0.0173        99.2000        39.3560        31.7896         2.1187      -999.2500         2.0851      -999.2500 
      8458.5000         2.1850         0.0120        99.2119        36.2420        37.5210         2.0427      -999.2500         1.9681      -999.2500 
      8459.0000         2.1521         0.0031        99.9311        33.5270        42.6061         2.1211      -999.2500         1.6402      -999.2500 
      8459.5000         2.1190        -0.0060       101.1552        50.9060        47.1333         2.0710      -999.2500         1.6330      -999.2500 
      8460.0000         2.1429         0.0180       100.4311        31.6640        40.4259         2.0272      -999.2500         1.7002      -999.2500 
      8460.5000         2.1531         0.0206        99.3893        25.4710        33.0144         2.0640      -999.2500         1.7005      -999.2500 
      8461.0000         2.1298         0.0117        98.9870        30.0870        41.7112         2.1832      -999.2500         1.8711      -999.2500 
      8461.5000         2.1691         0.0270        97.6300        37.6450        40.0509         2.2601      -999.2500         2.3463      -999.2500 
      8462.0000         2.2234         0.0494        97.2783        43.3930        38.8404         2.3104      -999.2500         2.5854      -999.2500 
      8462.5000         2.3551         0.0777        98.2733        36.6650        42.4230         2.3116      -999.2500         3.0741      -999.2500 
      8463.0000         2.2085         0.0058        98.3341        42.8500        54.3421         2.3060      -999.2500         2.7324      -999.2500 
      8463.5000         2.2520         0.0849       100.6493        42.2620        47.0580         2.2789      -999.2500         2.2608      -999.2500 
      8464.0000         2.2409         0.0617       103.6336        40.4970        39.8071         2.2536      -999.2500         1.7576      -999.2500 
      8464.5000         2.2270         0.0430       105.2252        32.4410        42.0200         2.1911      -999.2500         1.7549      -999.2500 
      8465.0000         2.2163         0.0255       106.2836        49.8200        40.2150         2.2076      -999.2500         1.8431      -999.2500 
      8465.5000         2.2542         0.0259       105.9867        32.4410        34.4960         2.1892      -999.2500         1.9811      -999.2500 
