~Version Information Block
VERS .                 2.00:  CWLS LOG ASCII STANDARD - VERSION 2.00
WRAP .                   NO:  One line per depth step
~Well Information Block
STRT.ft        4040.5000                               : Start Depth
STOP.ft        9769.0000                               : Stop Depth
STEP.ft        0.5000                                  : Step
NULL.          -999.2500                               : Null Value
COMP.          Marathon Oil U.K                        : Company
WELL.          153/5-1                                 : Well
FLD .          EXPLORATION                             : Field
LOC .          NORTH SEA                               : Location
LOC1.          -                                       : Location 1 
CTRY.          UK                                      : Country
PROV.          UKCS                                    : Province
UWI .          7037                                    : UWI Number
API .          -                                       : API Number
SECT.          -                                       : Section
TOWN.          -                                       : Township
RNGE.          -                                       : Range
PDAT.          MSL                                     : Perm Datum
EPD .ft        0.0                                     : Elevation
LMF .          DF                                      : Log Measured From
DMF .          DF                                      : Drill Measured From
APD .ft        84.0                                    : Above Perm Datum
EKB .ft        84.0                                    : Elev-Kelly Bushing
EDF .ft        84.0                                    : Elev-Drill Floor
EGL .ft        -4096                                   : Elev-Ground Level (Water Depth)
TDD .ft        9800.00                                 : Total Depth (Driller)
TDL .ft        -                                       : Total Depth (Logger)
SRVC.          Baker Hughes                            : Service Company
LATI.          58 53 55.67 N                           : Latitude
LONG.          08 04 43.07 W                           : Longitude
DATE.          APR-MAY-2000                            : Logging Date
PROJ.          UKCS                                    : Project
SET .          COMP WIRE                               : Set
~Curve Information Block
#MNEM.UNIT         API CODE   Curve Description
#---------- ----------------  -----------------
DEPTH.FT                   :  Depth in Feet
BDCM .G/CC                 :  LWD Bulk Density Compensated
DRHM .G/CC                 :  LWD Density Correction
DTC  .US/FT                :  Compressional Slowness (Pathfinder)
GR   .GAPI                 :  Hybrid MLR GRC - LWD GRAM
NPLM .PU                   :  LWD Neutron Porosity (LS)
RACH .OHMM                 :  LWD Resistivity (AT) 2MHz Borehole Corrected
RACM .OHMM                 :  LWD Resistivity (AT)
RPCH .OHMM                 :  LWD Resistivity (PD) 2MHz Borehole Corrected
RPCM .OHMM                 :  LWD Resistivity (PD)
~A
# ...
      8863.5000         2.3764         0.0319       101.7046        33.5470        33.1512         1.4951      -999.2500         1.3908      -999.2500 
      8864.0000         2.3826         0.0270       101.5304        35.8800        27.7690         1.4909      -999.2500         1.3564      -999.2500 
      8864.5000         2.3602         0.0291       101.8626        30.0870        32.5482         1.4801      -999.2500         1.3652      -999.2500 
      8865.0000         2.3549         0.0319       101.6550        27.7340        28.1323         1.4767      -999.2500         1.3781      -999.2500 
      8865.5000         2.3535         0.0372       100.6204        26.6030        34.7379         1.4531      -999.2500         1.3744      -999.2500 
      8866.0000         2.3904         0.0580        99.3778        30.1180        27.8601         1.4393      -999.2500         1.2945      -999.2500 
      8866.5000         2.3391         0.0227        98.1418        35.8800        25.1237         1.4383      -999.2500         1.2739      -999.2500 
      8867.0000         2.3962         0.0560        97.3646        30.0870        22.9451         1.4647      -999.2500         1.3251      -999.2500 
      8867.5000         2.4556         0.0642       100.5107        26.6030        25.6246         1.4898      -999.2500         1.3862      -999.2500 
      8868.0000         2.4472         0.0099       100.5905        22.5520        30.0714         1.5081      -999.2500         1.4147      -999.2500 
      8868.5000         2.3700        -0.0222        98.7735        23.7060        30.9537         1.5395      -999.2500         1.4258      -999.2500 
      8869.0000         2.3550         0.0070        99.5554        30.0870        39.8116         1.6050      -999.2500         1.4360      -999.2500 
      8869.5000         2.3808         0.0425        99.0934        37.0570        25.2127         1.6338      -999.2500         1.4809      -999.2500 
      8870.0000         2.3643         0.0382        96.0713        17.3700        24.1417         1.6894      -999.2500         1.5610      -999.2500 
      8870.5000         2.3581         0.0369        97.0667        23.1180        26.1700         1.7649      -999.2500         1.7030      -999.2500 
      8871.0000         2.3787         0.0528        97.9966        28.3220        27.5975         1.8105      -999.2500         1.8945      -999.2500 
      8871.5000         2.4750         0.0903        94.4353        35.2920        29.0770         1.8157      -999.2500         1.9189      -999.2500 
      8872.0000         2.5211         0.0488        92.2473        29.4990        31.1220         1.7924      -999.2500         1.7634      -999.2500 
      8872.5000         2.4494        -0.0316        91.9635        23.7060        25.3446         1.7259      -999.2500         1.5480      -999.2500 
      8873.0000         2.3796        -0.0360        91.6707        33.5270        27.1169         1.6472      -999.2500         1.4859      -999.2500 
      8873.5000         2.4637         0.0299        92.1729        32.4410        27.0758         1.6230      -999.2500         1.4501      -999.2500 
      8874.0000         2.4145        -0.0113        92.9654        23.7060        28.4735         1.6212      -999.2500         1.4337      -999.2500 
      8874.5000         2.4123        -0.0075        95.8568        28.9110        39.4278         1.6281      -999.2500         1.4492      -999.2500 
      8875.0000         2.4572         0.0233        96.7056        28.3220        29.0130         1.6223      -999.2500         1.5116      -999.2500 
      8875.5000         2.4505        -0.0009        94.7750        26.0590        35.4874         1.6455      -999.2500         1.5354      -999.2500 
      8876.0000         2.4297        -0.0151        96.1083        30.6760        29.7632         1.6556      -999.2500         1.5489      -999.2500 
      8876.5000         2.3152        -0.0045        98.8413        30.6300        37.3681         1.6463      -999.2500         1.5945      -999.2500 
      8877.0000         2.3860         0.0890        99.4598        28.3680        31.6454         1.6240      -999.2500         1.5291      -999.2500 
      8877.5000         2.4737         0.1161        98.6626        31.6260        34.0440         1.6036      -999.2500         1.4812      -999.2500 
      8878.0000         2.4707         0.0677        95.7784        25.8330        32.4790         1.5771      -999.2500         1.4304      -999.2500 
      8878.5000         2.4398         0.0039        96.1121        31.2190        32.1974         1.5624      -999.2500         1.4218      -999.2500 
      8879.0000         2.4465        -0.0116        97.2367        28.9110        26.4671         1.5677      -999.2500         1.4458      -999.2500 
      8879.5000         2.4332        -0.0100        95.3401        31.2190        26.5151         1.5600      -999.2500         1.4489      -999.2500 
      8880.0000         2.3684        -0.0204        95.4996        33.9490        31.1194         1.5542      -999.2500         1.3910      -999.2500 
      8880.5000         2.4568         0.0613        95.8086        26.6480        30.0178         1.5630      -999.2500         1.3763      -999.2500 
      8881.0000         2.4697         0.0483        94.9604        33.5270        28.9309         1.5740      -999.2500         1.4104      -999.2500 
      8881.5000         2.3182         0.0067        94.7680        32.9840        29.0678         1.5881      -999.2500         1.4400      -999.2500 
      8882.0000         2.3410         0.0287        96.4880        35.8800        29.6757         1.6426      -999.2500         1.4993      -999.2500 
      8882.5000         2.3398         0.0330        97.0516        31.8520        25.0488         1.6930      -999.2500         1.5804      -999.2500 
      8883.0000         2.3902         0.0304        96.9853        20.8550        24.2424         1.7356      -999.2500         1.6729      -999.2500 
      8883.5000         2.4455         0.0035        99.8115        20.8550        25.6670         1.7652      -999.2500         1.6986      -999.2500 
      8884.0000         2.4233        -0.0090        99.7132        39.3200        27.9268         1.7643      -999.2500         1.6484      -999.2500 
      8884.5000         2.4462        -0.0029        97.0570        34.7490        31.5635         1.7695      -999.2500         1.6340      -999.2500 
      8885.0000         2.4529        -0.0110        94.2231        26.6030        34.9081         1.7600      -999.2500         1.6538      -999.2500 
      8885.5000         2.4344        -0.0130        92.9612        35.8800        30.3299         1.7535      -999.2500         1.5838      -999.2500 
      8886.0000         2.4250        -0.0100        94.9241        31.8070        32.0123         1.7599      -999.2500         1.5403      -999.2500 
      8886.5000         2.4280        -0.0040        96.2280        35.2920        36.5069         1.7658      -999.2500         1.5473      -999.2500 
      8887.0000         2.4401         0.0006        94.1568        27.3720        29.3545         1.7717      -999.2500         1.5859      -999.2500 
      8887.5000         2.4174        -0.0079        95.9816        30.6760        26.8029         1.8127      -999.2500         1.6225      -999.2500 
      8888.0000         2.4033        -0.0090        97.1403        34.7040        30.5951         1.8542      -999.2500         1.6842      -999.2500 
      8888.5000         2.4010        -0.0060        95.4781        28.3680        31.2936         1.8889      -999.2500         1.7379      -999.2500 
      8889.0000         2.3940        -0.0039        94.5980        24.3170        25.9596         1.9086      -999.2500         1.7857      -999.2500 
      8889.5000         2.3820        -0.0020        94.2182        28.9560        26.4641         1.9549      -999.2500         1.8808      -999.2500 
