~Version Information Block
VERS .                 2.00:  CWLS LOG ASCII STANDARD - VERSION 2.00
WRAP .                   NO:  One line per depth step
~Well Information Block
STRT.ft        4040.5000                               : Start Depth
STOP.ft        9769.0000                               : Stop Depth
STEP.ft        0.5000                                  : Step
NULL.          -999.2500                               : Null Value
COMP.          Marathon Oil U.K                        : Company
WELL.          153/5-1                                 : Well
FLD .          EXPLORATION                             : Field
LOC .          NORTH SEA                               : Location
LOC1.          -                                       : Location 1 
CTRY.          UK                                      : Country
PROV.          UKCS                                    : Province
UWI .          7037                                    : UWI Number
API .          -                                       : API Number
SECT.          -                                       : Section
TOWN.          -                                       : Township
RNGE.          -                                       : Range
PDAT.          MSL                                     : Perm Datum
EPD .ft        0.0                                     : Elevation
LMF .          DF                                      : Log Measured From
DMF .          DF                                      : Drill Measured From
APD .ft        84.0                                    : Above Perm Datum
EKB .ft        84.0                                    : Elev-Kelly Bushing
EDF .ft        84.0                                    : Elev-Drill Floor
EGL .ft        -4096                                   : Elev-Ground Level (Water Depth)
TDD .ft        9800.00                                 : Total Depth (Driller)
TDL .ft        -                                       : Total Depth (Logger)
SRVC.          Baker Hughes                            : Service Company
LATI.          58 53 55.67 N                           : Latitude
LONG.          08 04 43.07 W                           : Longitude
DATE.          APR-MAY-2000                            : Logging Date
PROJ.          UKCS                                    : Project
SET .          COMP WIRE                               : Set
~Curve Information Block
#MNEM.UNIT         API CODE   Curve Description
#---------- ----------------  -----------------
DEPTH.FT                   :  Depth in Feet
BDCM .G/CC                 :  LWD Bulk Density Compensated
DRHM .G/CC                 :  LWD Density Correction
DTC  .US/FT                :  Compressional Slowness (Pathfinder)
GR   .GAPI                 :  Hybrid MLR GRC - LWD GRAM
NPLM .PU                   :  LWD Neutron Porosity (LS)
RACH .OHMM                 :  LWD Resistivity (AT) 2MHz Borehole Corrected
RACM .OHMM                 :  LWD Resistivity (AT)
RPCH .OHMM                 :  LWD Resistivity (PD) 2MHz Borehole Corrected
RPCM .OHMM                 :  LWD Resistivity (PD)
~A
# ...
      9155.0000         2.3018         0.0348       106.9952        28.9110        30.3339         1.9061      -999.2500         1.7331      -999.2500 
      9155.5000         2.3277         0.0285       106.7149        21.9860        26.0381         1.9032      -999.2500         1.7202      -999.2500 
      9156.0000         2.2928        -0.0013       108.5768        28.5490        28.1482         1.9126      -999.2500         1.7255      -999.2500 
      9156.5000         2.2350        -0.0200       109.3229        26.5870        31.0360         1.9359      -999.2500         1.7611      -999.2500 
      9157.0000         2.1876        -0.0286       108.3478        30.3590        33.7136         1.9187      -999.2500         1.8756      -999.2500 
      9157.5000         2.3514         0.0776       109.3375        13.8850        24.5950         1.8964      -999.2500         1.9735      -999.2500 
      9158.0000         2.3530         0.0487       110.6935        31.2640        26.4903         1.9278      -999.2500         1.8897      -999.2500 
      9158.5000         2.3250         0.0210       110.3512        24.2940        32.0942         1.9375      -999.2500         1.8232      -999.2500 
      9159.0000         2.2889        -0.0060       108.0841        29.6950        29.7456         1.9174      -999.2500         1.8379      -999.2500 
      9159.5000         2.3290         0.0129       105.5641        25.4710        32.1051         1.9159      -999.2500         1.8161      -999.2500 
      9160.0000         2.3100         0.0010       102.0287        22.5290        31.4690         1.9109      -999.2500         1.7819      -999.2500 
      9160.5000         2.2980        -0.0072        97.5901        23.1180        28.1713         1.8906      -999.2500         1.7202      -999.2500 
      9161.0000         2.2700        -0.0150        97.2630        27.7340        37.1752         1.8580      -999.2500         1.6950      -999.2500 
      9161.5000         2.2900        -0.0036       105.3552        24.2940        27.3711         1.8459      -999.2500         1.6789      -999.2500 
      9162.0000         2.2980         0.0030       107.3423        25.4710        28.3238         1.8218      -999.2500         1.6422      -999.2500 
      9162.5000         2.2974         0.0051       107.2683        25.4710        23.3604         1.8417      -999.2500         1.6209      -999.2500 
      9163.0000         2.3117         0.0079       109.0823        23.7290        32.0071         1.8339      -999.2500         1.6311      -999.2500 
      9163.5000         2.3100         0.0070       108.6064        28.9110        36.9808         1.8250      -999.2500         1.6477      -999.2500 
      9164.0000         2.3011         0.0039       107.4227        22.0090        36.5386         1.8222      -999.2500         1.6441      -999.2500 
      9164.5000         2.2829         0.0010       107.3929        23.1400        29.4470         1.8300      -999.2500         1.5846      -999.2500 
      9165.0000         2.2747        -0.0019       109.3130        16.7820        31.0625         1.8280      -999.2500         1.5799      -999.2500 
      9165.5000         2.3106         0.0127       110.7485        22.5290        36.5155         1.8172      -999.2500         1.6194      -999.2500 
      9166.0000         2.2900        -0.0019       111.4730        28.1870        35.6076         1.8345      -999.2500         1.6117      -999.2500 
      9166.5000         2.2821        -0.0050       112.3513        21.9860        38.0798         1.8411      -999.2500         1.6206      -999.2500 
      9167.0000         2.3067         0.0055       113.0516        22.5290        29.7753         1.8484      -999.2500         1.6657      -999.2500 
      9167.5000         2.2782        -0.0009       113.1976        19.6550        27.0229         1.8693      -999.2500         1.7071      -999.2500 
      9168.0000         2.2880         0.0010       112.0145        49.8200        31.7384         1.9341      -999.2500         1.8005      -999.2500 
      9168.5000         2.3005         0.0104       111.6778        27.0100        33.3738         2.0033      -999.2500         2.0746      -999.2500 
      9169.0000         2.3370         0.0210       112.1777        19.9610        20.1280         2.0590      -999.2500         2.3880      -999.2500 
      9169.5000         2.2799        -0.0197       111.8267        34.7040        28.5325         2.1027      -999.2500         2.4056      -999.2500 
      9170.0000         2.2300        -0.0248       107.1586        23.7060        31.6180         2.1586      -999.2500         2.1987      -999.2500 
      9170.5000         2.2216        -0.0116       100.0977        21.9410        39.1586         2.1791      -999.2500         2.0192      -999.2500 
      9171.0000         2.2727         0.0188        98.4375        27.7340        31.2947         2.1906      -999.2500         1.9552      -999.2500 
      9171.5000         2.3046         0.0338       101.0554        17.3700        32.1400         2.2183      -999.2500         1.9094      -999.2500 
      9172.0000         2.2982         0.0156        99.6448        17.3470        32.0110         2.2632      -999.2500         1.8994      -999.2500 
      9172.5000         2.2777        -0.0027        95.8493        15.0620        33.2957         2.3071      -999.2500         1.9110      -999.2500 
      9173.0000         2.3006        -0.0019        94.9452        17.3700        37.4689         2.3683      -999.2500         1.9528      -999.2500 
      9173.5000         2.2765        -0.0129        98.6667        19.6780        32.2456         2.4491      -999.2500         2.0972      -999.2500 
      9174.0000         2.3172        -0.0090       102.5138        27.7340        29.7903         2.5182      -999.2500         2.2699      -999.2500 
      9174.5000         2.3180         0.0014       104.6792        20.8550        27.8206         2.6792      -999.2500         2.4572      -999.2500 
      9175.0000         2.2190        -0.0250       105.3807        12.7080        30.1744         2.7695      -999.2500         2.5665      -999.2500 
      9175.5000         2.3763         0.0734       104.7111        21.9410        38.1744         2.7696      -999.2500         2.4540      -999.2500 
      9176.0000         2.3334         0.0016       103.9461        12.7080        36.3212         2.7045      -999.2500         2.1379      -999.2500 
      9176.5000         2.3272         0.0080       100.2600        25.4710        35.6030         2.6481      -999.2500         2.0360      -999.2500 
      9177.0000         2.2950         0.0010        96.3626        24.2940        42.4695         2.5712      -999.2500         2.0060      -999.2500 
      9177.5000         2.1940        -0.0365        94.7824        19.6780        43.2826         2.4056      -999.2500         2.0972      -999.2500 
      9178.0000         2.1645        -0.0269        93.8935        25.4710        37.3450         2.2339      -999.2500         2.1213      -999.2500 
      9178.5000         2.2205         0.0236        94.8092        28.9110        33.5649         1.9580      -999.2500         1.7591      -999.2500 
      9179.0000         2.3311         0.0737        97.1812        24.2940        41.6673         2.1539      -999.2500         1.9178      -999.2500 
      9179.5000         2.2657         0.0230        97.3871        32.4410        39.8070         2.1036      -999.2500         1.7422      -999.2500 
      9180.0000         2.3009         0.0444        96.2338        29.4990        36.5265         2.0777      -999.2500         1.9436      -999.2500 
      9180.5000         2.3217         0.0463        96.5473        45.1580        31.6705         2.1269      -999.2500         2.0145      -999.2500 
      9181.0000         2.3750         0.0637        98.1807        32.9840        41.3577         2.1673      -999.2500         2.0115      -999.2500 
