~Version Information Block
VERS .                 2.00:  CWLS LOG ASCII STANDARD - VERSION 2.00
WRAP .                   NO:  One line per depth step
~Well Information Block
STRT.ft        4040.5000                               : Start Depth
STOP.ft        9769.0000                               : Stop Depth
STEP.ft        0.5000                                  : Step
NULL.          -999.2500                               : Null Value
COMP.          Marathon Oil U.K                        : Company
WELL.          153/5-1                                 : Well
FLD .          EXPLORATION                             : Field
LOC .          NORTH SEA                               : Location
LOC1.          -                                       : Location 1 
CTRY.          UK                                      : Country
PROV.          UKCS                                    : Province
UWI .          7037                                    : UWI Number
API .          -                                       : API Number
SECT.          -                                       : Section
TOWN.          -                                       : Township
RNGE.          -                                       : Range
PDAT.          MSL                                     : Perm Datum
EPD .ft        0.0                                     : Elevation
LMF .          DF                                      : Log Measured From
DMF .          DF                                      : Drill Measured From
APD .ft        84.0                                    : Above Perm Datum
EKB .ft        84.0                                    : Elev-Kelly Bushing
EDF .ft        84.0                                    : Elev-Drill Floor
EGL .ft        -4096                                   : Elev-Ground Level (Water Depth)
TDD .ft        9800.00                                 : Total Depth (Driller)
TDL .ft        -                                       : Total Depth (Logger)
SRVC.          Baker Hughes                            : Service Company
LATI.          58 53 55.67 N                           : Latitude
LONG.          08 04 43.07 W                           : Longitude
DATE.          APR-MAY-2000                            : Logging Date
PROJ.          UKCS                                    : Project
SET .          COMP WIRE                               : Set
~Curve Information Block
#MNEM.UNIT         API CODE   Curve Description
#---------- ----------------  -----------------
DEPTH.FT                   :  Depth in Feet
BDCM .G/CC                 :  LWD Bulk Density Compensated
DRHM .G/CC                 :  LWD Density Correction
DTC  .US/FT                :  Compressional Slowness (Pathfinder)
GR   .GAPI                 :  Hybrid MLR GRC - LWD GRAM
NPLM .PU                   :  LWD Neutron Porosity (LS)
RACH .OHMM                 :  LWD Resistivity (AT) 2MHz Borehole Corrected
RACM .OHMM                 :  LWD Resistivity (AT)
RPCH .OHMM                 :  LWD Resistivity (PD) 2MHz Borehole Corrected
RPCM .OHMM                 :  LWD Resistivity (PD)
~A
# ...
      7565.0000      -999.2500      -999.2500        97.6397        20.4850      -999.2500      -999.2500         1.0254      -999.2500         1.0185 
      7565.5000      -999.2500      -999.2500        99.9059        24.4100      -999.2500      -999.2500         1.0294      -999.2500         1.0234 
      7566.0000      -999.2500      -999.2500       101.8903        21.2700      -999.2500      -999.2500         1.0502      -999.2500         0.9571 
      7566.5000      -999.2500      -999.2500        99.4353        22.8400      -999.2500      -999.2500         1.0704      -999.2500         1.0239 
      7567.0000      -999.2500      -999.2500        99.8383        21.6550      -999.2500      -999.2500         1.0612      -999.2500         1.1770 
      7567.5000      -999.2500      -999.2500        98.4917        22.0550      -999.2500      -999.2500         1.0500      -999.2500         1.2898 
      7568.0000      -999.2500      -999.2500        95.4566        22.0550      -999.2500      -999.2500         1.0492      -999.2500         1.4029 
      7568.5000      -999.2500      -999.2500        96.5546        16.5300      -999.2500      -999.2500         1.0507      -999.2500         1.4602 
      7569.0000      -999.2500      -999.2500        99.1104        24.8100      -999.2500      -999.2500         1.0151      -999.2500         1.3261 
      7569.5000      -999.2500      -999.2500        99.1418        20.0850      -999.2500      -999.2500         0.9908      -999.2500         1.0241 
      7570.0000      -999.2500      -999.2500        97.0468        24.0250      -999.2500      -999.2500         1.0501      -999.2500         1.0162 
      7570.5000      -999.2500      -999.2500        94.3073        33.0590      -999.2500         0.5731         1.1265         0.3270         1.1220 
      7571.0000      -999.2500      -999.2500        96.2262        19.7000      -999.2500         0.5431         1.1736         0.2991         1.2391 
      7571.5000      -999.2500      -999.2500        97.7580        26.7800      -999.2500         0.5189         1.1840         0.2860         1.2368 
      7572.0000      -999.2500      -999.2500        96.7927        20.4700      -999.2500         0.4920         1.2008         0.2800         1.2230 
      7572.5000      -999.2500      -999.2500        95.6918        18.9000      -999.2500         0.4939         1.1752         0.3151         1.1534 
      7573.0000      -999.2500      -999.2500        98.2309        14.1750      -999.2500         0.5150         1.1488         0.3910         1.0257 
      7573.5000      -999.2500      -999.2500       101.5396        23.6400      -999.2500         0.5360         1.1910         0.4661         1.0723 
      7574.0000      -999.2500      -999.2500       103.0543        21.5260      -999.2500         0.5571         1.2206         0.5420         1.0026 
      7574.5000      -999.2500      -999.2500       100.3110        20.3600      -999.2500         0.5739         1.3492         0.5957         0.9670 
      7575.0000      -999.2500      -999.2500        95.8114        21.2650      -999.2500         0.6800         1.5490         0.7080         1.0820 
      7575.5000      -999.2500      -999.2500        97.8556        18.9000      -999.2500         0.7880         1.8628         0.8220         1.4164 
      7576.0000      -999.2500      -999.2500        98.9074        15.7450      -999.2500         0.8956         2.0287         0.9355         1.9408 
      7576.5000      -999.2500      -999.2500        99.4942        23.1120       100.2970         0.9440         2.1017         0.9890         2.4595 
      7577.0000      -999.2500      -999.2500       102.3854        23.6400       103.0979         0.9657         2.1909         1.0156         2.7866 
      7577.5000      -999.2500      -999.2500       102.5188        18.1150       105.8980         0.9619         2.2590         1.0410         3.1707 
      7578.0000      -999.2500      -999.2500        97.4492        19.6850       108.6981         0.9420         2.3343         1.0707         3.4867 
      7578.5000      -999.2500      -999.2500        93.5679        19.7000       111.4990         0.9651         2.4032         0.9980         3.3467 
      7579.0000      -999.2500      -999.2500        95.2823        14.9600       100.5222         0.9630         2.3687         0.9760         3.3782 
      7579.5000      -999.2500      -999.2500        96.6234        18.9000        94.8720         0.9600         2.2775         0.9531         3.3176 
      7580.0000      -999.2500      -999.2500        95.8192        17.8530        89.4820         0.9570         2.2517         0.9310         2.7783 
      7580.5000      -999.2500      -999.2500        94.2943        23.6250        84.0910         0.9549         2.0954         0.9081         2.2179 
      7581.0000      -999.2500      -999.2500        94.5394        20.4800        78.7010         0.9520         1.8620         0.8860         1.7715 
      7581.5000      -999.2500      -999.2500        93.1550        23.6400        73.3109         0.9526         1.7420         0.8729         1.6645 
      7582.0000      -999.2500      -999.2500        97.0288        28.7200      -999.2500         1.0320         1.6558         0.9220         1.5809 
      7582.5000      -999.2500      -999.2500        99.8075        25.9790      -999.2500         1.1150         1.5286         0.9730         1.4267 
      7583.0000      -999.2500      -999.2500        97.9347        23.6400      -999.2500         1.1970         1.4926         1.0239         1.3040 
      7583.5000      -999.2500      -999.2500        99.9271        25.9790      -999.2500         1.2497         1.4164         1.0564         1.2602 
      7584.0000      -999.2500      -999.2500        99.8783        21.2700      -999.2500         1.3870         1.2454         1.1391         1.0286 
      7584.5000      -999.2500      -999.2500        99.8282        16.1450      -999.2500         1.5240         1.2450         1.2220         0.9540 
      7585.0000      -999.2500      -999.2500       100.4041        19.2840      -999.2500         1.6620         1.2670         1.3049         1.0683 
      7585.5000      -999.2500      -999.2500        99.9200        20.4700      -999.2500         1.7524         1.2183         1.3589         1.1168 
      7586.0000      -999.2500      -999.2500        99.7044        24.4100      -999.2500         1.6969         1.1942         1.3060         1.0705 
      7586.5000      -999.2500      -999.2500        98.4829        14.9600      -999.2500         1.6380         1.1987         1.2519         1.0094 
      7587.0000      -999.2500      -999.2500        97.1804        15.5930      -999.2500         1.5800         1.2291         1.1970         1.0251 
      7587.5000      -999.2500      -999.2500       103.4113        22.5980      -999.2500         1.5210         1.2182         1.1421         1.1219 
      7588.0000      -999.2500      -999.2500       110.6235        28.0250      -999.2500         1.4629         1.1730         1.0879         1.0879 
      7588.5000      -999.2500      -999.2500       107.1132        21.8400      -999.2500         1.4040         1.1606         1.0330         1.0464 
      7589.0000      -999.2500      -999.2500       101.5793        11.0200      -999.2500         1.3460         1.1764         0.9781         0.9866 
      7589.5000      -999.2500      -999.2500        98.1450        25.9790      -999.2500         1.3229         1.2610         1.1620         1.0276 
      7590.0000      -999.2500      -999.2500        97.8437        19.6850      -999.2500         1.3320         1.3017         1.5820         1.0569 
      7590.5000      -999.2500      -999.2500       100.5034        25.9790      -999.2500         1.3420         1.3487         2.0020         1.0651 
      7591.0000      -999.2500      -999.2500       103.2037        22.8400      -999.2500         1.3509         1.4096         2.4164         1.1382 
