~Version Information Block
VERS .                 2.00:  CWLS LOG ASCII STANDARD - VERSION 2.00
WRAP .                   NO:  One line per depth step
~Well Information Block
STRT.ft        4040.5000                               : Start Depth
STOP.ft        9769.0000                               : Stop Depth
STEP.ft        0.5000                                  : Step
NULL.          -999.2500                               : Null Value
COMP.          Marathon Oil U.K                        : Company
WELL.          153/5-1                                 : Well
FLD .          EXPLORATION                             : Field
LOC .          NORTH SEA                               : Location
LOC1.          -                                       : Location 1 
CTRY.          UK                                      : Country
PROV.          UKCS                                    : Province
UWI .          7037                                    : UWI Number
API .          -                                       : API Number
SECT.          -                                       : Section
TOWN.          -                                       : Township
RNGE.          -                                       : Range
PDAT.          MSL                                     : Perm Datum
EPD .ft        0.0                                     : Elevation
LMF .          DF                                      : Log Measured From
DMF .          DF                                      : Drill Measured From
APD .ft        84.0                                    : Above Perm Datum
EKB .ft        84.0                                    : Elev-Kelly Bushing
EDF .ft        84.0                                    : Elev-Drill Floor
EGL .ft        -4096                                   : Elev-Ground Level (Water Depth)
TDD .ft        9800.00                                 : Total Depth (Driller)
TDL .ft        -                                       : Total Depth (Logger)
SRVC.          Baker Hughes                            : Service Company
LATI.          58 53 55.67 N                           : Latitude
LONG.          08 04 43.07 W                           : Longitude
DATE.          APR-MAY-2000                            : Logging Date
PROJ.          UKCS                                    : Project
SET .          COMP WIRE                               : Set
~Curve Information Block
#MNEM.UNIT         API CODE   Curve Description
#---------- ----------------  -----------------
DEPTH.FT                   :  Depth in Feet
BDCM .G/CC                 :  LWD Bulk Density Compensated
DRHM .G/CC                 :  LWD Density Correction
DTC  .US/FT                :  Compressional Slowness (Pathfinder)
GR   .GAPI                 :  Hybrid MLR GRC - LWD GRAM
NPLM .PU                   :  LWD Neutron Porosity (LS)
RACH .OHMM                 :  LWD Resistivity (AT) 2MHz Borehole Corrected
RACM .OHMM                 :  LWD Resistivity (AT)
RPCH .OHMM                 :  LWD Resistivity (PD) 2MHz Borehole Corrected
RPCM .OHMM                 :  LWD Resistivity (PD)
~A
# ...
      8731.0000         2.2300         0.0420        95.9981        34.7490        33.7724         2.2430      -999.2500         2.7378      -999.2500 
      8731.5000         2.3431         0.0809        99.3374        28.9110        26.9168         2.1540      -999.2500         2.6478      -999.2500 
      8732.0000         2.3920         0.0822       101.7119        24.8370        35.1450         1.9906      -999.2500         2.4035      -999.2500 
      8732.5000         2.3716         0.0217       105.5278        38.2340        36.1321         1.7906      -999.2500         1.7926      -999.2500 
      8733.0000         2.3677         0.0080       107.3539        31.2640        32.8701         1.5528      -999.2500         1.2926      -999.2500 
      8733.5000         2.3412        -0.0064       108.1905        42.8050        29.1174         1.4267      -999.2500         1.2058      -999.2500 
      8734.0000         2.3709         0.0037       106.1766        37.0570        31.4389         1.3663      -999.2500         1.2009      -999.2500 
      8734.5000         2.3686        -0.0001       105.2870        20.8550        45.0317         1.3221      -999.2500         1.1858      -999.2500 
      8735.0000         2.3483        -0.0070       107.9314        21.9640        33.8458         1.2933      -999.2500         1.1537      -999.2500 
      8735.5000         2.3139        -0.0070       111.0984        34.7040        39.4545         1.2769      -999.2500         1.1282      -999.2500 
      8736.0000         2.3053         0.0102       111.9870        31.8070        34.9628         1.2472      -999.2500         1.1507      -999.2500 
      8736.5000         2.3086         0.0060       112.5224        34.7490        27.2214         1.2618      -999.2500         1.1735      -999.2500 
      8737.0000         2.3400         0.0172       112.5116        31.2190        31.0025         1.2718      -999.2500         1.2231      -999.2500 
      8737.5000         2.3383         0.0005       111.8388        28.9110        29.1268         1.2709      -999.2500         1.2259      -999.2500 
      8738.0000         2.3269        -0.0087       111.6480        39.3650        28.7859         1.2670      -999.2500         1.1706      -999.2500 
      8738.5000         2.3476         0.0002       111.6575        36.4230        34.6324         1.2591      -999.2500         1.1453      -999.2500 
      8739.0000         2.3266        -0.0089       111.9976        26.6030        32.3949         1.2570      -999.2500         1.1290      -999.2500 
      8739.5000         2.3812        -0.0035       111.8222        32.3960        35.8492         1.2660      -999.2500         1.1307      -999.2500 
      8740.0000         2.3349        -0.0255       111.6467        21.6920        34.4954         1.2816      -999.2500         1.1548      -999.2500 
      8740.5000         2.3364        -0.0199       111.5709        30.8720        37.2756         1.3593      -999.2500         1.1878      -999.2500 
      8741.0000         2.3760         0.0040       109.5615        31.2340        26.2471         1.3856      -999.2500         1.3183      -999.2500 
      8741.5000         2.3477        -0.0116       109.3521        26.0140        30.4406         1.3874      -999.2500         1.2985      -999.2500 
      8742.0000         2.3093        -0.0223       109.8606        36.4690        31.3734         1.4033      -999.2500         1.2061      -999.2500 
      8742.5000         2.3450        -0.0048       110.2004        28.9260        30.8361         1.3993      -999.2500         1.1506      -999.2500 
      8743.0000         2.3167        -0.0229       108.9374        35.2920        29.8536         1.4242      -999.2500         1.1946      -999.2500 
      8743.5000         2.2838        -0.0291       106.6730        26.2250        30.9201         1.4631      -999.2500         1.3410      -999.2500 
      8744.0000         2.2789        -0.0190       106.1991        29.3030        34.2344         1.5189      -999.2500         1.4637      -999.2500 
      8744.5000         2.3229        -0.0016       107.3676        28.1710        30.8168         1.5173      -999.2500         1.5025      -999.2500 
      8745.0000         2.3329         0.0006       108.1001        39.9540        32.5150         1.5168      -999.2500         1.5053      -999.2500 
      8745.5000         2.2616        -0.0303       109.1716        28.3220        34.1556         1.5384      -999.2500         1.5421      -999.2500 
      8746.0000         2.2684        -0.0159       110.7593        28.3680        38.0590         1.5288      -999.2500         1.6250      -999.2500 
      8746.5000         2.2686        -0.0212       112.4945        22.0090        29.8328         1.4919      -999.2500         1.4285      -999.2500 
      8747.0000         2.3087        -0.0002       113.2307        28.9110        32.8491         1.4291      -999.2500         1.2426      -999.2500 
      8747.5000         2.2948        -0.0166       111.8155        22.5750        38.5411         1.3775      -999.2500         1.1967      -999.2500 
      8748.0000         2.2915        -0.0132       110.2419        19.0670        33.7150         1.3449      -999.2500         1.1889      -999.2500 
      8748.5000         2.2736        -0.0191       110.4374        27.1910        43.6496         1.3125      -999.2500         1.1729      -999.2500 
      8749.0000         2.2826        -0.0126       111.7013        27.1910        43.1952         1.3006      -999.2500         1.1533      -999.2500 
      8749.5000         2.2621        -0.0143       115.1121        26.0590        38.3215         1.2728      -999.2500         1.1138      -999.2500 
      8750.0000         2.2490        -0.0199       115.4961        25.4710        39.1197         1.2659      -999.2500         1.1161      -999.2500 
      8750.5000         2.2721        -0.0078       114.1523        28.9110        36.5420         1.2623      -999.2500         1.1603      -999.2500 
      8751.0000         2.2783        -0.0037       113.9287        23.1480        30.8138         1.2819      -999.2500         1.1560      -999.2500 
      8751.5000         2.2590        -0.0110       113.0655        32.3960        36.0800         1.2920      -999.2500         1.1470      -999.2500 
      8752.0000         2.2629        -0.0126       112.4020        22.5520        36.5729         1.3026      -999.2500         1.1406      -999.2500 
      8752.5000         2.2760        -0.0070       112.8574        30.0870        37.1385         1.3412      -999.2500         1.1300      -999.2500 
      8753.0000         2.3247        -0.0071       111.5928        34.7040        36.0453         1.4061      -999.2500         1.2197      -999.2500 
      8753.5000         2.2984        -0.0174       108.8725        25.4260        33.6484         1.4731      -999.2500         1.4644      -999.2500 
      8754.0000         2.1950        -0.0180       108.5047        32.9840        34.9158         1.4874      -999.2500         1.6421      -999.2500 
      8754.5000         2.2566         0.0578       110.7108        32.0180        26.2588         1.4501      -999.2500         1.4630      -999.2500 
      8755.0000         2.4725         0.1865       111.7987        30.4040        30.5582         1.3891      -999.2500         1.2336      -999.2500 
      8755.5000         2.3466         0.0233       110.1189        20.2440        35.5191         1.3545      -999.2500         1.1878      -999.2500 
      8756.0000         2.2970        -0.0270       110.2222        28.3680        42.3892         1.3370      -999.2500         1.2411      -999.2500 
      8756.5000         2.3058        -0.0202       110.3493        37.4490        31.3618         1.3242      -999.2500         1.2797      -999.2500 
      8757.0000         2.3443        -0.0029       109.2345        31.6260        36.1658         1.3188      -999.2500         1.1781      -999.2500 
