~Version Information Block
VERS .                 2.00:  CWLS LOG ASCII STANDARD - VERSION 2.00
WRAP .                   NO:  One line per depth step
~Well Information Block
STRT.ft        4040.5000                               : Start Depth
STOP.ft        9769.0000                               : Stop Depth
STEP.ft        0.5000                                  : Step
NULL.          -999.2500                               : Null Value
COMP.          Marathon Oil U.K                        : Company
WELL.          153/5-1                                 : Well
FLD .          EXPLORATION                             : Field
LOC .          NORTH SEA                               : Location
LOC1.          -                                       : Location 1 
CTRY.          UK                                      : Country
PROV.          UKCS                                    : Province
UWI .          7037                                    : UWI Number
API .          -                                       : API Number
SECT.          -                                       : Section
TOWN.          -                                       : Township
RNGE.          -                                       : Range
PDAT.          MSL                                     : Perm Datum
EPD .ft        0.0                                     : Elevation
LMF .          DF                                      : Log Measured From
DMF .          DF                                      : Drill Measured From
APD .ft        84.0                                    : Above Perm Datum
EKB .ft        84.0                                    : Elev-Kelly Bushing
EDF .ft        84.0                                    : Elev-Drill Floor
EGL .ft        -4096                                   : Elev-Ground Level (Water Depth)
TDD .ft        9800.00                                 : Total Depth (Driller)
TDL .ft        -                                       : Total Depth (Logger)
SRVC.          Baker Hughes                            : Service Company
LATI.          58 53 55.67 N                           : Latitude
LONG.          08 04 43.07 W                           : Longitude
DATE.          APR-MAY-2000                            : Logging Date
PROJ.          UKCS                                    : Project
SET .          COMP WIRE                               : Set
~Curve Information Block
#MNEM.UNIT         API CODE   Curve Description
#---------- ----------------  -----------------
DEPTH.FT                   :  Depth in Feet
BDCM .G/CC                 :  LWD Bulk Density Compensated
DRHM .G/CC                 :  LWD Density Correction
DTC  .US/FT                :  Compressional Slowness (Pathfinder)
GR   .GAPI                 :  Hybrid MLR GRC - LWD GRAM
NPLM .PU                   :  LWD Neutron Porosity (LS)
RACH .OHMM                 :  LWD Resistivity (AT) 2MHz Borehole Corrected
RACM .OHMM                 :  LWD Resistivity (AT)
RPCH .OHMM                 :  LWD Resistivity (PD) 2MHz Borehole Corrected
RPCM .OHMM                 :  LWD Resistivity (PD)
~A
# ...
      8148.0000         2.2555         0.0070       124.9557        15.0620        40.2170         1.1284      -999.2500         1.2526      -999.2500 
      8148.5000         2.2832         0.0102       124.4693        27.7790        40.7921         1.0223      -999.2500         1.1575      -999.2500 
      8149.0000         2.2760         0.0095       124.6178        28.3450        41.0707         0.9455      -999.2500         1.0373      -999.2500 
      8149.5000         2.2566         0.0005       124.4520        22.5750        42.0651         0.9057      -999.2500         0.8516      -999.2500 
      8150.0000         2.2267        -0.0063       118.3046        21.3980        40.0362         0.8805      -999.2500         0.7655      -999.2500 
      8150.5000         2.2123        -0.0068       109.3574        16.2160        35.8909         0.8751      -999.2500         0.7421      -999.2500 
      8151.0000         2.2187        -0.0007       102.1416        18.5010        55.2137         0.8687      -999.2500         0.7328      -999.2500 
      8151.5000         2.2340         0.0040       101.6902        23.1180        45.9211         0.8751      -999.2500         0.7210      -999.2500 
      8152.0000         2.2440         0.0040       102.2807        28.3220        46.2220         0.9165      -999.2500         0.7156      -999.2500 
      8152.5000         2.2426         0.0021        99.9206        27.7340        39.2399         0.9686      -999.2500         0.7383      -999.2500 
      8153.0000         2.2586         0.0051        97.9899        15.0390        61.3996         0.9827      -999.2500         0.7959      -999.2500 
      8153.5000         2.2778         0.0079        96.9523        32.9840        41.7789         0.9819      -999.2500         0.8583      -999.2500 
      8154.0000         2.2840         0.0090        92.3225        36.4690        38.9078         0.9747      -999.2500         0.8536      -999.2500 
      8154.5000         2.2810         0.0061        90.4993        17.3700        40.9451         0.9526      -999.2500         0.7655      -999.2500 
      8155.0000         2.2726         0.0008       102.7599        20.8550        39.6853         0.9200      -999.2500         0.7460      -999.2500 
      8155.5000         2.2398        -0.0166       115.8518        35.2920        54.7833         0.8950      -999.2500         0.7452      -999.2500 
      8156.0000         2.2529        -0.0038       123.1254        17.3700        47.0726         0.8750      -999.2500         0.7512      -999.2500 
      8156.5000         2.2470         0.0021       122.5774        25.4710        39.2594         0.8541      -999.2500         0.7876      -999.2500 
      8157.0000         2.2316        -0.0038       124.3460        19.6780        50.7806         0.8351      -999.2500         0.7759      -999.2500 
      8157.5000         2.2517         0.0025       129.4879        31.8070        42.6719         0.8192      -999.2500         0.7475      -999.2500 
      8158.0000         2.2383         0.0040       136.7780        28.3220        44.8864         0.8121      -999.2500         0.7458      -999.2500 
      8158.5000         2.2394         0.0031       140.9335        36.4230        54.8773         0.8130      -999.2500         0.7450      -999.2500 
      8159.0000         2.2332         0.0037       142.2867        24.2940        67.0296         0.8182      -999.2500         0.7411      -999.2500 
      8159.5000         2.2230        -0.0060       140.8003        17.3250        54.8150         0.8310      -999.2500         0.7400      -999.2500 
      8160.0000         2.2181        -0.0026       135.9800        19.6780        51.5244         0.8440      -999.2500         0.7578      -999.2500 
      8160.5000         2.2347         0.0000       130.7451        24.8830        62.8657         0.8590      -999.2500         0.7759      -999.2500 
      8161.0000         2.2570         0.0104       130.1978        22.5750        46.6822         0.8740      -999.2500         0.7861      -999.2500 
      8161.5000         2.2351        -0.0099       131.3849        27.1910        59.0034         0.8885      -999.2500         0.7959      -999.2500 
      8162.0000         2.2188        -0.0053       126.9418        30.0870        67.8052         0.9378      -999.2500         0.8108      -999.2500 
      8162.5000         2.2269         0.0020       122.9063        31.6260        47.6620         1.0341      -999.2500         0.9799      -999.2500 
      8163.0000         2.2488         0.0080       125.1222        24.0120        42.2507         1.1190      -999.2500         1.2967      -999.2500 
      8163.5000         2.2686         0.0189       124.1786        25.8630        47.2038         1.1915      -999.2500         1.5111      -999.2500 
      8164.0000         2.2407         0.0077       121.1259        23.9020        33.5257         1.2169      -999.2500         1.5525      -999.2500 
      8164.5000         2.2109        -0.0173       125.3829        23.5400        45.0222         1.2047      -999.2500         1.4522      -999.2500 
      8165.0000         2.2360         0.0000       126.4197        24.3170        41.8017         1.1789      -999.2500         1.2283      -999.2500 
      8165.5000         2.2390        -0.0009       128.1935        27.8020        36.7367         1.1372      -999.2500         1.0389      -999.2500 
      8166.0000         2.2409        -0.0019       130.3978        36.4690        44.1436         1.1155      -999.2500         0.9923      -999.2500 
      8166.5000         2.1971        -0.0115       129.9846        24.2940        45.5133         1.1520      -999.2500         1.0861      -999.2500 
      8167.0000         2.2393         0.0483       130.9759        34.1150        45.3758         1.1687      -999.2500         1.1139      -999.2500 
      8167.5000         2.2799         0.0680       130.8448        34.1610        41.8378         1.1500      -999.2500         1.0901      -999.2500 
      8168.0000         2.2911         0.0308       128.8386        29.5440        38.8874         1.1376      -999.2500         1.0675      -999.2500 
      8168.5000         2.1714        -0.0283       130.0343        27.8020        38.8300         1.1481      -999.2500         1.1299      -999.2500 
      8169.0000         2.2197         0.0238       136.2160        35.8800        40.9374         1.1807      -999.2500         1.1934      -999.2500 
      8169.5000         2.2259         0.0211       133.6454        38.2340        44.2199         1.2040      -999.2500         1.2298      -999.2500 
      8170.0000         2.2220         0.0160       129.4263        16.1930        61.0668         1.2316      -999.2500         1.2531      -999.2500 
      8170.5000         2.2415         0.0226       132.1406        25.4710        47.2704         1.1953      -999.2500         1.2209      -999.2500 
      8171.0000         2.2585         0.0351       136.4231        18.5240        44.4605         1.1569      -999.2500         1.1190      -999.2500 
      8171.5000         2.2185         0.0109       141.1611        24.8830        37.7182         1.1084      -999.2500         1.0416      -999.2500 
      8172.0000         2.2062         0.0120       138.8441        18.5010        52.6350         1.1050      -999.2500         1.0469      -999.2500 
      8172.5000         2.2201         0.0119       136.2686        20.8100        46.3632         1.1148      -999.2500         1.0402      -999.2500 
      8173.0000         2.2229         0.0099       136.0556        22.5750        51.4710         1.1179      -999.2500         1.0440      -999.2500 
      8173.5000         2.2194         0.0073       138.5645        26.0140        50.8107         1.1121      -999.2500         1.0626      -999.2500 
      8174.0000         2.2288         0.0139       143.2005        13.8850        40.0846         1.1098      -999.2500         1.1141      -999.2500 
