~Version Information Block
VERS .                 2.00:  CWLS LOG ASCII STANDARD - VERSION 2.00
WRAP .                   NO:  One line per depth step
~Well Information Block
STRT.ft        4040.5000                               : Start Depth
STOP.ft        9769.0000                               : Stop Depth
STEP.ft        0.5000                                  : Step
NULL.          -999.2500                               : Null Value
COMP.          Marathon Oil U.K                        : Company
WELL.          153/5-1                                 : Well
FLD .          EXPLORATION                             : Field
LOC .          NORTH SEA                               : Location
LOC1.          -                                       : Location 1 
CTRY.          UK                                      : Country
PROV.          UKCS                                    : Province
UWI .          7037                                    : UWI Number
API .          -                                       : API Number
SECT.          -                                       : Section
TOWN.          -                                       : Township
RNGE.          -                                       : Range
PDAT.          MSL                                     : Perm Datum
EPD .ft        0.0                                     : Elevation
LMF .          DF                                      : Log Measured From
DMF .          DF                                      : Drill Measured From
APD .ft        84.0                                    : Above Perm Datum
EKB .ft        84.0                                    : Elev-Kelly Bushing
EDF .ft        84.0                                    : Elev-Drill Floor
EGL .ft        -4096                                   : Elev-Ground Level (Water Depth)
TDD .ft        9800.00                                 : Total Depth (Driller)
TDL .ft        -                                       : Total Depth (Logger)
SRVC.          Baker Hughes                            : Service Company
LATI.          58 53 55.67 N                           : Latitude
LONG.          08 04 43.07 W                           : Longitude
DATE.          APR-MAY-2000                            : Logging Date
PROJ.          UKCS                                    : Project
SET .          COMP WIRE                               : Set
~Curve Information Block
#MNEM.UNIT         API CODE   Curve Description
#---------- ----------------  -----------------
DEPTH.FT                   :  Depth in Feet
BDCM .G/CC                 :  LWD Bulk Density Compensated
DRHM .G/CC                 :  LWD Density Correction
DTC  .US/FT                :  Compressional Slowness (Pathfinder)
GR   .GAPI                 :  Hybrid MLR GRC - LWD GRAM
NPLM .PU                   :  LWD Neutron Porosity (LS)
RACH .OHMM                 :  LWD Resistivity (AT) 2MHz Borehole Corrected
RACM .OHMM                 :  LWD Resistivity (AT)
RPCH .OHMM                 :  LWD Resistivity (PD) 2MHz Borehole Corrected
RPCM .OHMM                 :  LWD Resistivity (PD)
~A
# ...
      8280.5000         2.2209         0.0002       113.5629        39.3200        33.5809         1.3387      -999.2500         1.4960      -999.2500 
      8281.0000         2.2368         0.0098       114.0251        26.6030        35.3919         1.2768      -999.2500         1.3324      -999.2500 
      8281.5000         2.2639         0.0269       111.7895        36.4690        37.8482         1.2419      -999.2500         1.2143      -999.2500 
      8282.0000         2.2899         0.0376       104.7596        35.8800        35.5094         1.2036      -999.2500         1.1878      -999.2500 
      8282.5000         2.2826         0.0304       103.6413        12.7080        36.4990         1.1500      -999.2500         1.1626      -999.2500 
      8283.0000         2.2762         0.0241       110.4870        24.8830        40.8041         1.0432      -999.2500         1.0421      -999.2500 
      8283.5000         2.3041         0.0179       114.5715        24.2940        45.0476         1.0239      -999.2500         0.9743      -999.2500 
      8284.0000         2.2110         0.0050       115.7638        40.4970        41.7070         1.0175      -999.2500         0.9543      -999.2500 
      8284.5000         2.2700        -0.0012       118.2618        32.4410        35.5547         0.9788      -999.2500         0.9137      -999.2500 
      8285.0000         2.2600        -0.0090       117.3237        26.6030        35.4290         0.9040      -999.2500         0.8609      -999.2500 
      8285.5000         2.2553        -0.0072       113.6610        28.9110        38.9261         0.8363      -999.2500         0.7503      -999.2500 
      8286.0000         2.2481        -0.0129       114.3696        26.6480        45.9022         0.8291      -999.2500         0.7422      -999.2500 
      8286.5000         2.2627        -0.0062       115.1596        32.9840        49.5470         0.8447      -999.2500         0.7589      -999.2500 
      8287.0000         2.2889         0.0051       114.8350        23.1180        50.5764         0.8544      -999.2500         0.7784      -999.2500 
      8287.5000         2.3115         0.0138       114.1790        34.3110        32.6521         0.8754      -999.2500         0.8677      -999.2500 
      8288.0000         2.3130         0.0120       115.2614        25.4710        37.9900         0.9161      -999.2500         0.8826      -999.2500 
      8288.5000         2.3090         0.0061       118.0670        31.2340        34.8226         0.9991      -999.2500         0.9673      -999.2500 
      8289.0000         2.2951         0.0010       122.6734        25.4710        33.8639         1.0746      -999.2500         1.1747      -999.2500 
      8289.5000         2.2700        -0.0080       127.4500        26.6480        34.1570         1.0343      -999.2500         1.2276      -999.2500 
      8290.0000         2.2526        -0.0139       128.4039        27.1910        34.2634         1.0123      -999.2500         1.0818      -999.2500 
      8290.5000         2.3466         0.0299       121.7953        42.8500        30.8890         0.9636      -999.2500         0.8256      -999.2500 
      8291.0000         2.3260         0.0180       124.1457        28.1710        36.6068         0.9961      -999.2500         0.8986      -999.2500 
      8291.5000         2.3027         0.0054       122.9188        30.0870        29.5469         1.0224      -999.2500         1.1054      -999.2500 
      8292.0000         2.3080         0.0050       118.4837        30.0870        50.3370         1.0609      -999.2500         1.2035      -999.2500 
      8292.5000         2.3193         0.0045       117.7885        33.5720        50.5833         1.1105      -999.2500         1.2257      -999.2500 
      8293.0000         2.3143        -0.0073       115.2057        29.3330        46.4510         1.0690      -999.2500         1.1218      -999.2500 
      8293.5000         2.2494        -0.0261       113.6608        31.2640        42.2503         1.0190      -999.2500         0.9301      -999.2500 
      8294.0000         2.2790        -0.0110       113.6000        27.3720        41.5220         0.9620      -999.2500         0.8543      -999.2500 
      8294.5000         2.2751        -0.0090       113.6000        36.4690        41.9679         1.0541      -999.2500         1.0131      -999.2500 
      8295.0000         2.2720        -0.0079       113.6045        32.9060        42.4180         1.1697      -999.2500         1.1236      -999.2500 
      8295.5000         2.2829        -0.0029       113.8016        27.5350        43.0820         0.9279      -999.2500         0.8582      -999.2500 
      8296.0000         2.3065         0.0067       114.8444        38.4830        43.5758         0.9409      -999.2500         0.9056      -999.2500 
      8296.5000         2.3697         0.0227       115.8781        28.5490        42.8643         0.9409      -999.2500         0.9640      -999.2500 
      8297.0000         2.2912        -0.0257       114.6936        18.5010        43.3389         0.9184      -999.2500         0.8944      -999.2500 
      8297.5000         2.2492        -0.0289       114.1377        31.2190        44.8211         0.8829      -999.2500         0.8089      -999.2500 
      8298.0000         2.2885         0.0007       115.7663        42.8500        46.2475         0.8657      -999.2500         0.7880      -999.2500 
      8298.5000         2.2870         0.0030       118.1464        32.9840        50.9010         0.8411      -999.2500         0.7660      -999.2500 
      8299.0000         2.2871         0.0039       116.9670        31.8520        52.2185         0.8292      -999.2500         0.7494      -999.2500 
      8299.5000         2.2900         0.0029       125.8667        36.5910        66.5740         0.8231      -999.2500         0.7353      -999.2500 
      8300.0000         2.2914         0.0019       134.8938        35.4490        51.5609         0.8230      -999.2500         0.7230      -999.2500 
      8300.5000         2.2680        -0.0040       134.5480        26.5230        45.5135         0.8374      -999.2500         0.7206      -999.2500 
      8301.0000         2.2441        -0.0109       137.8099        28.9110        41.3390         0.9092      -999.2500         0.7889      -999.2500 
      8301.5000         2.2569        -0.0050       145.3766        32.4410        47.2600         1.0072      -999.2500         0.8459      -999.2500 
      8302.0000         2.2849         0.0069       147.4302        22.5750        51.3860         1.0543      -999.2500         0.8785      -999.2500 
      8302.5000         2.2889         0.0080       137.6106        17.3700        55.2281         1.0943      -999.2500         0.9126      -999.2500 
      8303.0000         2.2820         0.0040       132.7835        30.0870        58.9785         1.1880      -999.2500         1.0392      -999.2500 
      8303.5000         2.2849         0.0040       134.5533        42.0330        52.4949         1.4108      -999.2500         1.7422      -999.2500 
      8304.0000         2.2930         0.0060       137.5885        11.5770        39.7033         1.2967      -999.2500         1.3107      -999.2500 
      8304.5000         2.2987         0.0077       138.6309        44.0270        38.2120         1.2771      -999.2500         1.2380      -999.2500 
      8305.0000         2.3681         0.0363       137.4891        52.0830        38.3163         1.2691      -999.2500         1.2052      -999.2500 
      8305.5000         2.3140        -0.0020       137.9554        42.8500        40.9881         1.2530      -999.2500         1.1379      -999.2500 
      8306.0000         2.2869        -0.0071       137.7046        31.2640        43.0848         1.2274      -999.2500         1.0466      -999.2500 
      8306.5000         2.3031        -0.0046       135.6626        30.0870        35.3037         1.1947      -999.2500         1.0108      -999.2500 
