~Version Information Block
VERS .                 2.00:  CWLS LOG ASCII STANDARD - VERSION 2.00
WRAP .                   NO:  One line per depth step
~Well Information Block
STRT.ft        4040.5000                               : Start Depth
STOP.ft        9769.0000                               : Stop Depth
STEP.ft        0.5000                                  : Step
NULL.          -999.2500                               : Null Value
COMP.          Marathon Oil U.K                        : Company
WELL.          153/5-1                                 : Well
FLD .          EXPLORATION                             : Field
LOC .          NORTH SEA                               : Location
LOC1.          -                                       : Location 1 
CTRY.          UK                                      : Country
PROV.          UKCS                                    : Province
UWI .          7037                                    : UWI Number
API .          -                                       : API Number
SECT.          -                                       : Section
TOWN.          -                                       : Township
RNGE.          -                                       : Range
PDAT.          MSL                                     : Perm Datum
EPD .ft        0.0                                     : Elevation
LMF .          DF                                      : Log Measured From
DMF .          DF                                      : Drill Measured From
APD .ft        84.0                                    : Above Perm Datum
EKB .ft        84.0                                    : Elev-Kelly Bushing
EDF .ft        84.0                                    : Elev-Drill Floor
EGL .ft        -4096                                   : Elev-Ground Level (Water Depth)
TDD .ft        9800.00                                 : Total Depth (Driller)
TDL .ft        -                                       : Total Depth (Logger)
SRVC.          Baker Hughes                            : Service Company
LATI.          58 53 55.67 N                           : Latitude
LONG.          08 04 43.07 W                           : Longitude
DATE.          APR-MAY-2000                            : Logging Date
PROJ.          UKCS                                    : Project
SET .          COMP WIRE                               : Set
~Curve Information Block
#MNEM.UNIT         API CODE   Curve Description
#---------- ----------------  -----------------
DEPTH.FT                   :  Depth in Feet
BDCM .G/CC                 :  LWD Bulk Density Compensated
DRHM .G/CC                 :  LWD Density Correction
DTC  .US/FT                :  Compressional Slowness (Pathfinder)
GR   .GAPI                 :  Hybrid MLR GRC - LWD GRAM
NPLM .PU                   :  LWD Neutron Porosity (LS)
RACH .OHMM                 :  LWD Resistivity (AT) 2MHz Borehole Corrected
RACM .OHMM                 :  LWD Resistivity (AT)
RPCH .OHMM                 :  LWD Resistivity (PD) 2MHz Borehole Corrected
RPCM .OHMM                 :  LWD Resistivity (PD)
~A
# ...
      7856.5000         2.2021        -0.0220       138.1207        10.4000        48.8963         1.0244      -999.2500         0.9161      -999.2500 
      7857.0000         2.2092        -0.0153       138.1292        28.9560        54.5178         1.0431      -999.2500         0.9207      -999.2500 
      7857.5000         2.1805        -0.0219       137.9505        25.8330        54.2949         1.0784      -999.2500         0.8956      -999.2500 
      7858.0000         2.1690        -0.0231       137.6117        16.2160        50.2748         1.1329      -999.2500         0.9050      -999.2500 
      7858.5000         2.1760        -0.0180       137.6030        24.8830        44.6570         1.1716      -999.2500         0.9350      -999.2500 
      7859.0000         2.1926        -0.0105       137.8044        16.1930        51.3439         1.2772      -999.2500         1.0875      -999.2500 
      7859.5000         2.2480         0.0030       138.6666        25.4710        51.3709         1.3510      -999.2500         1.2180      -999.2500 
      7860.0000         2.1998        -0.0203       138.4288        16.1930        44.0087         1.5058      -999.2500         1.3576      -999.2500 
      7860.5000         2.2508         0.0015       136.7374        20.8550        53.4280         1.5027      -999.2500         1.3255      -999.2500 
      7861.0000         2.2321        -0.0036       136.5801        19.6780        59.4346         1.3173      -999.2500         1.1175      -999.2500 
      7861.5000         2.1883        -0.0129       137.7627        11.5770        49.3255         1.2712      -999.2500         1.0315      -999.2500 
      7862.0000         2.2422         0.0097       138.4847        26.6480        42.9912         1.2628      -999.2500         1.0649      -999.2500 
      7862.5000         2.2480         0.0140       139.0285        26.6480        40.1243         1.2391      -999.2500         1.1714      -999.2500 
      7863.0000         2.2680         0.0200       139.7247         8.0920        49.9441         1.2218      -999.2500         1.2168      -999.2500 
      7863.5000         2.2931         0.0251       139.5014        25.4710        50.8876         1.1924      -999.2500         1.1780      -999.2500 
      7864.0000         2.2174        -0.0168       137.9625        25.4710        44.6090         1.1699      -999.2500         1.0323      -999.2500 
      7864.5000         2.1920        -0.0271       137.2252        39.3200        38.0794         1.1221      -999.2500         0.9686      -999.2500 
      7865.0000         2.1740        -0.0250       136.0317        16.1930        42.1210         0.9999      -999.2500         0.9885      -999.2500 
      7865.5000         2.1643        -0.0174       136.1778        11.5770        53.5100         0.9537      -999.2500         0.8259      -999.2500 
      7866.0000         2.1353        -0.0240       136.3327         5.7840        60.4369         0.9600      -999.2500         0.8026      -999.2500 
      7866.5000         2.1260        -0.0220       135.8414        20.8100        53.4767         1.0105      -999.2500         0.8869      -999.2500 
      7867.0000         2.1343        -0.0117       136.3688        33.5270        79.3376         1.0262      -999.2500         1.0814      -999.2500 
      7867.5000         2.2987         0.0479       137.2426        18.5010        43.9399         1.0479      -999.2500         1.2029      -999.2500 
      7868.0000         2.3056         0.0533       137.6000        25.4710        49.1213         1.0575      -999.2500         1.0987      -999.2500 
      7868.5000         2.1320        -0.0538       137.9503        15.0620        53.8154         1.0388      -999.2500         0.9726      -999.2500 
      7869.0000         2.1200        -0.0298       137.9077        28.9110        53.3639         1.0062      -999.2500         0.8598      -999.2500 
      7869.5000         2.1533        -0.0102       136.5527        29.5440        49.4534         1.0155      -999.2500         0.8704      -999.2500 
      7870.0000         2.2034         0.0069       135.8621        23.7510        46.6053         1.0337      -999.2500         0.9566      -999.2500 
      7870.5000         2.2032         0.0082       136.6863        13.8850        43.6010         1.0351      -999.2500         0.9610      -999.2500 
      7871.0000         2.1820        -0.0119       136.8746        15.0390        41.1669         1.0387      -999.2500         0.8826      -999.2500 
      7871.5000         2.1720        -0.0170       135.7952        17.3700        54.7997         1.0183      -999.2500         0.8732      -999.2500 
      7872.0000         2.1699        -0.0130       134.0466        24.2940        68.5320         1.0399      -999.2500         0.9119      -999.2500 
      7872.5000         2.1534        -0.0160       132.7195        28.9110        60.4564         1.0569      -999.2500         0.9251      -999.2500 
      7873.0000         2.1490        -0.0151       133.8741        21.9410        66.9807         1.0746      -999.2500         0.9437      -999.2500 
      7873.5000         2.2671         0.0313       135.4020        15.6280        43.2646         1.1047      -999.2500         1.0924      -999.2500 
      7874.0000         2.3505         0.0566       134.9055        21.9410        38.9846         1.1209      -999.2500         1.3890      -999.2500 
      7874.5000         2.3460         0.0370       133.5180        15.0620        37.6420         1.1775      -999.2500         1.5259      -999.2500 
      7875.0000         2.2730        -0.0127       132.4051        16.1930        36.9162         1.1901      -999.2500         1.4189      -999.2500 
      7875.5000         2.2670        -0.0180       130.3240        28.9110        38.6516         1.1460      -999.2500         1.1382      -999.2500 
      7876.0000         2.2540        -0.0130       131.4317        19.6780        40.6583         1.1228      -999.2500         0.9610      -999.2500 
      7876.5000         2.2337        -0.0023       133.8620        23.7510        48.9266         1.0912      -999.2500         0.9335      -999.2500 
      7877.0000         2.2031        -0.0141       135.8475        15.0390        50.0980         1.0844      -999.2500         0.9702      -999.2500 
      7877.5000         2.2254        -0.0024       133.7074        32.4410        50.1861         1.0912      -999.2500         1.0064      -999.2500 
      7878.0000         2.2248        -0.0040       132.1676        26.6480        52.3468         1.0988      -999.2500         1.0042      -999.2500 
      7878.5000         2.2201        -0.0059       133.5111        19.6780        45.0257         1.0891      -999.2500         0.9535      -999.2500 
      7879.0000         2.2298        -0.0060       134.9263        18.5010        47.3110         1.0721      -999.2500         0.9660      -999.2500 
      7879.5000         2.2260        -0.0118       135.7278         8.0920        38.1154         1.0664      -999.2500         0.9536      -999.2500 
      7880.0000         2.2250        -0.0140       134.2149        16.1930        42.3066         1.0530      -999.2500         0.9419      -999.2500 
      7880.5000         2.2348        -0.0119       131.0084         9.2690        40.4726         1.0484      -999.2500         0.9372      -999.2500 
      7881.0000         2.2357        -0.0072       131.8763        17.3700        47.4758         1.0305      -999.2500         0.9357      -999.2500 
      7881.5000         2.2243        -0.0099       131.2887        18.5010        54.3744         1.0414      -999.2500         0.9111      -999.2500 
      7882.0000         2.2191        -0.0061       133.3387        24.2940        49.3246         1.0690      -999.2500         0.8915      -999.2500 
      7882.5000         2.2130        -0.0159       135.5887         9.2690        41.8435         1.1040      -999.2500         0.9194      -999.2500 
