~VERSION INFORMATION
 VERS.                 2.0:   CWLS LOG ASCII STANDARD -VERSION 2.0
 WRAP.                  NO:   ONE LINE PER DEPTH STEP
~WELL INFORMATION BLOCK
#MNEM.UNIT           DATA                DESCRIPTION OF MNEMONIC
#---------    -------------------        -------------------------------
 STRT.M                     197.90          :START DEPTH
 STOP.M                    4093.85          :STOP DEPTH
 STEP.M                     0.1524          :STEP
 NULL.                     -999.25          :NULL VALUE
 COMP.                                      :COMPANY
 WELL.                  15/9-F-1 C          :WELL
 FLD.                        VOLVE          :FIELD
 LOC.                                       :LOCATION
 CNTY.                                      :COUNTY
 STAT.                                      :STATE
 CTRY.                                      :COUNTRY
 SRVC.                                      :SERVICE COMPANY
 DATE.                   17-Apr-20          :DATE
 UWI.                   15/9-F-1 C          :UNIQUE WELL ID
 ELEVREF.                       KB          :REFERENCE ELEVATION
 ELEV.M                      54.90          :ELEVATION
 XCOORD.                435046.531          :SURFACE X
 YCOORD.               6478567.000          :SURFACE Y
~CURVE INFORMATION      
#MNEM.UNIT      API CODE      CURVE DESCRIPTION
#---------    -------------   ------------------------------
DEPT.M                        : Depth
CALI.in                       : CALI
RDEP.-                        : Deep Resistivity
DEN.-                         : Density of correlated events
DENC.-                        : DENC
ROP.-                         : ROP
GR.API                        : smoothed gr
RMED.-                        : Medium Resistivity
NEU.-                         : NEU
PEF.b/e                       : Photoelectric Factor
BS.-                          : Bit Size
~PARAMETER INFORMATION
#MNEM.UNIT           DATA                 DESCRIPTION OF MNEMONIC
#---------         -----------         ------------------------------
~A   DEPT          CALI          RDEP           DEN          DENC           ROP            GR          RMED           NEU           PEF            BS
# ...
     2811.56        -999.25         2.5175        -999.25        -999.25        27.4396        10.1012         2.5903        -999.25        -999.25          12.25
     2811.71        -999.25         2.5896        -999.25        -999.25        27.3115         9.9056         2.5942        -999.25        -999.25          12.25
     2811.86        -999.25         2.5834        -999.25        -999.25        27.2021        10.8797         2.5624        -999.25        -999.25          12.25
     2812.02        -999.25         2.6394        -999.25        -999.25         26.918         8.9059          2.553        -999.25        -999.25          12.25
     2812.17        -999.25         2.6925        -999.25        -999.25        26.7435         7.0822         2.5719        -999.25        -999.25          12.25
     2812.32        -999.25         2.7719        -999.25        -999.25        26.4354         7.0279         2.6055        -999.25        -999.25          12.25
     2812.47        -999.25         2.8461        -999.25        -999.25         26.302         7.1626          2.742        -999.25        -999.25          12.25
     2812.63        -999.25         3.1623        -999.25        -999.25        25.9487         7.6091         3.3763        -999.25        -999.25          12.25
     2812.78        -999.25         3.3384        -999.25        -999.25        25.7289         7.7943         3.7618        -999.25        -999.25          12.25
     2812.93        -999.25         3.7111        -999.25        -999.25        24.5181         8.2651         4.4247        -999.25        -999.25          12.25
     2813.08        -999.25         3.7412        -999.25        -999.25        23.5272         7.4615         4.5341        -999.25        -999.25          12.25
     2813.24        -999.25         3.7481        -999.25        -999.25         21.694         5.7507         4.4412        -999.25        -999.25          12.25
     2813.39        -999.25         3.7468        -999.25        -999.25        20.8516         4.7219         4.3567        -999.25        -999.25          12.25
     2813.54        -999.25         3.7248        -999.25        -999.25        19.6117         7.6333         4.1303        -999.25        -999.25          12.25
     2813.69        -999.25         3.6976        -999.25        -999.25        19.2141          7.554         3.9876        -999.25        -999.25          12.25
     2813.85        -999.25         3.6949        -999.25        -999.25        18.8559         8.8265         3.8137        -999.25        -999.25          12.25
     2814.00        -999.25         3.6976        -999.25        -999.25        18.8952         7.8533         3.8001        -999.25        -999.25          12.25
     2814.15        -999.25         3.6362        -999.25        -999.25        18.8388         8.6486         3.6687        -999.25        -999.25          12.25
     2814.30        -999.25         3.7662        -999.25        -999.25        18.6473         9.4045         3.8644        -999.25        -999.25          12.25
     2814.46        -999.25         3.7829        -999.25        -999.25        18.5174         8.8823         3.8773        -999.25        -999.25          12.25
     2814.61        -999.25         3.6204        -999.25        -999.25        18.2575         8.6584         3.5239        -999.25        -999.25          12.25
     2814.76        -999.25         3.6022        -999.25        -999.25        17.8562         9.5199         3.4898        -999.25        -999.25          12.25
     2814.91        -999.25         3.7266        -999.25        -999.25        17.0535         9.8045         3.7306        -999.25        -999.25          12.25
     2815.07        -999.25         3.8541        -999.25        -999.25        17.2329          9.575         3.9197        -999.25        -999.25          12.25
     2815.22        -999.25         3.9847        -999.25        -999.25        17.5917         9.7472         4.2202        -999.25        -999.25          12.25
     2815.37        -999.25         3.9786        -999.25        -999.25         17.546         8.1433         4.2376        -999.25        -999.25          12.25
     2815.52        -999.25         3.9816        -999.25        -999.25        17.4547         6.6443         4.0754        -999.25        -999.25          12.25
     2815.67        -999.25         3.9755        -999.25        -999.25        17.6765         6.9835         3.9702        -999.25        -999.25          12.25
     2815.83        -999.25         3.9304        -999.25        -999.25          18.12         9.1424         3.7385        -999.25        -999.25          12.25
     2815.98        -999.25         3.9469        -999.25        -999.25        18.3512         9.7236         3.7315        -999.25        -999.25          12.25
     2816.13        -999.25         4.1522        -999.25        -999.25        18.8135        12.6341         3.9799        -999.25        -999.25          12.25
     2816.28        -999.25         4.2703        -999.25        -999.25        19.0182        12.3341         4.1197        -999.25        -999.25          12.25
     2816.44        -999.25          4.547        -999.25        -999.25        19.4278         9.8244         4.5119        -999.25        -999.25          12.25
     2816.59        -999.25          4.627        -999.25        -999.25        19.3574         8.7299         4.7595        -999.25        -999.25          12.25
     2816.74        -999.25         4.9658        -999.25        -999.25        19.2166         7.6079         5.2001        -999.25        -999.25          12.25
     2816.89        -999.25         5.0578        -999.25        -999.25          19.07         7.8125         5.2969        -999.25        -999.25          12.25
     2817.05        -999.25          5.236        -999.25        -999.25        18.7767         8.2265          5.312        -999.25        -999.25          12.25
     2817.20        -999.25         5.3024        -999.25        -999.25        18.6905         7.1773         5.4061        -999.25        -999.25          12.25
     2817.35        -999.25          5.505        -999.25        -999.25         18.518         6.5456         5.6105        -999.25        -999.25          12.25
     2817.50        -999.25         5.6932        -999.25        -999.25        18.1704         8.3699         5.8599        -999.25        -999.25          12.25
     2817.66        -999.25         5.8977        -999.25        -999.25        17.9965         7.6632         6.1152        -999.25        -999.25          12.25
     2817.81        -999.25         6.1567        -999.25        -999.25        14.8973         6.0765         6.3499        -999.25        -999.25          12.25
     2817.96        -999.25          6.268        -999.25        -999.25        13.3477         5.8677         6.4582        -999.25        -999.25          12.25
     2818.11        -999.25         6.6498        -999.25        -999.25        10.1835         7.5682         7.1034        -999.25        -999.25          12.25
     2818.27        -999.25         6.6291        -999.25        -999.25         8.6014         7.3528         7.0535        -999.25        -999.25          12.25
     2818.42        -999.25         6.7833        -999.25        -999.25         6.5205         6.7861         7.2585        -999.25        -999.25          12.25
     2818.57        -999.25         6.9357        -999.25        -999.25           5.48         6.2079          7.494        -999.25        -999.25          12.25
     2818.72        -999.25         7.0253        -999.25        -999.25         5.3661         5.8287           7.71        -999.25        -999.25          12.25
     2818.88        -999.25         7.0861        -999.25        -999.25         5.3092          6.254         7.7741        -999.25        -999.25          12.25
     2819.03        -999.25         7.1323        -999.25        -999.25         6.5572         5.4253         7.8871        -999.25        -999.25          12.25
