~VERSION INFORMATION
 VERS.                 2.0:   CWLS LOG ASCII STANDARD -VERSION 2.0
 WRAP.                  NO:   ONE LINE PER DEPTH STEP
~WELL INFORMATION BLOCK
#MNEM.UNIT           DATA                DESCRIPTION OF MNEMONIC
#---------    -------------------        -------------------------------
 STRT.M                     197.90          :START DEPTH
 STOP.M                    4093.85          :STOP DEPTH
 STEP.M                     0.1524          :STEP
 NULL.                     -999.25          :NULL VALUE
 COMP.                                      :COMPANY
 WELL.                  15/9-F-1 C          :WELL
 FLD.                        VOLVE          :FIELD
 LOC.                                       :LOCATION
 CNTY.                                      :COUNTY
 STAT.                                      :STATE
 CTRY.                                      :COUNTRY
 SRVC.                                      :SERVICE COMPANY
 DATE.                   17-Apr-20          :DATE
 UWI.                   15/9-F-1 C          :UNIQUE WELL ID
 ELEVREF.                       KB          :REFERENCE ELEVATION
 ELEV.M                      54.90          :ELEVATION
 XCOORD.                435046.531          :SURFACE X
 YCOORD.               6478567.000          :SURFACE Y
~CURVE INFORMATION      
#MNEM.UNIT      API CODE      CURVE DESCRIPTION
#---------    -------------   ------------------------------
DEPT.M                        : Depth
CALI.in                       : CALI
RDEP.-                        : Deep Resistivity
DEN.-                         : Density of correlated events
DENC.-                        : DENC
ROP.-                         : ROP
GR.API                        : smoothed gr
RMED.-                        : Medium Resistivity
NEU.-                         : NEU
PEF.b/e                       : Photoelectric Factor
BS.-                          : Bit Size
~PARAMETER INFORMATION
#MNEM.UNIT           DATA                 DESCRIPTION OF MNEMONIC
#---------         -----------         ------------------------------
~A   DEPT          CALI          RDEP           DEN          DENC           ROP            GR          RMED           NEU           PEF            BS
# ...
     3573.56         8.5243          7.664         2.2113         0.0436        29.8699        40.3196        11.1991         0.2347         5.8232           8.50
     3573.71         8.5243         8.0198         2.2224          0.043        29.8736        39.5726        10.3478         0.2364         5.7418           8.50
     3573.86         8.5243         8.4365         2.2316         0.0426        29.8754        39.9429        10.6735         0.2364           5.73           8.50
     3574.02         8.5243         9.3828         2.2619         0.0462        29.8791        40.6135        12.2592         0.2357         5.7598           8.50
     3574.17         8.5243          8.693         2.2779         0.0513        29.8809        42.0381        10.0695         0.2356         5.7579           8.50
     3574.32         8.5243         7.8918         2.2802         0.0576        29.8846        38.6569        10.0033         0.2329          5.632           8.50
     3574.47         8.5243         7.6696          2.261          0.054        29.8865        38.0982        11.0186         0.2314         5.5433           8.50
     3574.63         8.5243         7.2306         2.2105         0.0395        29.8654         40.684         11.292         0.2302           5.42           8.50
     3574.78         8.5243         7.0811         2.1942         0.0347        29.8424        39.9021        10.8169         0.2306         5.3729           8.50
     3574.93         8.5243         6.8892         2.1892         0.0343        29.8213        38.9777        11.0231         0.2361         5.3416           8.50
     3575.08         8.4999         6.5581         2.1931         0.0363        29.8231        39.1099          12.47         0.2409         5.3717           8.50
     3575.24         8.5243         5.9439         2.2009         0.0405        29.8274        39.9667        12.5879         0.2419          5.469           8.50
     3575.39         8.5243         5.2569         2.2015          0.041        29.8298          39.38        11.1745         0.2412          5.488           8.50
     3575.54         8.5243          3.841         2.2008         0.0402        29.8335        39.1487         4.2543         0.2359         5.4953           8.50
     3575.69         8.5243         3.6792         2.2014         0.0402        29.8348        39.9599          4.238         0.2318         5.4927           8.50
     3575.85         8.5243         3.7262         2.2053          0.041        29.8378        42.1429         4.7656         0.2238         5.4274           8.50
     3576.00         8.5243         3.7067         2.2091         0.0414        29.8396        43.4309         5.1409         0.2218         5.3984           8.50
     3576.15         8.5243          2.717         2.2182         0.0399        29.8432        51.7059         2.2547         0.2142         5.4465           8.50
     3576.30         8.5243         2.0909          2.233         0.0325        29.8469        60.5949         1.2508         0.1993         5.5932           8.50
     3576.46         8.5243         2.4144         2.2484          0.025        29.8557        64.6738           2.02         0.1948          5.734           8.50
     3576.61         8.6057         2.8068         2.3155          0.009        29.8733        66.4745         3.4446         0.1858         6.2235           8.50
     3576.76         8.6057         2.5217         2.3698         0.0101        29.8834        66.4884         2.8095         0.1844         6.4108           8.50
     3576.91         8.5243         2.3422         2.4785          0.037        29.9035        53.9523         2.2962         0.1939         6.2718           8.50
     3577.07         8.5243         2.5894         2.5002         0.0512        29.9137        50.1504         2.8575         0.2019         6.0878           8.50
     3577.22         8.5243          2.722         2.4585         0.0595        29.9339        47.0958         3.2331         0.2195         5.9572           8.50
     3577.37         8.5243         2.6265         2.4169          0.056        29.9408        48.7287         2.9759         0.2226         5.9709           8.50
     3577.52         8.5243         2.7589         2.3547         0.0498        29.9546        48.8801         3.1515         0.2204         5.9109           8.50
     3577.67         8.5243         2.9091         2.3374         0.0482        29.9279        49.8508         3.4124         0.2195         5.8643           8.50
     3577.83         8.5243         3.0034         2.3177         0.0452        29.8745        49.5159         3.8227         0.2215         5.8497           8.50
     3577.98         8.5243         3.0213         2.3146          0.044        29.8763        48.3084         3.8434         0.2239         5.8624           8.50
     3578.13         8.5243         2.9317         2.3099         0.0258          29.88        48.0232         3.4877         0.2238         5.9348           8.50
     3578.28         8.5243         2.9413         2.3076         0.0053        29.8819        48.6761         3.5463         0.2206         6.0436           8.50
     3578.44         8.5569         3.1343         2.3414        -0.0036        29.8855        45.9538         4.1266         0.2213         6.1981           8.50
     3578.59         8.5243         3.0824         2.3708         0.0206        29.8874        43.1622         3.9271         0.2282         6.0959           8.50
     3578.74         8.5243         2.7187         2.3654         0.0635        29.8911        40.6153         2.6917         0.2276         5.6806           8.50
     3578.89         8.5243         2.7002         2.3286         0.0617        29.8929        39.4543          2.539         0.2221         5.5369           8.50
     3579.05         8.5243         3.1915         2.2734          0.041        29.8966        38.1862          3.338         0.2046         5.4312           8.50
     3579.20         8.5243         3.2141         2.2737         0.0351        29.9017        35.5092         3.1721         0.1935         5.4364           8.50
     3579.35         8.4755         3.4127         2.3032          0.037        29.9118         31.684         3.1227         0.1719         5.4818           8.50
     3579.50         8.4755          3.904         2.3094         0.0439        29.9156        25.8834         4.4489          0.165         5.4929           8.50
     3579.66         8.5243         4.1554         2.2973         0.0445        29.9175        23.7013         4.6556         0.1643         5.5175           8.50
     3579.81         8.4999         4.5387         2.2668         0.0422        29.9211         21.244         5.6082         0.1616         5.5875           8.50
     3579.96         8.5243           4.80         2.2543          0.041        29.9229        20.5536         5.9755         0.1632         5.6034           8.50
     3580.11         8.5243         5.2569         2.2409          0.041        29.9266        20.4763          6.889         0.1735         5.6422           8.50
     3580.27         8.5243         5.4156         2.2382         0.0413        29.9285        19.5559          7.021         0.1757         5.6629           8.50
     3580.42         8.5243         5.6327         2.2328         0.0396        29.9327        20.2355         7.3268          0.171          5.659           8.50
     3580.57         8.5243         5.8382         2.2323          0.039        29.9349        20.3964         7.5554         0.1693         5.6437           8.50
     3580.72         8.5243         5.9562          2.235         0.0392        29.9381        20.7356         7.6899         0.1696         5.5816           8.50
     3580.88         8.5243         5.9439          2.234         0.0382        29.9397        21.5646         7.5399         0.1692         5.5144           8.50
     3581.03         8.5243         5.9225         2.2284         0.0342         29.887        19.8069         7.3741         0.1695         5.3758           8.50
