~VERSION INFORMATION
 VERS.                 2.0:   CWLS LOG ASCII STANDARD -VERSION 2.0
 WRAP.                  NO:   ONE LINE PER DEPTH STEP
~WELL INFORMATION BLOCK
#MNEM.UNIT           DATA                DESCRIPTION OF MNEMONIC
#---------    -------------------        -------------------------------
 STRT.M                     197.90          :START DEPTH
 STOP.M                    4093.85          :STOP DEPTH
 STEP.M                     0.1524          :STEP
 NULL.                     -999.25          :NULL VALUE
 COMP.                                      :COMPANY
 WELL.                  15/9-F-1 C          :WELL
 FLD.                        VOLVE          :FIELD
 LOC.                                       :LOCATION
 CNTY.                                      :COUNTY
 STAT.                                      :STATE
 CTRY.                                      :COUNTRY
 SRVC.                                      :SERVICE COMPANY
 DATE.                   17-Apr-20          :DATE
 UWI.                   15/9-F-1 C          :UNIQUE WELL ID
 ELEVREF.                       KB          :REFERENCE ELEVATION
 ELEV.M                      54.90          :ELEVATION
 XCOORD.                435046.531          :SURFACE X
 YCOORD.               6478567.000          :SURFACE Y
~CURVE INFORMATION      
#MNEM.UNIT      API CODE      CURVE DESCRIPTION
#---------    -------------   ------------------------------
DEPT.M                        : Depth
CALI.in                       : CALI
RDEP.-                        : Deep Resistivity
DEN.-                         : Density of correlated events
DENC.-                        : DENC
ROP.-                         : ROP
GR.API                        : smoothed gr
RMED.-                        : Medium Resistivity
NEU.-                         : NEU
PEF.b/e                       : Photoelectric Factor
BS.-                          : Bit Size
~PARAMETER INFORMATION
#MNEM.UNIT           DATA                 DESCRIPTION OF MNEMONIC
#---------         -----------         ------------------------------
~A   DEPT          CALI          RDEP           DEN          DENC           ROP            GR          RMED           NEU           PEF            BS
# ...
     1782.86        -999.25         0.7972        -999.25        -999.25        31.5527        74.9599         0.8168        -999.25        -999.25          17.50
     1783.01        -999.25         0.7907        -999.25        -999.25         30.082        76.6029          0.824        -999.25        -999.25          17.50
     1783.16        -999.25         0.7844        -999.25        -999.25        29.4955        79.5428         0.8153        -999.25        -999.25          17.50
     1783.32        -999.25         0.7403        -999.25        -999.25        29.0071        79.1094          0.768        -999.25        -999.25          17.50
     1783.47        -999.25         0.7301        -999.25        -999.25        29.1051        81.6464         0.7393        -999.25        -999.25          17.50
     1783.62        -999.25         0.7181        -999.25        -999.25        29.3787        81.1572         0.7332        -999.25        -999.25          17.50
     1783.77        -999.25         0.7176        -999.25        -999.25        29.5543        83.1572         0.7323        -999.25        -999.25          17.50
     1783.93        -999.25         0.7078        -999.25        -999.25        30.2166        81.2923         0.7287        -999.25        -999.25          17.50
     1784.08        -999.25         0.7029        -999.25        -999.25        30.7032        78.5795         0.7323        -999.25        -999.25          17.50
     1784.23        -999.25           0.70        -999.25        -999.25        31.7876         81.927         0.7332        -999.25        -999.25          17.50
     1784.38        -999.25         0.7017        -999.25        -999.25        32.3854        81.7709         0.7388        -999.25        -999.25          17.50
     1784.54        -999.25         0.7033        -999.25        -999.25        33.4476        84.4352         0.7386        -999.25        -999.25          17.50
     1784.69        -999.25         0.7057        -999.25        -999.25         33.912        85.3374         0.7301        -999.25        -999.25          17.50
     1784.84        -999.25         0.7014        -999.25        -999.25        34.8045        79.2349         0.7281        -999.25        -999.25          17.50
     1784.99        -999.25         0.7207        -999.25        -999.25        35.2325         79.937          0.728        -999.25        -999.25          17.50
     1785.15        -999.25          0.721        -999.25        -999.25        36.0301        75.0927         0.7142        -999.25        -999.25          17.50
     1785.30        -999.25         0.7213        -999.25        -999.25        36.3996        77.3508         0.7347        -999.25        -999.25          17.50
     1785.45        -999.25         0.7242        -999.25        -999.25        36.7626        79.8543         0.7604        -999.25        -999.25          17.50
     1785.60        -999.25         0.7379        -999.25        -999.25        36.7497        75.4013         0.7668        -999.25        -999.25          17.50
     1785.76        -999.25         0.7456        -999.25        -999.25        36.7392        71.7152          0.777        -999.25        -999.25          17.50
     1785.91        -999.25         0.8004        -999.25        -999.25        36.7184        67.2324         0.8348        -999.25        -999.25          17.50
     1786.06        -999.25         0.8197        -999.25        -999.25        36.7124        65.7654         0.9052        -999.25        -999.25          17.50
     1786.21        -999.25         0.7319        -999.25        -999.25        36.7004        77.3288         0.7878        -999.25        -999.25          17.50
     1786.37        -999.25         0.7183        -999.25        -999.25        36.7125        81.7061          0.739        -999.25        -999.25          17.50
     1786.52        -999.25         0.7106        -999.25        -999.25        36.7366        81.9539         0.7388        -999.25        -999.25          17.50
     1786.67        -999.25         0.7088        -999.25        -999.25        36.7511        84.6011         0.7301        -999.25        -999.25          17.50
     1786.82        -999.25         0.6894        -999.25        -999.25        36.7801        86.5204         0.7136        -999.25        -999.25          17.50
     1786.97        -999.25         0.6819        -999.25        -999.25        36.7888        87.4921         0.7089        -999.25        -999.25          17.50
     1787.13        -999.25          0.686        -999.25        -999.25        36.8062        85.0241         0.7264        -999.25        -999.25          17.50
     1787.28        -999.25         0.6898        -999.25        -999.25        36.7791         86.563         0.7351        -999.25        -999.25          17.50
     1787.43        -999.25         0.7099        -999.25        -999.25        36.7249        91.8501         0.7529        -999.25        -999.25          17.50
     1787.58        -999.25         0.7172        -999.25        -999.25        36.6216        93.6072         0.7574        -999.25        -999.25          17.50
     1787.74        -999.25         0.7179        -999.25        -999.25        36.4149         83.459         0.7625        -999.25        -999.25          17.50
     1787.89        -999.25         0.7172        -999.25        -999.25        36.5255        87.6861         0.7518        -999.25        -999.25          17.50
     1788.04        -999.25         0.7097        -999.25        -999.25        36.7467        82.5715         0.7463        -999.25        -999.25          17.50
     1788.19        -999.25         0.7148        -999.25        -999.25         36.931        83.5899         0.7501        -999.25        -999.25          17.50
     1788.35        -999.25         0.7286        -999.25        -999.25        37.2996         83.634          0.764        -999.25        -999.25          17.50
     1788.50        -999.25         0.7266        -999.25        -999.25        37.4425        84.9516         0.7721        -999.25        -999.25          17.50
     1788.65        -999.25         0.7301        -999.25        -999.25        37.7282        91.0019         0.7682        -999.25        -999.25          17.50
     1788.80        -999.25         0.7244        -999.25        -999.25        38.0235         85.331         0.7624        -999.25        -999.25          17.50
     1788.96        -999.25         0.7194        -999.25        -999.25        38.1712        84.6859         0.7674        -999.25        -999.25          17.50
     1789.11        -999.25         0.7181        -999.25        -999.25        38.4667        86.6024         0.7648        -999.25        -999.25          17.50
     1789.26        -999.25         0.7228        -999.25        -999.25        38.6144        85.8177         0.7608        -999.25        -999.25          17.50
     1789.41        -999.25         0.7097        -999.25        -999.25        37.7162         84.577         0.7443        -999.25        -999.25          17.50
     1789.57        -999.25         0.7063        -999.25        -999.25         37.267        84.8616         0.7328        -999.25        -999.25          17.50
     1789.72        -999.25         0.7061        -999.25        -999.25        36.0102         80.944         0.7381        -999.25        -999.25          17.50
     1789.87        -999.25         0.7052        -999.25        -999.25        35.3817        80.7587         0.7413        -999.25        -999.25          17.50
     1790.02        -999.25         0.7127        -999.25        -999.25        34.1249         79.568         0.7571        -999.25        -999.25          17.50
     1790.18        -999.25         0.7207        -999.25        -999.25        33.4965         82.045          0.767        -999.25        -999.25          17.50
     1790.33        -999.25         0.7126        -999.25        -999.25        32.6525        82.5163         0.7568        -999.25        -999.25          17.50
