~VERSION INFORMATION
 VERS.                 2.0:   CWLS LOG ASCII STANDARD -VERSION 2.0
 WRAP.                  NO:   ONE LINE PER DEPTH STEP
~WELL INFORMATION BLOCK
#MNEM.UNIT           DATA                DESCRIPTION OF MNEMONIC
#---------    -------------------        -------------------------------
 STRT.M                     197.90          :START DEPTH
 STOP.M                    4093.85          :STOP DEPTH
 STEP.M                     0.1524          :STEP
 NULL.                     -999.25          :NULL VALUE
 COMP.                                      :COMPANY
 WELL.                  15/9-F-1 C          :WELL
 FLD.                        VOLVE          :FIELD
 LOC.                                       :LOCATION
 CNTY.                                      :COUNTY
 STAT.                                      :STATE
 CTRY.                                      :COUNTRY
 SRVC.                                      :SERVICE COMPANY
 DATE.                   17-Apr-20          :DATE
 UWI.                   15/9-F-1 C          :UNIQUE WELL ID
 ELEVREF.                       KB          :REFERENCE ELEVATION
 ELEV.M                      54.90          :ELEVATION
 XCOORD.                435046.531          :SURFACE X
 YCOORD.               6478567.000          :SURFACE Y
~CURVE INFORMATION      
#MNEM.UNIT      API CODE      CURVE DESCRIPTION
#---------    -------------   ------------------------------
DEPT.M                        : Depth
CALI.in                       : CALI
RDEP.-                        : Deep Resistivity
DEN.-                         : Density of correlated events
DENC.-                        : DENC
ROP.-                         : ROP
GR.API                        : smoothed gr
RMED.-                        : Medium Resistivity
NEU.-                         : NEU
PEF.b/e                       : Photoelectric Factor
BS.-                          : Bit Size
~PARAMETER INFORMATION
#MNEM.UNIT           DATA                 DESCRIPTION OF MNEMONIC
#---------         -----------         ------------------------------
~A   DEPT          CALI          RDEP           DEN          DENC           ROP            GR          RMED           NEU           PEF            BS
# ...
     3078.26         8.4755         2.7731         2.5641         0.0402        14.6167        31.1984         2.9172         0.1355          8.098           8.50
     3078.41         8.4755         2.9232         2.5643          0.039         14.813        27.8166         3.1225         0.1278         8.0947           8.50
     3078.56         8.4755         2.9774         2.5689         0.0415        14.8775        25.9979         3.2582         0.1242         8.1594           8.50
     3078.72         8.4755         3.0288         2.5809         0.0484        14.8256        22.7361          3.348         0.1167          8.325           8.50
     3078.87         8.4755         3.1082         2.5836         0.0496        14.7091        22.7602         3.4332         0.1131         8.3538           8.50
     3079.02         8.4755         3.2215           2.58         0.0448        14.4785        22.1448         3.6066         0.1089         8.2264           8.50
     3079.17         8.4755         3.3032         2.5769         0.0418        14.3645        21.1969         3.7819         0.1079         8.1506           8.50
     3079.33         8.4755         3.3614         2.5745         0.0383        14.1519          18.16         3.9266         0.1047         8.0649           8.50
     3079.48         8.4755         3.4044         2.5751         0.0366        14.0534        17.6064          4.016         0.1018         8.0308           8.50
     3079.63         8.4755         3.5311         2.5773         0.0342        13.9376        16.0682         4.2032         0.0954         8.0836           8.50
     3079.78         8.4267         3.5751         2.5791         0.0354        13.9204        16.2138         4.2411          0.094         8.1872           8.50
     3079.94         8.5243         3.6119         2.5859         0.0429        13.8218        17.8773         4.2386         0.0934         8.4499           8.50
     3080.09         8.5243         3.6185         2.5918         0.0469        13.7405        18.6359         4.2399         0.0936         8.5079           8.50
     3080.24         8.4755         3.5763          2.598         0.0469        13.5816        20.0083         4.1363         0.0964         8.3384           8.50
     3080.39         8.4755         3.5868         2.5988         0.0453        13.5042         20.979         4.1051         0.0976           8.22           8.50
     3080.55         8.4755         3.5607         2.5928         0.0421        13.4178        20.0989         4.0122         0.1048         8.1708           8.50
     3080.70         8.4755         3.5272         2.5905         0.0413        13.4089        19.5727         3.9294         0.1083         8.1835           8.50
     3080.85         8.4755          3.498         2.5886         0.0416        12.1154        21.3064         3.8947         0.1118         8.2319           8.50
     3081.00         8.4755         3.4273         2.5864         0.0434         9.5462        23.9567         3.7067         0.1135         8.3197           8.50
     3081.16         8.4755         3.3958         2.5867         0.0444         9.2749        25.7197          3.656         0.1146         8.3353           8.50
     3081.31         8.4755         3.3319         2.5881         0.0447         8.7323        25.3648         3.5247         0.1172          8.315           8.50
     3081.46         8.4755         3.3471         2.5863         0.0438         8.9575        25.3276         3.5188         0.1173         8.3176           8.50
     3081.61         8.4755          3.353         2.5826         0.0426          9.408        23.3954         3.6112         0.1159         8.3014           8.50
     3081.77         8.4755         3.3452         2.5836         0.0431        10.0307        24.8567         3.6285         0.1152         8.2937           8.50
     3081.92         8.4755         3.3418         2.5851         0.0442        11.2763        25.0392         3.6137         0.1128         8.3449           8.50
     3082.07         8.4755         3.3565          2.584         0.0443        11.8005        23.4489         3.6834          0.112         8.3767           8.50
     3082.22         8.4755         3.3556         2.5852         0.0454        12.8491        24.2769         3.7103         0.1118         8.4269           8.50
     3082.37         8.4755         3.3625         2.5875         0.0463        13.3107        23.9184         3.7249          0.111         8.4272           8.50
     3082.53         8.4755         3.3803         2.5897         0.0459        14.2339        22.4031          3.825         0.1077         8.3431           8.50
     3082.68         8.4755         3.3553         2.5904         0.0448        14.1906        22.4392          3.826         0.1063         8.2917           8.50
     3082.83         8.4755         3.4655         2.5932         0.0438        14.1041        23.0204         4.0042         0.1058          8.286           8.50
     3082.98         8.4511         3.4717         2.5945         0.0451        14.1468        24.5898         3.9442          0.107         8.3377           8.50
     3083.14         8.4755         3.3721          2.595         0.0479        14.2323        26.4542         3.7636         0.1106         8.3664           8.50
     3083.29         8.4755         3.3577         2.5935         0.0476        14.1647        26.5746          3.861         0.1123         8.3128           8.50
     3083.44         8.4755         3.3613          2.592         0.0469        14.0296        26.3925         3.6918         0.1154         8.2171           8.50
     3083.59         8.4755         3.3814         2.5931         0.0471        14.0043        25.3082           3.77         0.1163         8.1776           8.50
     3083.75         8.4755         3.4347          2.593         0.0452        13.9536        26.1465          3.872          0.115         8.0716           8.50
     3083.90         8.4755         3.4729         2.5932         0.0444        13.8855         27.385          3.939          0.115         8.0485           8.50
     3084.05         8.4755         3.3709         2.5993         0.0484        13.7492        29.5006         3.6417         0.1195         8.0387           8.50
     3084.20         8.4755         3.2824         2.5992         0.0513        13.5953        31.4248         3.4197         0.1222         8.0812           8.50
     3084.36         8.4755         3.2835         2.5944         0.0494        13.5184        30.5647         3.3658         0.1214         8.1215           8.50
     3084.51         8.4755         3.4957         2.5877         0.0443        13.5217        29.1369         3.7377         0.1202         8.1381           8.50
     3084.66         8.4755         3.6212         2.5882         0.0439        13.5233        29.0224         4.0018         0.1206         8.1478           8.50
     3084.81         8.4755         3.5094         2.5919         0.0461        13.7887        29.6265         3.6848         0.1225         8.2156           8.50
     3084.97         8.4755         3.5043         2.5928         0.0474        13.9214        30.4116         3.5689          0.123         8.2223           8.50
     3085.12         8.4755         3.5477         2.5907         0.0495        14.3953        30.4764         3.6052         0.1213         8.2334           8.50
     3085.27         8.4755         3.5389         2.5891         0.0499        14.6323        28.9551         3.5857         0.1193         8.2424           8.50
     3085.42         8.4755          3.745         2.5899          0.049        15.1211        28.3476          3.939          0.115         8.2334           8.50
     3085.58         8.4755         3.8736         2.5918          0.048        15.3655        26.8233         4.0099         0.1131         8.2352           8.50
     3085.73         8.4755         3.9303         2.5932         0.0454        15.6305         25.413         3.9945         0.1099         8.2247           8.50
