~VERSION INFORMATION
 VERS.                 2.0:   CWLS LOG ASCII STANDARD -VERSION 2.0
 WRAP.                  NO:   ONE LINE PER DEPTH STEP
~WELL INFORMATION BLOCK
#MNEM.UNIT           DATA                DESCRIPTION OF MNEMONIC
#---------    -------------------        -------------------------------
 STRT.M                     197.90          :START DEPTH
 STOP.M                    4093.85          :STOP DEPTH
 STEP.M                     0.1524          :STEP
 NULL.                     -999.25          :NULL VALUE
 COMP.                                      :COMPANY
 WELL.                  15/9-F-1 C          :WELL
 FLD.                        VOLVE          :FIELD
 LOC.                                       :LOCATION
 CNTY.                                      :COUNTY
 STAT.                                      :STATE
 CTRY.                                      :COUNTRY
 SRVC.                                      :SERVICE COMPANY
 DATE.                   17-Apr-20          :DATE
 UWI.                   15/9-F-1 C          :UNIQUE WELL ID
 ELEVREF.                       KB          :REFERENCE ELEVATION
 ELEV.M                      54.90          :ELEVATION
 XCOORD.                435046.531          :SURFACE X
 YCOORD.               6478567.000          :SURFACE Y
~CURVE INFORMATION      
#MNEM.UNIT      API CODE      CURVE DESCRIPTION
#---------    -------------   ------------------------------
DEPT.M                        : Depth
CALI.in                       : CALI
RDEP.-                        : Deep Resistivity
DEN.-                         : Density of correlated events
DENC.-                        : DENC
ROP.-                         : ROP
GR.API                        : smoothed gr
RMED.-                        : Medium Resistivity
NEU.-                         : NEU
PEF.b/e                       : Photoelectric Factor
BS.-                          : Bit Size
~PARAMETER INFORMATION
#MNEM.UNIT           DATA                 DESCRIPTION OF MNEMONIC
#---------         -----------         ------------------------------
~A   DEPT          CALI          RDEP           DEN          DENC           ROP            GR          RMED           NEU           PEF            BS
# ...
     2034.32        -999.25         0.5615        -999.25        -999.25        35.1296        66.7056         0.6784        -999.25        -999.25          17.50
     2034.47        -999.25         0.5676        -999.25        -999.25        35.3808        69.8102         0.6696        -999.25        -999.25          17.50
     2034.62        -999.25         0.5647        -999.25        -999.25         35.883         69.657         0.6752        -999.25        -999.25          17.50
     2034.78        -999.25         0.5647        -999.25        -999.25        36.1017        72.0434         0.6853        -999.25        -999.25          17.50
     2034.93        -999.25         0.5699        -999.25        -999.25         36.539        68.5748          0.701        -999.25        -999.25          17.50
     2035.08        -999.25         0.5792        -999.25        -999.25        34.2756        66.8289         0.6997        -999.25        -999.25          17.50
     2035.23        -999.25         0.5737        -999.25        -999.25        29.7488        63.5154         0.7009        -999.25        -999.25          17.50
     2035.39        -999.25         0.5737        -999.25        -999.25        30.6785        59.6652          0.687        -999.25        -999.25          17.50
     2035.54        -999.25         0.5778        -999.25        -999.25        32.5381        62.9898          0.672        -999.25        -999.25          17.50
     2035.69        -999.25         0.5784        -999.25        -999.25        33.5178        65.8039         0.6741        -999.25        -999.25          17.50
     2035.84        -999.25         0.5778        -999.25        -999.25        35.4774        72.2608         0.6766        -999.25        -999.25          17.50
     2036.00        -999.25         0.5757        -999.25        -999.25        36.3133        66.9036         0.6506        -999.25        -999.25          17.50
     2036.15        -999.25         0.5759        -999.25        -999.25        37.9851        71.9926         0.6449        -999.25        -999.25          17.50
     2036.30        -999.25         0.5809        -999.25        -999.25        37.7696        70.0115         0.6276        -999.25        -999.25          17.50
     2036.45        -999.25         0.5901        -999.25        -999.25        37.6619        70.5336         0.6161        -999.25        -999.25          17.50
     2036.61        -999.25         0.6059        -999.25        -999.25        37.4153        67.3015         0.6381        -999.25        -999.25          17.50
     2036.76        -999.25         0.6089        -999.25        -999.25         37.292        59.2053         0.6376        -999.25        -999.25          17.50
     2036.91        -999.25         0.6246        -999.25        -999.25        36.9868        65.8011         0.6421        -999.25        -999.25          17.50
     2037.06        -999.25          0.631        -999.25        -999.25        36.8341        66.9142         0.6597        -999.25        -999.25          17.50
     2037.22        -999.25           0.64        -999.25        -999.25        36.8163        71.0905         0.6539        -999.25        -999.25          17.50
     2037.37        -999.25         0.6417        -999.25        -999.25        36.8073        71.8935         0.6238        -999.25        -999.25          17.50
     2037.52        -999.25         0.6347        -999.25        -999.25        36.8272        73.0255         0.6042        -999.25        -999.25          17.50
     2037.67        -999.25         0.6323        -999.25        -999.25        36.8371        75.8717          0.601        -999.25        -999.25          17.50
     2037.83        -999.25          0.626        -999.25        -999.25         36.857        69.6319         0.5989        -999.25        -999.25          17.50
     2037.98        -999.25         0.6239        -999.25        -999.25         36.867        72.3488         0.5976        -999.25        -999.25          17.50
     2038.13        -999.25         0.6142        -999.25        -999.25        36.8336        69.9042         0.5979        -999.25        -999.25          17.50
     2038.28        -999.25         0.6041        -999.25        -999.25        36.8169        69.0772         0.5948        -999.25        -999.25          17.50
     2038.43        -999.25         0.6016        -999.25        -999.25        36.8178        68.3892         0.5985        -999.25        -999.25          17.50
     2038.59        -999.25         0.6033        -999.25        -999.25        36.8183        70.5181           0.60        -999.25        -999.25          17.50
     2038.74        -999.25           0.60        -999.25        -999.25        36.8195        66.5832         0.5905        -999.25        -999.25          17.50
     2038.89        -999.25         0.5934        -999.25        -999.25        36.8201        71.0009         0.5684        -999.25        -999.25          17.50
     2039.04        -999.25         0.5854        -999.25        -999.25         36.838        69.9686         0.5724        -999.25        -999.25          17.50
     2039.20        -999.25         0.5898        -999.25        -999.25        36.8469         68.914         0.5849        -999.25        -999.25          17.50
     2039.35        -999.25         0.5949        -999.25        -999.25        36.8476        67.8948         0.6016        -999.25        -999.25          17.50
     2039.50        -999.25         0.6244        -999.25        -999.25        36.8486        63.6732         0.7059        -999.25        -999.25          17.50
     2039.65        -999.25         0.6539        -999.25        -999.25        36.8492        62.8473         0.7256        -999.25        -999.25          17.50
     2039.81        -999.25         0.6334        -999.25        -999.25        36.8282         57.624         0.7021        -999.25        -999.25          17.50
     2039.96        -999.25         0.6239        -999.25        -999.25        36.8065        54.0238         0.6849        -999.25        -999.25          17.50
     2040.11        -999.25         0.6063        -999.25        -999.25        36.7923        59.7136         0.6419        -999.25        -999.25          17.50
     2040.26        -999.25           0.60        -999.25        -999.25        36.7998        62.4089         0.6293        -999.25        -999.25          17.50
     2040.42        -999.25         0.5957        -999.25        -999.25        36.8173        62.5254         0.5952        -999.25        -999.25          17.50
     2040.57        -999.25         0.5975        -999.25        -999.25        36.8272        62.3938         0.5942        -999.25        -999.25          17.50
     2040.72        -999.25          0.625        -999.25        -999.25        36.8546        59.7454         0.6118        -999.25        -999.25          17.50
     2040.87        -999.25         0.6358        -999.25        -999.25         36.872         64.635         0.6289        -999.25        -999.25          17.50
     2041.03        -999.25         0.6512        -999.25        -999.25        36.8956        63.3581         0.6985        -999.25        -999.25          17.50
     2041.18        -999.25         0.6522        -999.25        -999.25        36.9018        63.1166         0.6997        -999.25        -999.25          17.50
     2041.33        -999.25         0.6449        -999.25        -999.25        36.9085        61.0302         0.6738        -999.25        -999.25          17.50
     2041.48        -999.25         0.6405        -999.25        -999.25        36.9091        68.0426         0.6636        -999.25        -999.25          17.50
     2041.64        -999.25         0.6151        -999.25        -999.25        36.8878         65.666         0.6042        -999.25        -999.25          17.50
     2041.79        -999.25          0.596        -999.25        -999.25         36.866         60.982         0.5843        -999.25        -999.25          17.50
