~VERSION INFORMATION
 VERS.                 2.0:   CWLS LOG ASCII STANDARD -VERSION 2.0
 WRAP.                  NO:   ONE LINE PER DEPTH STEP
~WELL INFORMATION BLOCK
#MNEM.UNIT           DATA                DESCRIPTION OF MNEMONIC
#---------    -------------------        -------------------------------
 STRT.M                     197.90          :START DEPTH
 STOP.M                    4093.85          :STOP DEPTH
 STEP.M                     0.1524          :STEP
 NULL.                     -999.25          :NULL VALUE
 COMP.                                      :COMPANY
 WELL.                  15/9-F-1 C          :WELL
 FLD.                        VOLVE          :FIELD
 LOC.                                       :LOCATION
 CNTY.                                      :COUNTY
 STAT.                                      :STATE
 CTRY.                                      :COUNTRY
 SRVC.                                      :SERVICE COMPANY
 DATE.                   17-Apr-20          :DATE
 UWI.                   15/9-F-1 C          :UNIQUE WELL ID
 ELEVREF.                       KB          :REFERENCE ELEVATION
 ELEV.M                      54.90          :ELEVATION
 XCOORD.                435046.531          :SURFACE X
 YCOORD.               6478567.000          :SURFACE Y
~CURVE INFORMATION      
#MNEM.UNIT      API CODE      CURVE DESCRIPTION
#---------    -------------   ------------------------------
DEPT.M                        : Depth
CALI.in                       : CALI
RDEP.-                        : Deep Resistivity
DEN.-                         : Density of correlated events
DENC.-                        : DENC
ROP.-                         : ROP
GR.API                        : smoothed gr
RMED.-                        : Medium Resistivity
NEU.-                         : NEU
PEF.b/e                       : Photoelectric Factor
BS.-                          : Bit Size
~PARAMETER INFORMATION
#MNEM.UNIT           DATA                 DESCRIPTION OF MNEMONIC
#---------         -----------         ------------------------------
~A   DEPT          CALI          RDEP           DEN          DENC           ROP            GR          RMED           NEU           PEF            BS
# ...
     1257.08        -999.25         0.5961        -999.25        -999.25         20.077         8.9547         0.4259        -999.25        -999.25          26.00
     1257.23        -999.25         0.6243        -999.25        -999.25        20.0914         9.6295         0.5051        -999.25        -999.25          26.00
     1257.38        -999.25         0.6384        -999.25        -999.25        20.0986         9.7377         0.5448        -999.25        -999.25          26.00
     1257.54        -999.25         0.6537        -999.25        -999.25        24.0611         9.7377         0.6054        -999.25        -999.25          26.00
     1257.69        -999.25         0.6549        -999.25        -999.25        26.0423         9.7377         0.6264        -999.25        -999.25          26.00
     1257.84        -999.25         0.6572        -999.25        -999.25        32.2265        10.2447         0.6683        -999.25        -999.25          26.00
     1257.99        -999.25         0.6636        -999.25        -999.25        35.3185        11.3427         0.6748        -999.25        -999.25          26.00
     1258.15        -999.25         0.6765        -999.25        -999.25        41.2148         11.397         0.6877        -999.25        -999.25          26.00
     1258.30        -999.25          0.683        -999.25        -999.25        44.1629         10.891         0.6941        -999.25        -999.25          26.00
     1258.45        -999.25         0.6925        -999.25        -999.25        47.9593         6.9216         0.7673        -999.25        -999.25          26.00
     1258.60        -999.25         0.7021        -999.25        -999.25        48.7238         7.2576         0.8405        -999.25        -999.25          26.00
     1258.76        -999.25         0.6994        -999.25        -999.25        47.5901         9.6692         0.8102        -999.25        -999.25          26.00
     1258.91        -999.25         0.6939        -999.25        -999.25        46.3243        12.3786         0.7498        -999.25        -999.25          26.00
     1259.06        -999.25         0.6912        -999.25        -999.25        46.1921        12.6485         0.7195        -999.25        -999.25          26.00
     1259.21        -999.25         0.6837        -999.25        -999.25         46.082        11.3599         0.6961        -999.25        -999.25          26.00
     1259.37        -999.25           0.68        -999.25        -999.25        46.1041        11.2837         0.6844        -999.25        -999.25          26.00
     1259.52        -999.25         0.6726        -999.25        -999.25        46.4853        11.6612         0.6609        -999.25        -999.25          26.00
     1259.67        -999.25         0.6798        -999.25        -999.25        46.8446        12.1361         0.6744        -999.25        -999.25          26.00
     1259.82        -999.25         0.6944        -999.25        -999.25        47.6347        12.3599         0.7013        -999.25        -999.25          26.00
     1259.98        -999.25         0.7017        -999.25        -999.25        48.0656        12.1646         0.7148        -999.25        -999.25          26.00
     1260.13        -999.25         0.7251        -999.25        -999.25        48.9275        11.5795         0.7605        -999.25        -999.25          26.00
     1260.28        -999.25         0.7368        -999.25        -999.25        49.3584        11.5481         0.7834        -999.25        -999.25          26.00
     1260.43        -999.25         0.7379        -999.25        -999.25        49.9762        11.2904         0.7981        -999.25        -999.25          26.00
     1260.59        -999.25         0.7273        -999.25        -999.25        50.1631        11.1668           0.79        -999.25        -999.25          26.00
     1260.74        -999.25         0.7061        -999.25        -999.25        50.3224        11.1811         0.7737        -999.25        -999.25          26.00
     1260.89        -999.25         0.7127        -999.25        -999.25        50.2948        11.2633         0.7632        -999.25        -999.25          26.00
     1261.04        -999.25          0.726        -999.25        -999.25        50.2685        11.4061         0.7421        -999.25        -999.25          26.00
     1261.19        -999.25         0.7326        -999.25        -999.25        50.2696        11.4697         0.7316        -999.25        -999.25          26.00
     1261.35        -999.25         0.7104        -999.25        -999.25         48.498        12.5993         0.6932        -999.25        -999.25          26.00
     1261.50        -999.25         0.6994        -999.25        -999.25        46.7251        12.8408          0.674        -999.25        -999.25          26.00
     1261.65        -999.25         0.6895        -999.25        -999.25         47.572        14.2785         0.6632        -999.25        -999.25          26.00
     1261.80        -999.25         0.6918        -999.25        -999.25        52.8115        15.8327           0.68        -999.25        -999.25          26.00
     1261.96        -999.25          0.693        -999.25        -999.25        57.4959        16.1564         0.6883        -999.25        -999.25          26.00
     1262.11        -999.25         0.6991        -999.25        -999.25        66.8647        17.1399         0.6942        -999.25        -999.25          26.00
     1262.26        -999.25          0.704        -999.25        -999.25        72.6809        18.4853         0.6917        -999.25        -999.25          26.00
     1262.41        -999.25         0.7139        -999.25        -999.25        84.3134        14.3109         0.6867        -999.25        -999.25          26.00
     1262.57        -999.25         0.7111        -999.25        -999.25        86.0521        15.3437         0.6861        -999.25        -999.25          26.00
     1262.72        -999.25         0.7057        -999.25        -999.25        89.5295        14.5482         0.6848        -999.25        -999.25          26.00
     1262.87        -999.25         0.7029        -999.25        -999.25        91.1923         13.101         0.6841        -999.25        -999.25          26.00
     1263.02        -999.25         0.6973        -999.25        -999.25        94.5179        12.1227          0.676        -999.25        -999.25          26.00
     1263.18        -999.25         0.6945        -999.25        -999.25        95.6903         8.9863          0.672        -999.25        -999.25          26.00
     1263.33        -999.25         0.6909        -999.25        -999.25         98.035         9.8842         0.6698        -999.25        -999.25          26.00
     1263.48        -999.25         0.6902        -999.25        -999.25        102.654        10.1426         0.6717        -999.25        -999.25          26.00
     1263.63        -999.25         0.6887        -999.25        -999.25        111.892         8.8888         0.6754        -999.25        -999.25          26.00
     1263.79        -999.25          0.691        -999.25        -999.25       110.7944         7.5014         0.6813        -999.25        -999.25          26.00
     1263.94        -999.25         0.6954        -999.25        -999.25       108.5992         6.2104         0.6932        -999.25        -999.25          26.00
     1264.09        -999.25         0.6977        -999.25        -999.25       107.6179          6.954         0.6991        -999.25        -999.25          26.00
     1264.24        -999.25         0.6925        -999.25        -999.25       105.6552         8.1407         0.7105        -999.25        -999.25          26.00
     1264.40        -999.25         0.6899        -999.25        -999.25       104.6915         8.3802         0.7162        -999.25        -999.25          26.00
     1264.55        -999.25         0.6924        -999.25        -999.25       102.7641         9.5563          0.715        -999.25        -999.25          26.00
