~VERSION INFORMATION
 VERS.                 2.0:   CWLS LOG ASCII STANDARD -VERSION 2.0
 WRAP.                  NO:   ONE LINE PER DEPTH STEP
~WELL INFORMATION BLOCK
#MNEM.UNIT           DATA                DESCRIPTION OF MNEMONIC
#---------    -------------------        -------------------------------
 STRT.M                     197.90          :START DEPTH
 STOP.M                    4093.85          :STOP DEPTH
 STEP.M                     0.1524          :STEP
 NULL.                     -999.25          :NULL VALUE
 COMP.                                      :COMPANY
 WELL.                  15/9-F-1 C          :WELL
 FLD.                        VOLVE          :FIELD
 LOC.                                       :LOCATION
 CNTY.                                      :COUNTY
 STAT.                                      :STATE
 CTRY.                                      :COUNTRY
 SRVC.                                      :SERVICE COMPANY
 DATE.                   17-Apr-20          :DATE
 UWI.                   15/9-F-1 C          :UNIQUE WELL ID
 ELEVREF.                       KB          :REFERENCE ELEVATION
 ELEV.M                      54.90          :ELEVATION
 XCOORD.                435046.531          :SURFACE X
 YCOORD.               6478567.000          :SURFACE Y
~CURVE INFORMATION      
#MNEM.UNIT      API CODE      CURVE DESCRIPTION
#---------    -------------   ------------------------------
DEPT.M                        : Depth
CALI.in                       : CALI
RDEP.-                        : Deep Resistivity
DEN.-                         : Density of correlated events
DENC.-                        : DENC
ROP.-                         : ROP
GR.API                        : smoothed gr
RMED.-                        : Medium Resistivity
NEU.-                         : NEU
PEF.b/e                       : Photoelectric Factor
BS.-                          : Bit Size
~PARAMETER INFORMATION
#MNEM.UNIT           DATA                 DESCRIPTION OF MNEMONIC
#---------         -----------         ------------------------------
~A   DEPT          CALI          RDEP           DEN          DENC           ROP            GR          RMED           NEU           PEF            BS
# ...
      228.38        -999.25         0.2682        -999.25        -999.25          39.89         6.3427         0.2806        -999.25        -999.25          26.00
      228.53        -999.25         0.2726        -999.25        -999.25        39.8883         6.2243         0.2601        -999.25        -999.25          26.00
      228.68        -999.25         0.2754        -999.25        -999.25        39.8875         5.7979         0.2567        -999.25        -999.25          26.00
      228.84        -999.25         0.2916        -999.25        -999.25        39.9727         5.4188         0.2566        -999.25        -999.25          26.00
      228.99        -999.25         0.2959        -999.25        -999.25        40.0153          6.443         0.2616        -999.25        -999.25          26.00
      229.14        -999.25         0.3124        -999.25        -999.25        40.0056         8.7715         0.2766        -999.25        -999.25          26.00
      229.29        -999.25         0.3281        -999.25        -999.25        40.0008         9.3114         0.2826        -999.25        -999.25          26.00
      229.45        -999.25         0.3725        -999.25        -999.25        40.0412         9.3032         0.2857        -999.25        -999.25          26.00
      229.60        -999.25         0.4021        -999.25        -999.25        40.0615         9.4534         0.2931        -999.25        -999.25          26.00
      229.75        -999.25         0.5247        -999.25        -999.25         40.095        14.1095         0.3853        -999.25        -999.25          26.00
      229.90        -999.25         0.7586        -999.25        -999.25         40.881        17.1447         0.7015        -999.25        -999.25          26.00
      230.06        -999.25         0.8949        -999.25        -999.25        41.6502        19.3142         1.0055        -999.25        -999.25          26.00
      230.21        -999.25         0.9957        -999.25        -999.25        43.6746        21.2615         1.0636        -999.25        -999.25          26.00
      230.36        -999.25         1.0363        -999.25        -999.25        44.9298        20.9958         1.0496        -999.25        -999.25          26.00
      230.51        -999.25         1.1743        -999.25        -999.25        45.6436        23.3537         1.2033        -999.25        -999.25          26.00
      230.67        -999.25           1.26        -999.25        -999.25        45.1021        25.1204         1.3669        -999.25        -999.25          26.00
      230.82        -999.25          1.396        -999.25        -999.25        42.0488        27.7389         1.6464        -999.25        -999.25          26.00
      230.97        -999.25         1.4769        -999.25        -999.25        39.5369        26.9644         1.7517        -999.25        -999.25          26.00
      231.12        -999.25         1.6687        -999.25        -999.25        33.9798        24.6898         2.0479        -999.25        -999.25          26.00
      231.28        -999.25         1.7283        -999.25        -999.25        30.9345        23.0246         2.1402        -999.25        -999.25          26.00
      231.43        -999.25         1.7942        -999.25        -999.25        26.8804        25.2227         1.9953        -999.25        -999.25          26.00
      231.58        -999.25         1.7989        -999.25        -999.25        25.8715        25.9783          1.928        -999.25        -999.25          26.00
      231.73        -999.25         1.8353        -999.25        -999.25        24.5221        25.3191         1.8833        -999.25        -999.25          26.00
      231.89        -999.25         1.8507        -999.25        -999.25        24.1815        25.6795         1.9203        -999.25        -999.25          26.00
      232.04        -999.25         1.9809        -999.25        -999.25        23.8269        24.0904         2.0579        -999.25        -999.25          26.00
      232.19        -999.25         2.0197        -999.25        -999.25        23.8128        24.1475         2.1062        -999.25        -999.25          26.00
      232.34        -999.25         2.0448        -999.25        -999.25         24.522        25.1657         2.1361        -999.25        -999.25          26.00
      232.49        -999.25         2.0688        -999.25        -999.25        25.2452        25.3442         2.1222        -999.25        -999.25          26.00
      232.65        -999.25         2.0725        -999.25        -999.25        26.9519         24.697         2.1398        -999.25        -999.25          26.00
      232.80        -999.25          2.065        -999.25        -999.25        27.9353        24.5836         2.0812        -999.25        -999.25          26.00
      232.95        -999.25         2.1117        -999.25        -999.25        29.7529          23.02         2.1135        -999.25        -999.25          26.00
      233.10        -999.25          2.105        -999.25        -999.25        31.4213        23.8191         2.1093        -999.25        -999.25          26.00
      233.26        -999.25         2.0874        -999.25        -999.25        32.0806        23.6719         2.0631        -999.25        -999.25          26.00
      233.41        -999.25         2.0725        -999.25        -999.25        33.3994        23.9679         1.9008        -999.25        -999.25          26.00
      233.56        -999.25         2.0704        -999.25        -999.25        33.7556        23.3778         1.8845        -999.25        -999.25          26.00
      233.71        -999.25         2.0987        -999.25        -999.25         34.468        23.3491         2.0364        -999.25        -999.25          26.00
      233.87        -999.25         2.1044        -999.25        -999.25        34.5521        23.2405         2.0094        -999.25        -999.25          26.00
      234.02        -999.25           2.10        -999.25        -999.25        34.7203        22.5276         1.9286        -999.25        -999.25          26.00
      234.17        -999.25         2.0821        -999.25        -999.25         35.149        21.8796         1.9386        -999.25        -999.25          26.00
      234.32        -999.25         2.1891        -999.25        -999.25        36.0064        19.6934         2.2097        -999.25        -999.25          26.00
      234.48        -999.25         2.2104        -999.25        -999.25        35.7629        18.8732         2.2723        -999.25        -999.25          26.00
      234.63        -999.25         2.0791        -999.25        -999.25        35.2758        21.4677         2.0856        -999.25        -999.25          26.00
      234.78        -999.25         2.0166        -999.25        -999.25         35.254        22.9561         1.9737        -999.25        -999.25          26.00
      234.93        -999.25         1.8336        -999.25        -999.25        35.2104        23.3266         1.8502        -999.25        -999.25          26.00
      235.09        -999.25         1.8037        -999.25        -999.25        35.1064        23.0459          1.891        -999.25        -999.25          26.00
      235.24        -999.25         1.7361        -999.25        -999.25        34.8982        22.9968         1.7303        -999.25        -999.25          26.00
      235.39        -999.25         1.7005        -999.25        -999.25        34.7522        22.4556         1.6107        -999.25        -999.25          26.00
      235.54        -999.25         1.8542        -999.25        -999.25        34.4603        23.3511         1.6843        -999.25        -999.25          26.00
      235.70        -999.25          2.022        -999.25        -999.25        34.0542        23.0257         1.8879        -999.25        -999.25          26.00
      235.85        -999.25         2.0431        -999.25        -999.25        33.2421         23.454         1.9353        -999.25        -999.25          26.00
