~VERSION INFORMATION
 VERS.                 2.0:   CWLS LOG ASCII STANDARD -VERSION 2.0
 WRAP.                  NO:   ONE LINE PER DEPTH STEP
~WELL INFORMATION BLOCK
#MNEM.UNIT           DATA                DESCRIPTION OF MNEMONIC
#---------    -------------------        -------------------------------
 STRT.M                     197.90          :START DEPTH
 STOP.M                    4093.85          :STOP DEPTH
 STEP.M                     0.1524          :STEP
 NULL.                     -999.25          :NULL VALUE
 COMP.                                      :COMPANY
 WELL.                  15/9-F-1 C          :WELL
 FLD.                        VOLVE          :FIELD
 LOC.                                       :LOCATION
 CNTY.                                      :COUNTY
 STAT.                                      :STATE
 CTRY.                                      :COUNTRY
 SRVC.                                      :SERVICE COMPANY
 DATE.                   17-Apr-20          :DATE
 UWI.                   15/9-F-1 C          :UNIQUE WELL ID
 ELEVREF.                       KB          :REFERENCE ELEVATION
 ELEV.M                      54.90          :ELEVATION
 XCOORD.                435046.531          :SURFACE X
 YCOORD.               6478567.000          :SURFACE Y
~CURVE INFORMATION      
#MNEM.UNIT      API CODE      CURVE DESCRIPTION
#---------    -------------   ------------------------------
DEPT.M                        : Depth
CALI.in                       : CALI
RDEP.-                        : Deep Resistivity
DEN.-                         : Density of correlated events
DENC.-                        : DENC
ROP.-                         : ROP
GR.API                        : smoothed gr
RMED.-                        : Medium Resistivity
NEU.-                         : NEU
PEF.b/e                       : Photoelectric Factor
BS.-                          : Bit Size
~PARAMETER INFORMATION
#MNEM.UNIT           DATA                 DESCRIPTION OF MNEMONIC
#---------         -----------         ------------------------------
~A   DEPT          CALI          RDEP           DEN          DENC           ROP            GR          RMED           NEU           PEF            BS
# ...
     1013.24        -999.25         0.7673        -999.25        -999.25        50.3444         9.5146         0.7646        -999.25        -999.25          26.00
     1013.39        -999.25         0.7612        -999.25        -999.25        50.3592         9.7474         0.7581        -999.25        -999.25          26.00
     1013.54        -999.25         0.7441        -999.25        -999.25        50.3892        10.3677         0.7206        -999.25        -999.25          26.00
     1013.70        -999.25         0.7472        -999.25        -999.25        50.4043         9.6642         0.7449        -999.25        -999.25          26.00
     1013.85        -999.25         0.7568        -999.25        -999.25         50.388         8.8321          0.802        -999.25        -999.25          26.00
     1014.00        -999.25         0.7604        -999.25        -999.25        50.3252        10.0283          0.828        -999.25        -999.25          26.00
     1014.15        -999.25         0.7574        -999.25        -999.25        50.3422        11.2712         0.8213        -999.25        -999.25          26.00
     1014.31        -999.25         0.7561        -999.25        -999.25        50.3764         12.618         0.7952        -999.25        -999.25          26.00
     1014.46        -999.25         0.7577        -999.25        -999.25        50.3776         13.278         0.7759        -999.25        -999.25          26.00
     1014.61        -999.25         0.7634        -999.25        -999.25        50.3802        10.0197          0.808        -999.25        -999.25          26.00
     1014.76        -999.25         0.7619        -999.25        -999.25        50.3362         9.8586         0.7973        -999.25        -999.25          26.00
     1014.92        -999.25         0.7604        -999.25        -999.25        50.2482         9.6811         0.8105        -999.25        -999.25          26.00
     1015.07        -999.25         0.7603        -999.25        -999.25        50.2598        11.0427         0.8344        -999.25        -999.25          26.00
     1015.22        -999.25         0.7595        -999.25        -999.25         50.283        11.3422         0.8232        -999.25        -999.25          26.00
     1015.37        -999.25         0.7591        -999.25        -999.25        50.2678        11.3309         0.8176        -999.25        -999.25          26.00
     1015.53        -999.25         0.7526        -999.25        -999.25        50.2376        10.8414         0.7775        -999.25        -999.25          26.00
     1015.68        -999.25         0.7496        -999.25        -999.25        50.2526        11.0566         0.7658        -999.25        -999.25          26.00
     1015.83        -999.25          0.745        -999.25        -999.25        50.2828        11.3442         0.7418        -999.25        -999.25          26.00
     1015.98        -999.25         0.7434        -999.25        -999.25        50.2928        10.7604         0.7296        -999.25        -999.25          26.00
     1016.14        -999.25         0.7433        -999.25        -999.25        50.3128        10.8662         0.7366        -999.25        -999.25          26.00
     1016.29        -999.25         0.7432        -999.25        -999.25        50.0616        10.9838         0.7401        -999.25        -999.25          26.00
     1016.44        -999.25         0.7528        -999.25        -999.25        49.5594        11.7499         0.8046        -999.25        -999.25          26.00
     1016.59        -999.25         0.7582        -999.25        -999.25         49.784        11.8675         0.8377        -999.25        -999.25          26.00
     1016.75        -999.25         0.7572        -999.25        -999.25        50.2333        11.7556         0.8409        -999.25        -999.25          26.00
     1016.90        -999.25         0.7507        -999.25        -999.25        50.2347         9.9359          0.811        -999.25        -999.25          26.00
     1017.05        -999.25         0.7503        -999.25        -999.25        50.2376         8.8974         0.7995        -999.25        -999.25          26.00
     1017.20        -999.25         0.7562        -999.25        -999.25        50.2678         10.221         0.8378        -999.25        -999.25          26.00
     1017.35        -999.25         0.7591        -999.25        -999.25        50.2829        11.4749          0.857        -999.25        -999.25          26.00
     1017.51        -999.25         0.7552        -999.25        -999.25        50.3132        10.4908         0.8627        -999.25        -999.25          26.00
     1017.66        -999.25         0.7584        -999.25        -999.25        50.3283        10.6558         0.8599        -999.25        -999.25          26.00
     1017.81        -999.25         0.7672        -999.25        -999.25         50.298         9.8577          0.874        -999.25        -999.25          26.00
     1017.96        -999.25         0.7726        -999.25        -999.25        50.2828         7.6378         0.8909        -999.25        -999.25          26.00
     1018.12        -999.25         0.7669        -999.25        -999.25        50.2952        10.7272         0.8211        -999.25        -999.25          26.00
     1018.27        -999.25         0.7641        -999.25        -999.25        50.3013        11.3094         0.7862        -999.25        -999.25          26.00
     1018.42        -999.25         0.7669        -999.25        -999.25        50.3036        11.7034         0.7783        -999.25        -999.25          26.00
     1018.57        -999.25         0.7604        -999.25        -999.25        50.3048        10.3305         0.7474        -999.25        -999.25          26.00
     1018.73        -999.25         0.7467        -999.25        -999.25        50.3072        10.4896          0.689        -999.25        -999.25          26.00
     1018.88        -999.25         0.7393        -999.25        -999.25        50.3085        11.1297         0.6615        -999.25        -999.25          26.00
     1019.03        -999.25         0.7393        -999.25        -999.25        47.8472         9.7935         0.6812        -999.25        -999.25          26.00
     1019.18        -999.25         0.7393        -999.25        -999.25        46.6166         9.1149          0.691        -999.25        -999.25          26.00
     1019.34        -999.25         0.7371        -999.25        -999.25        44.7598         8.8937         0.6935        -999.25        -999.25          26.00
     1019.49        -999.25         0.7556        -999.25        -999.25        43.8314         9.2955         0.7423        -999.25        -999.25          26.00
     1019.64        -999.25         0.8145        -999.25        -999.25        43.4281         8.2312         0.8687        -999.25        -999.25          26.00
     1019.79        -999.25         0.8549        -999.25        -999.25        43.2265         8.5169         0.9465        -999.25        -999.25          26.00
     1019.95        -999.25         0.9065        -999.25        -999.25        43.1097        10.8098          1.047        -999.25        -999.25          26.00
     1020.10        -999.25         0.8949        -999.25        -999.25        43.0514        11.1132         1.0369        -999.25        -999.25          26.00
     1020.25        -999.25         0.8427        -999.25        -999.25        36.2273          9.142         0.9302        -999.25        -999.25          26.00
     1020.40        -999.25         0.7615        -999.25        -999.25         29.059         8.8627          0.737        -999.25        -999.25          26.00
     1020.56        -999.25         0.7341        -999.25        -999.25        25.3028         8.3721           0.69        -999.25        -999.25          26.00
     1020.71        -999.25         0.6923        -999.25        -999.25        18.0989         8.9635         0.6205        -999.25        -999.25          26.00
