~VERSION INFORMATION
 VERS.                 2.0:   CWLS LOG ASCII STANDARD -VERSION 2.0
 WRAP.                  NO:   ONE LINE PER DEPTH STEP
~WELL INFORMATION BLOCK
#MNEM.UNIT           DATA                DESCRIPTION OF MNEMONIC
#---------    -------------------        -------------------------------
 STRT.M                     197.90          :START DEPTH
 STOP.M                    4093.85          :STOP DEPTH
 STEP.M                     0.1524          :STEP
 NULL.                     -999.25          :NULL VALUE
 COMP.                                      :COMPANY
 WELL.                  15/9-F-1 C          :WELL
 FLD.                        VOLVE          :FIELD
 LOC.                                       :LOCATION
 CNTY.                                      :COUNTY
 STAT.                                      :STATE
 CTRY.                                      :COUNTRY
 SRVC.                                      :SERVICE COMPANY
 DATE.                   17-Apr-20          :DATE
 UWI.                   15/9-F-1 C          :UNIQUE WELL ID
 ELEVREF.                       KB          :REFERENCE ELEVATION
 ELEV.M                      54.90          :ELEVATION
 XCOORD.                435046.531          :SURFACE X
 YCOORD.               6478567.000          :SURFACE Y
~CURVE INFORMATION      
#MNEM.UNIT      API CODE      CURVE DESCRIPTION
#---------    -------------   ------------------------------
DEPT.M                        : Depth
CALI.in                       : CALI
RDEP.-                        : Deep Resistivity
DEN.-                         : Density of correlated events
DENC.-                        : DENC
ROP.-                         : ROP
GR.API                        : smoothed gr
RMED.-                        : Medium Resistivity
NEU.-                         : NEU
PEF.b/e                       : Photoelectric Factor
BS.-                          : Bit Size
~PARAMETER INFORMATION
#MNEM.UNIT           DATA                 DESCRIPTION OF MNEMONIC
#---------         -----------         ------------------------------
~A   DEPT          CALI          RDEP           DEN          DENC           ROP            GR          RMED           NEU           PEF            BS
# ...
      754.16        -999.25         1.6301        -999.25        -999.25        54.7288        47.6007         1.8513        -999.25        -999.25          26.00
      754.31        -999.25         1.5376        -999.25        -999.25        54.2892        44.0517         1.6861        -999.25        -999.25          26.00
      754.46        -999.25          1.434        -999.25        -999.25        53.8947        44.8929         1.3739        -999.25        -999.25          26.00
      754.62        -999.25         1.3751        -999.25        -999.25        53.3903         46.624         1.7162        -999.25        -999.25          26.00
      754.77        -999.25         1.4061        -999.25        -999.25        53.2802        47.9533         1.5746        -999.25        -999.25          26.00
      754.92        -999.25         1.4346        -999.25        -999.25        52.8914        58.1768         1.4474        -999.25        -999.25          26.00
      755.07        -999.25         1.4277        -999.25        -999.25        52.6126         65.616         1.4501        -999.25        -999.25          26.00
      755.23        -999.25         1.4121        -999.25        -999.25        52.4086        72.5058         1.4681        -999.25        -999.25          26.00
      755.38        -999.25         1.3852        -999.25        -999.25        52.4835        74.0906         1.4774        -999.25        -999.25          26.00
      755.53        -999.25         1.3453        -999.25        -999.25        52.4298        76.1165          1.462        -999.25        -999.25          26.00
      755.68        -999.25         1.2978        -999.25        -999.25        52.3013        78.6337         1.4075        -999.25        -999.25          26.00
      755.84        -999.25         1.1088        -999.25        -999.25        51.5686        78.8684         1.2106        -999.25        -999.25          26.00
      755.99        -999.25         1.1377        -999.25        -999.25        50.9645        83.7569         1.3663        -999.25        -999.25          26.00
      756.14        -999.25         1.1364        -999.25        -999.25        49.7186        79.8124         1.4498        -999.25        -999.25          26.00
      756.29        -999.25         1.0715        -999.25        -999.25        49.0769        81.8044         1.3919        -999.25        -999.25          26.00
      756.45        -999.25         0.8958        -999.25        -999.25        47.8505        87.8993         1.1595        -999.25        -999.25          26.00
      756.60        -999.25         0.8649        -999.25        -999.25        47.2657        85.2994         1.2242        -999.25        -999.25          26.00
      756.75        -999.25         0.9241        -999.25        -999.25        46.8422        80.5653         1.3097        -999.25        -999.25          26.00
      756.90        -999.25         0.9544        -999.25        -999.25        47.1646        80.1712         1.2132        -999.25        -999.25          26.00
      757.06        -999.25          0.922        -999.25        -999.25        47.8908        82.0819         0.9532        -999.25        -999.25          26.00
      757.21        -999.25         1.0154        -999.25        -999.25        49.3431        76.7962         1.1714        -999.25        -999.25          26.00
      757.36        -999.25         1.1373        -999.25        -999.25        50.1371        75.9129         1.3636        -999.25        -999.25          26.00
      757.51        -999.25         1.2718        -999.25        -999.25        51.7252         81.404         1.4716        -999.25        -999.25          26.00
      757.67        -999.25         1.2883        -999.25        -999.25        52.2196        82.9884         1.4754        -999.25        -999.25          26.00
      757.82        -999.25         1.4022        -999.25        -999.25        53.2084        77.5788         1.5789        -999.25        -999.25          26.00
      757.97        -999.25         1.4191        -999.25        -999.25        53.4143        78.0606         1.5533        -999.25        -999.25          26.00
      758.12        -999.25         1.4497        -999.25        -999.25        53.8261        70.0663          1.555        -999.25        -999.25          26.00
      758.27        -999.25         1.4917        -999.25        -999.25        54.0865        70.6948         1.6534        -999.25        -999.25          26.00
      758.43        -999.25         1.5182        -999.25        -999.25        54.6073         77.269         1.6216        -999.25        -999.25          26.00
      758.58        -999.25         1.5161        -999.25        -999.25        54.8319         75.692         1.6426        -999.25        -999.25          26.00
      758.73        -999.25         1.5467        -999.25        -999.25        55.2812        72.2828         1.6086        -999.25        -999.25          26.00
      758.88        -999.25         1.5581        -999.25        -999.25        54.9294        70.8961         1.6237        -999.25        -999.25          26.00
      759.04        -999.25         1.5891        -999.25        -999.25        54.2256        54.3843         1.7449        -999.25        -999.25          26.00
      759.19        -999.25         1.5571        -999.25        -999.25        54.1978        47.8934         1.6589        -999.25        -999.25          26.00
      759.34        -999.25         1.4575        -999.25        -999.25        54.1421        41.1806         1.5379        -999.25        -999.25          26.00
      759.49        -999.25         1.5292        -999.25        -999.25        53.7817        41.8909         1.6904        -999.25        -999.25          26.00
      759.65        -999.25         1.6966        -999.25        -999.25        53.0607        43.7628         1.9812        -999.25        -999.25          26.00
      759.80        -999.25         1.6735        -999.25        -999.25        52.4062        43.8573         1.9211        -999.25        -999.25          26.00
      759.95        -999.25         1.5432        -999.25        -999.25        51.0972        45.6146         1.4474        -999.25        -999.25          26.00
      760.10        -999.25         1.5509        -999.25        -999.25         49.457        43.0925         1.7186        -999.25        -999.25          26.00
      760.26        -999.25          1.586        -999.25        -999.25        48.6369        42.9183         1.6814        -999.25        -999.25          26.00
      760.41        -999.25         1.6158        -999.25        -999.25        47.4732        41.9148          1.719        -999.25        -999.25          26.00
      760.56        -999.25         1.6393        -999.25        -999.25        46.8914        41.9515         1.7808        -999.25        -999.25          26.00
      760.71        -999.25          1.711        -999.25        -999.25        47.5644        38.1996         1.9422        -999.25        -999.25          26.00
      760.87        -999.25          1.735        -999.25        -999.25        47.9009        38.6854         2.0548        -999.25        -999.25          26.00
      761.02        -999.25         1.6834        -999.25        -999.25        49.4399        37.7063         1.9211        -999.25        -999.25          26.00
      761.17        -999.25         1.6105        -999.25        -999.25        50.2094        38.1114         1.7481        -999.25        -999.25          26.00
      761.32        -999.25          1.539        -999.25        -999.25        51.8623        37.9092         1.5773        -999.25        -999.25          26.00
      761.48        -999.25         1.5348        -999.25        -999.25        52.6887        38.6563         1.5798        -999.25        -999.25          26.00
      761.63        -999.25         1.5189        -999.25        -999.25        54.3416        37.9146         1.5882        -999.25        -999.25          26.00
