~VERSION INFORMATION
 VERS.                 2.0:   CWLS LOG ASCII STANDARD -VERSION 2.0
 WRAP.                  NO:   ONE LINE PER DEPTH STEP
~WELL INFORMATION BLOCK
#MNEM.UNIT           DATA                DESCRIPTION OF MNEMONIC
#---------    -------------------        -------------------------------
 STRT.M                     197.90          :START DEPTH
 STOP.M                    4093.85          :STOP DEPTH
 STEP.M                     0.1524          :STEP
 NULL.                     -999.25          :NULL VALUE
 COMP.                                      :COMPANY
 WELL.                  15/9-F-1 C          :WELL
 FLD.                        VOLVE          :FIELD
 LOC.                                       :LOCATION
 CNTY.                                      :COUNTY
 STAT.                                      :STATE
 CTRY.                                      :COUNTRY
 SRVC.                                      :SERVICE COMPANY
 DATE.                   17-Apr-20          :DATE
 UWI.                   15/9-F-1 C          :UNIQUE WELL ID
 ELEVREF.                       KB          :REFERENCE ELEVATION
 ELEV.M                      54.90          :ELEVATION
 XCOORD.                435046.531          :SURFACE X
 YCOORD.               6478567.000          :SURFACE Y
~CURVE INFORMATION      
#MNEM.UNIT      API CODE      CURVE DESCRIPTION
#---------    -------------   ------------------------------
DEPT.M                        : Depth
CALI.in                       : CALI
RDEP.-                        : Deep Resistivity
DEN.-                         : Density of correlated events
DENC.-                        : DENC
ROP.-                         : ROP
GR.API                        : smoothed gr
RMED.-                        : Medium Resistivity
NEU.-                         : NEU
PEF.b/e                       : Photoelectric Factor
BS.-                          : Bit Size
~PARAMETER INFORMATION
#MNEM.UNIT           DATA                 DESCRIPTION OF MNEMONIC
#---------         -----------         ------------------------------
~A   DEPT          CALI          RDEP           DEN          DENC           ROP            GR          RMED           NEU           PEF            BS
# ...
     2285.78        -999.25         0.4393        -999.25        -999.25        36.8722        50.6788         0.4343        -999.25        -999.25          17.50
     2285.93        -999.25         0.4262        -999.25        -999.25        36.8735         60.724         0.4181        -999.25        -999.25          17.50
     2286.08        -999.25         0.4225        -999.25        -999.25        36.8741        62.4042         0.4115        -999.25        -999.25          17.50
     2286.24        -999.25         0.4323        -999.25        -999.25        36.8753        59.4946         0.4099        -999.25        -999.25          17.50
     2286.39        -999.25         0.4556        -999.25        -999.25        36.8759        59.4459         0.4477        -999.25        -999.25          17.50
     2286.54        -999.25         0.4901        -999.25        -999.25        36.8327        64.2645          0.478        -999.25        -999.25          17.50
     2286.69        -999.25         0.5022        -999.25        -999.25        36.8111        62.4903         0.4929        -999.25        -999.25          17.50
     2286.85        -999.25           0.58        -999.25        -999.25        36.8122        52.1012         0.6056        -999.25        -999.25          17.50
     2287.00        -999.25         0.6116        -999.25        -999.25        36.8127        50.1601         0.6522        -999.25        -999.25          17.50
     2287.15        -999.25         0.6226        -999.25        -999.25        36.8139        41.0115         0.6644        -999.25        -999.25          17.50
     2287.30        -999.25         0.5949        -999.25        -999.25        36.8233        39.3739         0.6147        -999.25        -999.25          17.50
     2287.46        -999.25         0.5689        -999.25        -999.25         36.832        45.6683         0.5676        -999.25        -999.25          17.50
     2287.61        -999.25         0.5812        -999.25        -999.25        36.8413        48.9255         0.5731        -999.25        -999.25          17.50
     2287.76        -999.25         0.6004        -999.25        -999.25        36.8419        47.7961         0.5971        -999.25        -999.25          17.50
     2287.91        -999.25         0.6275        -999.25        -999.25         36.843        42.9112          0.624        -999.25        -999.25          17.50
     2288.07        -999.25         0.6367        -999.25        -999.25        36.8437        36.1808         0.6476        -999.25        -999.25          17.50
     2288.22        -999.25         0.6564        -999.25        -999.25        36.8226        38.2636         0.7054        -999.25        -999.25          17.50
     2288.37        -999.25         0.6149        -999.25        -999.25         36.801        39.6377         0.5993        -999.25        -999.25          17.50
     2288.52        -999.25         0.5618        -999.25        -999.25        34.2125        43.8366         0.5301        -999.25        -999.25          17.50
     2288.68        -999.25         0.5535        -999.25        -999.25        31.6457        40.4196           0.53        -999.25        -999.25          17.50
     2288.83        -999.25         0.5636        -999.25        -999.25        27.4055        42.6959         0.5737        -999.25        -999.25          17.50
     2288.98        -999.25          0.556        -999.25        -999.25         25.732        44.7341         0.5739        -999.25        -999.25          17.50
     2289.13        -999.25         0.5269        -999.25        -999.25        22.8211        42.8025         0.5239        -999.25        -999.25          17.50
     2289.29        -999.25         0.5222        -999.25        -999.25        21.5837        45.3003         0.5163        -999.25        -999.25          17.50
     2289.44        -999.25         0.5102        -999.25        -999.25        20.8725        56.7627         0.5053        -999.25        -999.25          17.50
     2289.59        -999.25         0.4919        -999.25        -999.25        21.3986        55.1905         0.4824        -999.25        -999.25          17.50
     2289.74        -999.25         0.4903        -999.25        -999.25        23.1181        57.0742         0.4781        -999.25        -999.25          17.50
     2289.89        -999.25         0.4963        -999.25        -999.25        24.3115        59.6294         0.4939        -999.25        -999.25          17.50
     2290.05        -999.25         0.5106        -999.25        -999.25        26.7416        57.4247          0.522        -999.25        -999.25          17.50
     2290.20        -999.25         0.5114        -999.25        -999.25        27.9782        56.8915         0.5248        -999.25        -999.25          17.50
     2290.35        -999.25         0.4997        -999.25        -999.25        29.9891        53.0709         0.5121        -999.25        -999.25          17.50
     2290.50        -999.25           0.48        -999.25        -999.25        31.5375        55.0538         0.4919        -999.25        -999.25          17.50
     2290.66        -999.25         0.4732        -999.25        -999.25        32.2892         54.393         0.4798        -999.25        -999.25          17.50
     2290.81        -999.25         0.4604        -999.25        -999.25        33.7927        62.6376          0.456        -999.25        -999.25          17.50
     2290.96        -999.25         0.4595        -999.25        -999.25        34.8625        61.1447         0.4658        -999.25        -999.25          17.50
     2291.11        -999.25         0.4543        -999.25        -999.25        37.0022        62.5716         0.4441        -999.25        -999.25          17.50
     2291.27        -999.25         0.4553        -999.25        -999.25        37.9583        64.8926         0.4408        -999.25        -999.25          17.50
     2291.42        -999.25          0.468        -999.25        -999.25        39.8704        60.4489         0.4558        -999.25        -999.25          17.50
     2291.57        -999.25         0.4951        -999.25        -999.25        40.1664        59.5601         0.4927        -999.25        -999.25          17.50
     2291.72        -999.25         0.5508        -999.25        -999.25        40.7584        56.7579         0.5679        -999.25        -999.25          17.50
     2291.88        -999.25         0.5585        -999.25        -999.25        40.9518        57.6632         0.5781        -999.25        -999.25          17.50
     2292.03        -999.25          0.556        -999.25        -999.25        41.3386        57.3745         0.5768        -999.25        -999.25          17.50
     2292.18        -999.25         0.5554        -999.25        -999.25        41.5761         55.543         0.5807        -999.25        -999.25          17.50
     2292.33        -999.25         0.5561        -999.25        -999.25        42.0511        51.7225         0.5768        -999.25        -999.25          17.50
     2292.49        -999.25         0.5549        -999.25        -999.25        41.9819        54.1522         0.5794        -999.25        -999.25          17.50
     2292.64        -999.25         0.5543        -999.25        -999.25        41.8436        56.9912         0.5853        -999.25        -999.25          17.50
     2292.79        -999.25         0.5551        -999.25        -999.25        41.9845        55.0442         0.5886        -999.25        -999.25          17.50
     2292.94        -999.25         0.5321        -999.25        -999.25        42.2664        54.2485         0.5471        -999.25        -999.25          17.50
     2293.10        -999.25         0.5059        -999.25        -999.25        42.2879        55.6026         0.5188        -999.25        -999.25          17.50
     2293.25        -999.25          0.478        -999.25        -999.25        42.3309        58.1925         0.4858        -999.25        -999.25          17.50
