~VERSION INFORMATION
 VERS.                 2.0:   CWLS LOG ASCII STANDARD -VERSION 2.0
 WRAP.                  NO:   ONE LINE PER DEPTH STEP
~WELL INFORMATION BLOCK
#MNEM.UNIT           DATA                DESCRIPTION OF MNEMONIC
#---------    -------------------        -------------------------------
 STRT.M                     197.90          :START DEPTH
 STOP.M                    4093.85          :STOP DEPTH
 STEP.M                     0.1524          :STEP
 NULL.                     -999.25          :NULL VALUE
 COMP.                                      :COMPANY
 WELL.                  15/9-F-1 C          :WELL
 FLD.                        VOLVE          :FIELD
 LOC.                                       :LOCATION
 CNTY.                                      :COUNTY
 STAT.                                      :STATE
 CTRY.                                      :COUNTRY
 SRVC.                                      :SERVICE COMPANY
 DATE.                   17-Apr-20          :DATE
 UWI.                   15/9-F-1 C          :UNIQUE WELL ID
 ELEVREF.                       KB          :REFERENCE ELEVATION
 ELEV.M                      54.90          :ELEVATION
 XCOORD.                435046.531          :SURFACE X
 YCOORD.               6478567.000          :SURFACE Y
~CURVE INFORMATION      
#MNEM.UNIT      API CODE      CURVE DESCRIPTION
#---------    -------------   ------------------------------
DEPT.M                        : Depth
CALI.in                       : CALI
RDEP.-                        : Deep Resistivity
DEN.-                         : Density of correlated events
DENC.-                        : DENC
ROP.-                         : ROP
GR.API                        : smoothed gr
RMED.-                        : Medium Resistivity
NEU.-                         : NEU
PEF.b/e                       : Photoelectric Factor
BS.-                          : Bit Size
~PARAMETER INFORMATION
#MNEM.UNIT           DATA                 DESCRIPTION OF MNEMONIC
#---------         -----------         ------------------------------
~A   DEPT          CALI          RDEP           DEN          DENC           ROP            GR          RMED           NEU           PEF            BS
# ...
     1531.40        -999.25         1.1359        -999.25        -999.25        10.8939       109.6571         1.1562        -999.25        -999.25          17.50
     1531.55        -999.25         1.1363        -999.25        -999.25         11.006       108.5451         1.1528        -999.25        -999.25          17.50
     1531.70        -999.25         1.1305        -999.25        -999.25          11.28       103.1226         1.1246        -999.25        -999.25          17.50
     1531.86        -999.25         1.1084        -999.25        -999.25        11.4171       103.9806         1.0875        -999.25        -999.25          17.50
     1532.01        -999.25         1.0786        -999.25        -999.25        11.2314       109.1258         1.0398        -999.25        -999.25          17.50
     1532.16        -999.25         1.0866        -999.25        -999.25        11.1386       110.2373         1.0457        -999.25        -999.25          17.50
     1532.31        -999.25         1.1111        -999.25        -999.25        10.9776       105.4974         1.0858        -999.25        -999.25          17.50
     1532.47        -999.25         1.1183        -999.25        -999.25        10.8971       105.6889         1.1033        -999.25        -999.25          17.50
     1532.62        -999.25         1.1246        -999.25        -999.25        10.7892       110.0832         1.1152        -999.25        -999.25          17.50
     1532.77        -999.25         1.1214        -999.25        -999.25        10.7353       111.6892         1.1076        -999.25        -999.25          17.50
     1532.92        -999.25         1.1216        -999.25        -999.25        10.7221       112.0345         1.0793        -999.25        -999.25          17.50
     1533.08        -999.25         1.1221        -999.25        -999.25        10.7155       108.4217         1.0816        -999.25        -999.25          17.50
     1533.23        -999.25         1.1349        -999.25        -999.25        10.7028       106.5515         1.1055        -999.25        -999.25          17.50
     1533.38        -999.25         1.1923        -999.25        -999.25        10.6964       102.8472         1.2254        -999.25        -999.25          17.50
     1533.53        -999.25         1.2619        -999.25        -999.25        10.6666       101.6166         1.4322        -999.25        -999.25          17.50
     1533.69        -999.25         1.2192        -999.25        -999.25        10.6517        96.3522          1.343        -999.25        -999.25          17.50
     1533.84        -999.25         1.1341        -999.25        -999.25        10.6642         97.011         1.0791        -999.25        -999.25          17.50
     1533.99        -999.25         1.1183        -999.25        -999.25        10.6704        98.6958         1.0493        -999.25        -999.25          17.50
     1534.14        -999.25          1.114        -999.25        -999.25        10.6619        106.742          1.056        -999.25        -999.25          17.50
     1534.30        -999.25         1.1157        -999.25        -999.25        10.6576        111.485         1.0634        -999.25        -999.25          17.50
     1534.45        -999.25         1.1101        -999.25        -999.25        10.6703       113.2052         1.0642        -999.25        -999.25          17.50
     1534.60        -999.25         1.1094        -999.25        -999.25          10.67       114.0093         1.0691        -999.25        -999.25          17.50
     1534.75        -999.25         1.1204        -999.25        -999.25        10.6632        113.069         1.0824        -999.25        -999.25          17.50
     1534.91        -999.25         1.1474        -999.25        -999.25        10.6596       110.2165         1.1158        -999.25        -999.25          17.50
     1535.06        -999.25         1.1498        -999.25        -999.25        10.6627       105.8039         1.1327        -999.25        -999.25          17.50
     1535.21        -999.25         1.1549        -999.25        -999.25        10.6584       102.8932         1.1311        -999.25        -999.25          17.50
     1535.36        -999.25         1.1538        -999.25        -999.25         10.651       101.6401         1.1262        -999.25        -999.25          17.50
     1535.51        -999.25         1.1373        -999.25        -999.25        10.6482       104.6855         1.1225        -999.25        -999.25          17.50
     1535.67        -999.25         1.1291        -999.25        -999.25        10.6527       105.3146         1.1136        -999.25        -999.25          17.50
     1535.82        -999.25         1.1176        -999.25        -999.25        10.6531       108.0218         1.1023        -999.25        -999.25          17.50
     1535.97        -999.25         1.1086        -999.25        -999.25        10.6488       107.3072         1.0956        -999.25        -999.25          17.50
     1536.12        -999.25         1.0995        -999.25        -999.25        10.6509       105.7608         1.0695        -999.25        -999.25          17.50
     1536.28        -999.25         1.0975        -999.25        -999.25        10.6573       107.7301         1.0736        -999.25        -999.25          17.50
     1536.43        -999.25         1.1012        -999.25        -999.25        10.6593       107.7548         1.0804        -999.25        -999.25          17.50
     1536.58        -999.25          1.101        -999.25        -999.25        10.6549       107.0796         1.0899        -999.25        -999.25          17.50
     1536.73        -999.25         1.1028        -999.25        -999.25        10.6569       108.2357         1.0952        -999.25        -999.25          17.50
     1536.89        -999.25         1.0993        -999.25        -999.25        10.6633       106.0135         1.0973        -999.25        -999.25          17.50
     1537.04        -999.25         1.0914        -999.25        -999.25        10.6654       106.6681          1.078        -999.25        -999.25          17.50
     1537.19        -999.25         1.0849        -999.25        -999.25        10.6611       107.6394         1.0752        -999.25        -999.25          17.50
     1537.34        -999.25         1.0821        -999.25        -999.25        10.6631        98.9429         1.0712        -999.25        -999.25          17.50
     1537.50        -999.25          1.079        -999.25        -999.25        10.6693         98.212         1.0685        -999.25        -999.25          17.50
     1537.65        -999.25         1.0804        -999.25        -999.25         10.703       104.0129         1.0709        -999.25        -999.25          17.50
     1537.80        -999.25         1.0829        -999.25        -999.25        10.7577       101.5739         1.0746        -999.25        -999.25          17.50
     1537.95        -999.25         1.0853        -999.25        -999.25        10.7497        99.1983         1.0815        -999.25        -999.25          17.50
     1538.11        -999.25         1.0946        -999.25        -999.25        10.7336       106.8275          1.089        -999.25        -999.25          17.50
     1538.26        -999.25         1.0902        -999.25        -999.25        10.7367       107.2945         1.0962        -999.25        -999.25          17.50
     1538.41        -999.25         1.0906        -999.25        -999.25         10.743       108.8932         1.0954        -999.25        -999.25          17.50
     1538.56        -999.25         1.0886        -999.25        -999.25         10.734         108.25         1.0918        -999.25        -999.25          17.50
     1538.72        -999.25         1.0675        -999.25        -999.25         10.716       102.8449         1.0593        -999.25        -999.25          17.50
     1538.87        -999.25         1.0556        -999.25        -999.25        10.7156       101.0745         1.0328        -999.25        -999.25          17.50
