~VERSION INFORMATION
 VERS.                 2.0:   CWLS LOG ASCII STANDARD -VERSION 2.0
 WRAP.                  NO:   ONE LINE PER DEPTH STEP
~WELL INFORMATION BLOCK
#MNEM.UNIT           DATA                DESCRIPTION OF MNEMONIC
#---------    -------------------        -------------------------------
 STRT.M                     197.90          :START DEPTH
 STOP.M                    4093.85          :STOP DEPTH
 STEP.M                     0.1524          :STEP
 NULL.                     -999.25          :NULL VALUE
 COMP.                                      :COMPANY
 WELL.                  15/9-F-1 C          :WELL
 FLD.                        VOLVE          :FIELD
 LOC.                                       :LOCATION
 CNTY.                                      :COUNTY
 STAT.                                      :STATE
 CTRY.                                      :COUNTRY
 SRVC.                                      :SERVICE COMPANY
 DATE.                   17-Apr-20          :DATE
 UWI.                   15/9-F-1 C          :UNIQUE WELL ID
 ELEVREF.                       KB          :REFERENCE ELEVATION
 ELEV.M                      54.90          :ELEVATION
 XCOORD.                435046.531          :SURFACE X
 YCOORD.               6478567.000          :SURFACE Y
~CURVE INFORMATION      
#MNEM.UNIT      API CODE      CURVE DESCRIPTION
#---------    -------------   ------------------------------
DEPT.M                        : Depth
CALI.in                       : CALI
RDEP.-                        : Deep Resistivity
DEN.-                         : Density of correlated events
DENC.-                        : DENC
ROP.-                         : ROP
GR.API                        : smoothed gr
RMED.-                        : Medium Resistivity
NEU.-                         : NEU
PEF.b/e                       : Photoelectric Factor
BS.-                          : Bit Size
~PARAMETER INFORMATION
#MNEM.UNIT           DATA                 DESCRIPTION OF MNEMONIC
#---------         -----------         ------------------------------
~A   DEPT          CALI          RDEP           DEN          DENC           ROP            GR          RMED           NEU           PEF            BS
# ...
     3825.02         8.5569         5.2636         2.2861         0.0376        29.9871        37.5174          5.027         0.1792         5.1524           8.50
     3825.17         8.5569          5.282         2.2857         0.0374        30.0013        37.3695         5.0255         0.1787         5.1628           8.50
     3825.32         8.5569         5.3713         2.2874         0.0367        30.0296         38.549         5.0892         0.1816         5.2006           8.50
     3825.48         8.5569         5.3803         2.2904         0.0371        30.0171        39.3482         5.0625         0.1827          5.253           8.50
     3825.63         8.5569         5.4367         2.2961         0.0398         29.992        40.8443           5.07         0.1844         5.3587           8.50
     3825.78         8.5569         5.4508         2.2965         0.0403        29.9806        41.0049         5.0346         0.1867         5.3554           8.50
     3825.93         8.5569         5.4864         2.2938          0.039        29.9578        40.9813         5.0001         0.1928         5.2408           8.50
     3826.09         8.5569         5.4882         2.2902         0.0371        29.9495        40.0379         4.9661         0.1957         5.1864           8.50
     3826.24         8.5569         5.5442         2.2824         0.0343        29.9327        39.7603         4.9525         0.2005         5.1415           8.50
     3826.39         8.5569         5.6611         2.2787         0.0346        29.9514        39.4525         5.0819         0.2033         5.1275           8.50
     3826.54         8.5569         5.8651         2.2652         0.0349        29.9889        40.9256         5.3442         0.2081         5.1388           8.50
     3826.70         8.5569         5.9783         2.2569         0.0341        29.9033        42.9822         5.4734         0.2085         5.1666           8.50
     3826.85         8.5569         6.3468           2.25         0.0339         29.732         43.318          6.019          0.208         5.1639           8.50
     3827.00         8.5569         6.5221         2.2522         0.0364        29.8735         41.738         6.3737         0.2066         5.0805           8.50
     3827.15         8.5569         6.7697         2.2538          0.038        29.9443        41.1242         6.6144         0.2045         5.0547           8.50
     3827.31         8.5569         7.1184         2.2575         0.0402        29.9214        40.5323         7.3099         0.2003          5.053           8.50
     3827.46         8.5569         7.3158         2.2578         0.0404        29.9099        40.8096         7.7475         0.1988         5.0628           8.50
     3827.61         8.5243         7.9864         2.2551         0.0405        29.9503        39.7866         9.0383         0.1948         5.1227           8.50
     3827.76         8.5569         8.7424         2.2549         0.0411        29.9705        40.2611        11.2047         0.1924         5.1553           8.50
     3827.92         8.5243         9.7225         2.2599          0.045        29.9748        40.4848        14.6932         0.1947          5.201           8.50
     3828.07         8.5243        10.1523         2.2634         0.0481         29.977        40.2384        16.5451         0.1947         5.2557           8.50
     3828.22         8.5569        11.2972         2.2683         0.0525         29.979        40.4535        21.4695         0.1934         5.3712           8.50
     3828.37         8.5569        11.9158         2.2708         0.0537          29.98        37.7056        25.4163         0.1908         5.3617           8.50
     3828.53         8.5569        12.7896         2.2724         0.0546        29.9737         39.518        31.0011         0.1843         5.2617           8.50
     3828.68         8.5569        13.1497         2.2706         0.0536        29.9705        40.6106        34.3331         0.1806          5.219           8.50
     3828.83         8.5569        13.9132          2.271           0.05        31.0617         40.313        42.7189         0.1765         5.2065           8.50
     3828.98         8.5569        14.3799         2.2758         0.0495        31.6073        39.3248         47.909          0.174         5.2414           8.50
     3829.13         8.5569        15.0522         2.2884         0.0509        31.2348        39.2471        63.3317         0.1625         5.3851           8.50
     3829.29         8.5569        15.6517         2.2949         0.0516        31.0485        39.5656         70.989         0.1549         5.4754           8.50
     3829.44         8.6057        15.4631         2.3126         0.0552        30.7038        38.7117        69.9057         0.1374         5.5721           8.50
     3829.59         8.6057        14.9044         2.3209          0.056        30.5314        39.2724        57.8262         0.1328         5.5634           8.50
     3829.74         8.5813        13.7996         2.3366         0.0508        30.2374        37.6599        44.6482         0.1178          5.506           8.50
     3829.90         8.5569        14.3079         2.3512          0.048        30.0904        37.3776        49.6052         0.1117         5.4843           8.50
     3830.05         8.6057        15.5099         2.3877         0.0454        29.8193        35.9712        72.1468         0.0936         5.4638           8.50
     3830.20          8.622        15.8468         2.4093          0.037        29.7829         34.845        77.7209         0.0801         5.5687           8.50
     3830.35         8.6057        15.5444         2.4231         0.0332        29.8821        35.4712        72.5176         0.0771         5.7376           8.50
     3830.51         8.6383        14.2994         2.4784         0.0373        29.6915        32.8281        51.0739         0.0692         6.2967           8.50
     3830.66         8.6383        13.9839         2.5155         0.0436        29.4018        32.7606        47.7562         0.0681         6.5697           8.50
     3830.81         8.6383        13.7804         2.5837         0.0528        27.6143        31.5173        45.5366         0.0706         6.7646           8.50
     3830.96         8.6057        13.5692         2.6063         0.0541        26.1165        30.6841        43.0283         0.0762         6.7338           8.50
     3831.12         8.6383        13.6997         2.6265         0.0566        22.7049        30.0686        46.0904         0.0819          6.664           8.50
     3831.27         8.6383         13.883         2.6252         0.0597        20.7912        31.3527        48.7281         0.0845         6.6218           8.50
     3831.42         8.6383         13.865         2.6032         0.0675        17.4826        33.1286        50.4372         0.0915         6.5915           8.50
     3831.57         8.6627        13.8554         2.5781         0.0694        16.0878        32.3649        50.3627          0.095         6.6261           8.50
     3831.73         8.6871        13.4899         2.5049         0.0702        13.2437        33.0525        44.3541         0.1138         6.5989           8.50
     3831.88         8.6871          13.34         2.4636         0.0713        11.7945        33.6923        42.9076         0.1219         6.5285           8.50
     3832.03         8.7359        12.7205         2.3844         0.0702        10.9212        35.9016        35.9247         0.1446         6.3542           8.50
     3832.18         8.6871        12.0926         2.3516         0.0648        11.4972        36.2298        31.6851         0.1592         6.2069           8.50
     3832.34         8.6871        10.3719         2.2888         0.0513        13.5934        36.4919        19.6053         0.1819         5.7848           8.50
     3832.49         8.6627         9.7452         2.2615         0.0473        15.1137        37.3201        16.5661         0.1931         5.6087           8.50
