~VERSION INFORMATION
 VERS.                 2.0:   CWLS LOG ASCII STANDARD -VERSION 2.0
 WRAP.                  NO:   ONE LINE PER DEPTH STEP
~WELL INFORMATION BLOCK
#MNEM.UNIT           DATA                DESCRIPTION OF MNEMONIC
#---------    -------------------        -------------------------------
 STRT.M                     197.90          :START DEPTH
 STOP.M                    4093.85          :STOP DEPTH
 STEP.M                     0.1524          :STEP
 NULL.                     -999.25          :NULL VALUE
 COMP.                                      :COMPANY
 WELL.                  15/9-F-1 C          :WELL
 FLD.                        VOLVE          :FIELD
 LOC.                                       :LOCATION
 CNTY.                                      :COUNTY
 STAT.                                      :STATE
 CTRY.                                      :COUNTRY
 SRVC.                                      :SERVICE COMPANY
 DATE.                   17-Apr-20          :DATE
 UWI.                   15/9-F-1 C          :UNIQUE WELL ID
 ELEVREF.                       KB          :REFERENCE ELEVATION
 ELEV.M                      54.90          :ELEVATION
 XCOORD.                435046.531          :SURFACE X
 YCOORD.               6478567.000          :SURFACE Y
~CURVE INFORMATION      
#MNEM.UNIT      API CODE      CURVE DESCRIPTION
#---------    -------------   ------------------------------
DEPT.M                        : Depth
CALI.in                       : CALI
RDEP.-                        : Deep Resistivity
DEN.-                         : Density of correlated events
DENC.-                        : DENC
ROP.-                         : ROP
GR.API                        : smoothed gr
RMED.-                        : Medium Resistivity
NEU.-                         : NEU
PEF.b/e                       : Photoelectric Factor
BS.-                          : Bit Size
~PARAMETER INFORMATION
#MNEM.UNIT           DATA                 DESCRIPTION OF MNEMONIC
#---------         -----------         ------------------------------
~A   DEPT          CALI          RDEP           DEN          DENC           ROP            GR          RMED           NEU           PEF            BS
# ...
     4076.48        -999.25         3.0616        -999.25        -999.25        60.9375       121.4049         4.6889        -999.25        -999.25           8.50
     4076.63        -999.25         3.0515        -999.25        -999.25        50.1004       115.1629         4.6846        -999.25        -999.25           8.50
     4076.78        -999.25         3.0555        -999.25        -999.25        44.6819       116.3149         4.6499        -999.25        -999.25           8.50
     4076.94        -999.25         3.0293        -999.25        -999.25        34.5554       114.9663         4.6628        -999.25        -999.25           8.50
     4077.09        -999.25         3.0173        -999.25        -999.25        29.4922       115.9606         4.6327        -999.25        -999.25           8.50
     4077.24        -999.25         3.0193        -999.25        -999.25        25.6282       117.8777         4.6499        -999.25        -999.25           8.50
     4077.39        -999.25         3.0233        -999.25        -999.25        23.6962       117.3561         4.6341        -999.25        -999.25           8.50
     4077.55        -999.25         3.0393        -999.25        -999.25        25.1678       116.4957         4.6919        -999.25        -999.25           8.50
     4077.70        -999.25         3.0414        -999.25        -999.25        25.9036       117.6623         4.7212        -999.25        -999.25           8.50
     4077.85        -999.25         3.0313        -999.25        -999.25        27.3753        119.661         4.6853        -999.25        -999.25           8.50
     4078.00        -999.25         3.0454        -999.25        -999.25        28.7268       118.3873         4.6759        -999.25        -999.25           8.50
     4078.16        -999.25         3.0434        -999.25        -999.25        29.3425        117.203         4.6701        -999.25        -999.25           8.50
     4078.31        -999.25         3.0647        -999.25        -999.25        29.9513       116.5824         4.7538        -999.25        -999.25           8.50
     4078.46        -999.25           3.08        -999.25        -999.25        29.9445       117.6756         4.7896        -999.25        -999.25           8.50
     4078.61        -999.25         3.1028        -999.25        -999.25         29.931       120.7908         4.8766        -999.25        -999.25           8.50
     4078.77        -999.25         3.0986        -999.25        -999.25        29.9244       121.2416         4.9343        -999.25        -999.25           8.50
     4078.92        -999.25          3.078        -999.25        -999.25         29.938       117.3111         4.7912        -999.25        -999.25           8.50
     4079.07        -999.25         3.0759        -999.25        -999.25        29.9582        120.297         4.7463        -999.25        -999.25           8.50
     4079.22        -999.25         3.0914        -999.25        -999.25        29.9782       117.2947         4.7995        -999.25        -999.25           8.50
     4079.38        -999.25         3.0924        -999.25        -999.25        29.9779       120.7694         4.7746        -999.25        -999.25           8.50
     4079.53        -999.25         3.0657        -999.25        -999.25        29.9789       119.1716         4.7197        -999.25        -999.25           8.50
     4079.68        -999.25         3.0739        -999.25        -999.25        29.9801       115.7038         4.6962        -999.25        -999.25           8.50
     4079.83        -999.25         3.1258        -999.25        -999.25        29.9825        112.632         4.9296        -999.25        -999.25           8.50
     4079.99        -999.25         3.1258        -999.25        -999.25        29.9838       114.0872         4.9867        -999.25        -999.25           8.50
     4080.14        -999.25         3.1279        -999.25        -999.25        29.9828       117.2639         4.9533        -999.25        -999.25           8.50
     4080.29        -999.25         3.1195        -999.25        -999.25        29.9805       114.8771         4.9296        -999.25        -999.25           8.50
     4080.44        -999.25          3.107        -999.25        -999.25        29.9971       117.8739         4.8427        -999.25        -999.25           8.50
     4080.59        -999.25          3.109        -999.25        -999.25        30.0159       119.5154         4.8999        -999.25        -999.25           8.50
     4080.75        -999.25         3.1481        -999.25        -999.25        30.0267       118.6637         5.0319        -999.25        -999.25           8.50
     4080.90        -999.25         3.1512        -999.25        -999.25        30.0186       117.5945         5.0205        -999.25        -999.25           8.50
     4081.05        -999.25         3.1195        -999.25        -999.25        30.0025       116.6578         4.9596        -999.25        -999.25           8.50
     4081.20        -999.25         3.0566        -999.25        -999.25        29.9866       115.9354         4.7728        -999.25        -999.25           8.50
     4081.36        -999.25         3.0596        -999.25        -999.25        29.9784       114.8124         4.6817        -999.25        -999.25           8.50
     4081.51        -999.25         3.0739        -999.25        -999.25        29.9621       113.8783         4.8535        -999.25        -999.25           8.50
     4081.66        -999.25         3.0596        -999.25        -999.25         29.954       113.2852         4.9046        -999.25        -999.25           8.50
     4081.81        -999.25         3.0333        -999.25        -999.25        29.9379       112.7604         4.7256        -999.25        -999.25           8.50
     4081.97        -999.25         3.0094        -999.25        -999.25        29.9567       111.5554         4.5915        -999.25        -999.25           8.50
     4082.12        -999.25         3.0233        -999.25        -999.25        29.9943       112.8194         4.6312        -999.25        -999.25           8.50
     4082.27        -999.25         3.0193        -999.25        -999.25        29.9124       113.3639          4.537        -999.25        -999.25           8.50
     4082.42        -999.25         3.0637        -999.25        -999.25        29.7487       116.4516         4.8427        -999.25        -999.25           8.50
     4082.58        -999.25         3.0862        -999.25        -999.25        29.8169       111.2056         5.0547        -999.25        -999.25           8.50
     4082.73        -999.25         3.0873        -999.25        -999.25        29.9534       119.8239         5.1501        -999.25        -999.25           8.50
     4082.88        -999.25         3.0966        -999.25        -999.25        29.0102       123.6539         5.1967        -999.25        -999.25           8.50
     4083.03        -999.25         3.1111        -999.25        -999.25        27.1238       117.3067         5.3149        -999.25        -999.25           8.50
     4083.19        -999.25         3.1028        -999.25        -999.25        27.1062       116.8408         5.4208        -999.25        -999.25           8.50
     4083.34        -999.25         3.1491        -999.25        -999.25        27.0709       123.7774         5.6684        -999.25        -999.25           8.50
     4083.49        -999.25         3.1555        -999.25        -999.25        27.4256       122.2095         5.7018        -999.25        -999.25           8.50
     4083.64        -999.25         3.1491        -999.25        -999.25        28.1349       118.8909         5.7716        -999.25        -999.25           8.50
     4083.80        -999.25         3.1406        -999.25        -999.25         28.423       119.0316         5.7616        -999.25        -999.25           8.50
     4083.95        -999.25         3.1195        -999.25        -999.25        28.9994       123.0871         5.7556        -999.25        -999.25           8.50
