~VERSION INFORMATION
 VERS.                 2.0:   CWLS LOG ASCII STANDARD -VERSION 2.0
 WRAP.                  NO:   ONE LINE PER DEPTH STEP
~WELL INFORMATION BLOCK
#MNEM.UNIT           DATA                DESCRIPTION OF MNEMONIC
#---------    -------------------        -------------------------------
 STRT.M                     197.90          :START DEPTH
 STOP.M                    4093.85          :STOP DEPTH
 STEP.M                     0.1524          :STEP
 NULL.                     -999.25          :NULL VALUE
 COMP.                                      :COMPANY
 WELL.                  15/9-F-1 C          :WELL
 FLD.                        VOLVE          :FIELD
 LOC.                                       :LOCATION
 CNTY.                                      :COUNTY
 STAT.                                      :STATE
 CTRY.                                      :COUNTRY
 SRVC.                                      :SERVICE COMPANY
 DATE.                   17-Apr-20          :DATE
 UWI.                   15/9-F-1 C          :UNIQUE WELL ID
 ELEVREF.                       KB          :REFERENCE ELEVATION
 ELEV.M                      54.90          :ELEVATION
 XCOORD.                435046.531          :SURFACE X
 YCOORD.               6478567.000          :SURFACE Y
~CURVE INFORMATION      
#MNEM.UNIT      API CODE      CURVE DESCRIPTION
#---------    -------------   ------------------------------
DEPT.M                        : Depth
CALI.in                       : CALI
RDEP.-                        : Deep Resistivity
DEN.-                         : Density of correlated events
DENC.-                        : DENC
ROP.-                         : ROP
GR.API                        : smoothed gr
RMED.-                        : Medium Resistivity
NEU.-                         : NEU
PEF.b/e                       : Photoelectric Factor
BS.-                          : Bit Size
~PARAMETER INFORMATION
#MNEM.UNIT           DATA                 DESCRIPTION OF MNEMONIC
#---------         -----------         ------------------------------
~A   DEPT          CALI          RDEP           DEN          DENC           ROP            GR          RMED           NEU           PEF            BS
# ...
     3322.10         8.5243         2.1551         2.6411         0.0616        24.9844        58.3733         3.2721         0.1557         7.4227           8.50
     3322.25         8.5569         2.1495         2.6362         0.0577        24.9623        59.0979         3.3196          0.152         7.4256           8.50
     3322.40         8.5569         2.1811         2.6307         0.0509        24.9488        57.9327         3.4767         0.1453         7.4126           8.50
     3322.56         8.5569          2.203         2.6307         0.0492        24.9421        58.4474         3.6784         0.1446         7.3927           8.50
     3322.71         8.5569         2.2083         2.6324         0.0482          24.98        57.9409         3.8604         0.1454         7.3592           8.50
     3322.86         8.5569         2.1903         2.6355         0.0479         24.999        57.0749         3.8731         0.1443         7.3446           8.50
     3323.01         8.5569         2.1607         2.6459         0.0452        24.9861        56.9061         3.8382         0.1403         7.4175           8.50
     3323.17         8.5243         2.1373         2.6486         0.0415        24.9796        55.3855         3.7849         0.1416         7.4965           8.50
     3323.32         8.5243         2.0878         2.6483         0.0361        24.9706        56.5665         3.7297         0.1429         7.5542           8.50
     3323.47         8.5243         2.0602         2.6489         0.0381        24.9661        57.3351          3.667         0.1453         7.5109           8.50
     3323.62         8.5569         1.9521         2.6466         0.0452        25.0042        59.6303         3.2296         0.1481         7.4204           8.50
     3323.78         8.5569         1.9258         2.6438         0.0471        25.0233        59.1772          3.161          0.148         7.4321           8.50
     3323.93         8.5569          1.888          2.647         0.0515        25.0103        59.2492         3.0144         0.1476         7.5307           8.50
     3324.08         8.5569         1.8341         2.6506         0.0559        25.0038        56.2949           2.71         0.1522         7.5353           8.50
     3324.23         8.6057         1.7088         2.6368           0.07        24.9949         57.564         2.1074         0.1712         7.3245           8.50
     3324.39         8.6057         1.6318         2.6137          0.079        24.9905        60.7364         1.8873         0.1859         7.1688           8.50
     3324.54         8.6383         1.5156          2.544         0.0884        24.9813        68.8207         1.5451         0.2106         7.0315           8.50
     3324.69         8.6383         1.4618         2.5097         0.0836        24.9767        70.9507         1.3911         0.2184         7.0368           8.50
     3324.84         8.6383         1.4827         2.4697         0.0636        25.0109        68.7975         1.3777         0.2201         7.0439           8.50
     3325.00         8.6383           1.49         2.4676         0.0573         25.028        66.7005         1.4887         0.2194         7.0373           8.50
     3325.15         8.6383         1.4924         2.4836         0.0593         25.019        61.1215         1.5585         0.2281         7.0195           8.50
     3325.30         8.6383         1.4924         2.4899         0.0684        24.1746        61.1667         1.5319          0.239         6.9853           8.50
     3325.45         8.6871         1.4961         2.4845         0.0714        23.3347        60.6059         1.5208         0.2385         6.9805           8.50
     3325.61         8.6383          1.558         2.4682          0.071        21.9016        59.6074         1.6312         0.2345         6.9986           8.50
     3325.76         8.6383         1.5622         2.4638         0.0684        21.3084        61.5593         1.6396          0.236         6.9887           8.50
     3325.91         8.6057         1.5327         2.4716         0.0664        20.3224        59.8423         1.5823           0.24         6.9073           8.50
     3326.06         8.6383         1.5142         2.4767         0.0669        19.9296        60.3989         1.5298         0.2365         6.7967           8.50
     3326.21          8.622         1.4866           2.47         0.0635        19.4855        60.6388         1.4699          0.224         6.4917           8.50
     3326.37         8.6383         1.4737         2.4632         0.0604        19.4343        57.5204         1.4627         0.2177         6.4119           8.50
     3326.52         8.6383          1.493         2.4565         0.0561        19.7016        57.5424         1.5281         0.2178         6.4515           8.50
     3326.67         8.6383          1.496          2.458         0.0554        20.0202        60.0065          1.552         0.2197         6.4778           8.50
     3326.82         8.6383         1.4945         2.4695         0.0572        20.5416        56.8432         1.5661         0.2214         6.4813           8.50
     3326.98         8.6057         1.4857         2.4756         0.0589        20.7445        56.2402         1.5193         0.2228         6.4842           8.50
     3327.13         8.5569          1.463         2.4814         0.0612        21.1055        57.0878         1.4636         0.2235         6.4053           8.50
     3327.28         8.5813         1.4512         2.4815         0.0612        21.2637         60.035         1.4544         0.2207         6.3244           8.50
     3327.43         8.6383         1.4647         2.4778         0.0596        21.3651        62.1981         1.4863         0.2239         6.2377           8.50
     3327.59         8.6383         1.4645         2.4761         0.0599        21.3083        60.8822          1.488         0.2256         6.2621           8.50
     3327.74         8.6383         1.4428         2.4766         0.0636        21.1949          63.89         1.3867         0.2256         6.4337           8.50
     3327.89         8.6383          1.439         2.4761         0.0654        21.1383        64.1411         1.3779         0.2284         6.5302           8.50
     3328.04         8.6383         1.4882         2.4681         0.0657        21.0294        65.9862         1.4992         0.2365         6.5323           8.50
     3328.20         8.6383         1.4991         2.4605         0.0642        20.9772        65.5232          1.545          0.236         6.4461           8.50
     3328.35         8.6383         1.5015         2.4416         0.0581        20.9116         63.859         1.4845         0.2266         6.3022           8.50
     3328.50         8.6383         1.5365         2.4335          0.053         20.885        63.0768         1.5536         0.2228         6.2843           8.50
     3328.65         8.6383         1.5458         2.4382          0.054        20.8853        63.6704          1.588         0.2232         6.3196           8.50
     3328.81         8.6057         1.5785         2.4528         0.0591        20.8857        59.5982          1.642         0.2266         6.4495           8.50
     3328.96         8.6057         1.5955         2.4558         0.0593        20.8859        59.0552         1.6871         0.2263         6.4739           8.50
     3329.11         8.6057         1.6227         2.4568         0.0554        20.8864        60.0153          1.727         0.2217         6.3692           8.50
     3329.26         8.6057         1.6334          2.459         0.0528        20.8493        62.0177         1.7424         0.2217         6.3141           8.50
     3329.42         8.6057         1.6516         2.4683         0.0491        20.7752          60.37         1.7614         0.2334          6.326           8.50
     3329.57         8.6057         1.6523         2.4731         0.0471        20.8212         57.771         1.7726         0.2405         6.3416           8.50
