~VERSION INFORMATION
 VERS.                 2.0:   CWLS LOG ASCII STANDARD -VERSION 2.0
 WRAP.                  NO:   ONE LINE PER DEPTH STEP
~WELL INFORMATION BLOCK
#MNEM.UNIT           DATA                DESCRIPTION OF MNEMONIC
#---------    -------------------        -------------------------------
 STRT.M                     197.90          :START DEPTH
 STOP.M                    4093.85          :STOP DEPTH
 STEP.M                     0.1524          :STEP
 NULL.                     -999.25          :NULL VALUE
 COMP.                                      :COMPANY
 WELL.                  15/9-F-1 C          :WELL
 FLD.                        VOLVE          :FIELD
 LOC.                                       :LOCATION
 CNTY.                                      :COUNTY
 STAT.                                      :STATE
 CTRY.                                      :COUNTRY
 SRVC.                                      :SERVICE COMPANY
 DATE.                   17-Apr-20          :DATE
 UWI.                   15/9-F-1 C          :UNIQUE WELL ID
 ELEVREF.                       KB          :REFERENCE ELEVATION
 ELEV.M                      54.90          :ELEVATION
 XCOORD.                435046.531          :SURFACE X
 YCOORD.               6478567.000          :SURFACE Y
~CURVE INFORMATION      
#MNEM.UNIT      API CODE      CURVE DESCRIPTION
#---------    -------------   ------------------------------
DEPT.M                        : Depth
CALI.in                       : CALI
RDEP.-                        : Deep Resistivity
DEN.-                         : Density of correlated events
DENC.-                        : DENC
ROP.-                         : ROP
GR.API                        : smoothed gr
RMED.-                        : Medium Resistivity
NEU.-                         : NEU
PEF.b/e                       : Photoelectric Factor
BS.-                          : Bit Size
~PARAMETER INFORMATION
#MNEM.UNIT           DATA                 DESCRIPTION OF MNEMONIC
#---------         -----------         ------------------------------
~A   DEPT          CALI          RDEP           DEN          DENC           ROP            GR          RMED           NEU           PEF            BS
# ...
     2560.10        -999.25         0.3247        -999.25        -999.25        27.6341        30.5378         0.3188        -999.25        -999.25          12.25
     2560.25        -999.25         0.3261        -999.25        -999.25        27.6459        31.9418         0.3243        -999.25        -999.25          12.25
     2560.40        -999.25         0.3275        -999.25        -999.25        27.6486        28.5615         0.3248        -999.25        -999.25          12.25
     2560.56        -999.25          0.328        -999.25        -999.25          27.65        26.0679         0.3252        -999.25        -999.25          12.25
     2560.71        -999.25         0.3289        -999.25        -999.25        27.6072        27.1869         0.3246        -999.25        -999.25          12.25
     2560.86        -999.25         0.3291        -999.25        -999.25        27.5858        28.5515         0.3259        -999.25        -999.25          12.25
     2561.01        -999.25         0.3301        -999.25        -999.25        27.5983        29.7735         0.3254        -999.25        -999.25          12.25
     2561.17        -999.25         0.3309        -999.25        -999.25        27.6046        30.8507         0.3244        -999.25        -999.25          12.25
     2561.32        -999.25         0.3322        -999.25        -999.25        27.6066        25.4127          0.327        -999.25        -999.25          12.25
     2561.47        -999.25         0.3331        -999.25        -999.25        27.6076         29.709         0.3276        -999.25        -999.25          12.25
     2561.62        -999.25          0.333        -999.25        -999.25        27.6193        28.4293         0.3277        -999.25        -999.25          12.25
     2561.78        -999.25         0.3332        -999.25        -999.25        27.6251        28.2639         0.3246        -999.25        -999.25          12.25
     2561.93        -999.25         0.3344        -999.25        -999.25        27.6279        30.8427          0.326        -999.25        -999.25          12.25
     2562.08        -999.25         0.3348        -999.25        -999.25        27.6293         28.859         0.3274        -999.25        -999.25          12.25
     2562.23        -999.25         0.3365        -999.25        -999.25        27.6064        29.6245          0.332        -999.25        -999.25          12.25
     2562.39        -999.25         0.3373        -999.25        -999.25        27.5949        28.6381         0.3317        -999.25        -999.25          12.25
     2562.54        -999.25         0.3385        -999.25        -999.25        27.6115        29.2497          0.335        -999.25        -999.25          12.25
     2562.69        -999.25         0.3388        -999.25        -999.25        27.6198         30.311         0.3357        -999.25        -999.25          12.25
     2562.84        -999.25         0.3388        -999.25        -999.25        27.6448        28.3597         0.3333        -999.25        -999.25          12.25
     2563.00        -999.25         0.3387        -999.25        -999.25        27.6573        29.1853         0.3296        -999.25        -999.25          12.25
     2563.15        -999.25         0.3374        -999.25        -999.25        27.5412        28.3088         0.3314        -999.25        -999.25          12.25
     2563.30        -999.25          0.336        -999.25        -999.25        27.5478        29.6752          0.332        -999.25        -999.25          12.25
     2563.45        -999.25         0.3359        -999.25        -999.25        27.6124        26.8719         0.3316        -999.25        -999.25          12.25
     2563.61        -999.25         0.3349        -999.25        -999.25        27.6601        28.3412         0.3332        -999.25        -999.25          12.25
     2563.76        -999.25         0.3339        -999.25        -999.25        27.6431        29.2292         0.3328        -999.25        -999.25          12.25
     2563.91        -999.25         0.3332        -999.25        -999.25        27.6277        26.3332         0.3299        -999.25        -999.25          12.25
     2564.06        -999.25         0.3324        -999.25        -999.25        27.6292         25.216         0.3278        -999.25        -999.25          12.25
     2564.21        -999.25         0.3308        -999.25        -999.25        27.6365        27.0364         0.3281        -999.25        -999.25          12.25
     2564.37        -999.25          0.329        -999.25        -999.25        27.6422        28.4287         0.3307        -999.25        -999.25          12.25
     2564.52        -999.25         0.3247        -999.25        -999.25        27.6493        24.7021         0.3256        -999.25        -999.25          12.25
     2564.67        -999.25         0.3239        -999.25        -999.25        27.6507        24.3693         0.3236        -999.25        -999.25          12.25
     2564.82        -999.25         0.3221        -999.25        -999.25        27.6352        26.7794         0.3229        -999.25        -999.25          12.25
     2564.98        -999.25         0.3204        -999.25        -999.25        27.6182        27.4133         0.3195        -999.25        -999.25          12.25
     2565.13        -999.25         0.3173        -999.25        -999.25        27.6028        25.6845         0.3148        -999.25        -999.25          12.25
     2565.28        -999.25          0.317        -999.25        -999.25        27.6042        27.5402         0.3138        -999.25        -999.25          12.25
     2565.43        -999.25         0.3167        -999.25        -999.25        27.6115        28.8663         0.3148        -999.25        -999.25          12.25
     2565.59        -999.25         0.3176        -999.25        -999.25        27.6173        28.2108          0.315        -999.25        -999.25          12.25
     2565.74        -999.25         0.3188        -999.25        -999.25        27.6244        28.3362         0.3212        -999.25        -999.25          12.25
     2565.89        -999.25          0.319        -999.25        -999.25        27.6258        27.8477         0.3201        -999.25        -999.25          12.25
     2566.04        -999.25         0.3216        -999.25        -999.25        27.6331        26.8727          0.322        -999.25        -999.25          12.25
     2566.20        -999.25         0.3241        -999.25        -999.25         27.639        27.3749         0.3163        -999.25        -999.25          12.25
     2566.35        -999.25         0.3334        -999.25        -999.25        27.6462        30.6508          0.307        -999.25        -999.25          12.25
     2566.50        -999.25         0.3393        -999.25        -999.25         27.649        28.9661         0.3071        -999.25        -999.25          12.25
     2566.65        -999.25         0.3391        -999.25        -999.25        27.6321        25.9529         0.3162        -999.25        -999.25          12.25
     2566.81        -999.25         0.3561        -999.25        -999.25        27.5982        26.5699           0.34        -999.25        -999.25          12.25
     2566.96        -999.25         0.3566        -999.25        -999.25        27.5996        26.5781         0.3709        -999.25        -999.25          12.25
     2567.11        -999.25         0.3504        -999.25        -999.25        27.6023        30.1241         0.3372        -999.25        -999.25          12.25
     2567.26        -999.25         0.3827        -999.25        -999.25        27.6082        30.4647         0.3773        -999.25        -999.25          12.25
     2567.42        -999.25         0.7012        -999.25        -999.25          27.62        25.4423         0.7472        -999.25        -999.25          12.25
     2567.57        -999.25         2.3785        -999.25        -999.25        27.1724        23.8095         3.0593        -999.25        -999.25          12.25
