~VERSION INFORMATION
 VERS.                 2.0:   CWLS LOG ASCII STANDARD -VERSION 2.0
 WRAP.                  NO:   ONE LINE PER DEPTH STEP
~WELL INFORMATION BLOCK
#MNEM.UNIT           DATA                DESCRIPTION OF MNEMONIC
#---------    -------------------        -------------------------------
 STRT.M                     197.90          :START DEPTH
 STOP.M                    4093.85          :STOP DEPTH
 STEP.M                     0.1524          :STEP
 NULL.                     -999.25          :NULL VALUE
 COMP.                                      :COMPANY
 WELL.                  15/9-F-1 C          :WELL
 FLD.                        VOLVE          :FIELD
 LOC.                                       :LOCATION
 CNTY.                                      :COUNTY
 STAT.                                      :STATE
 CTRY.                                      :COUNTRY
 SRVC.                                      :SERVICE COMPANY
 DATE.                   17-Apr-20          :DATE
 UWI.                   15/9-F-1 C          :UNIQUE WELL ID
 ELEVREF.                       KB          :REFERENCE ELEVATION
 ELEV.M                      54.90          :ELEVATION
 XCOORD.                435046.531          :SURFACE X
 YCOORD.               6478567.000          :SURFACE Y
~CURVE INFORMATION      
#MNEM.UNIT      API CODE      CURVE DESCRIPTION
#---------    -------------   ------------------------------
DEPT.M                        : Depth
CALI.in                       : CALI
RDEP.-                        : Deep Resistivity
DEN.-                         : Density of correlated events
DENC.-                        : DENC
ROP.-                         : ROP
GR.API                        : smoothed gr
RMED.-                        : Medium Resistivity
NEU.-                         : NEU
PEF.b/e                       : Photoelectric Factor
BS.-                          : Bit Size
~PARAMETER INFORMATION
#MNEM.UNIT           DATA                 DESCRIPTION OF MNEMONIC
#---------         -----------         ------------------------------
~A   DEPT          CALI          RDEP           DEN          DENC           ROP            GR          RMED           NEU           PEF            BS
# ...
      502.70        -999.25         1.4784        -999.25        -999.25        50.2862        60.9434         1.4788        -999.25        -999.25          26.00
      502.85        -999.25         1.4676        -999.25        -999.25        50.2967        58.8216         1.4694        -999.25        -999.25          26.00
      503.00        -999.25          1.462        -999.25        -999.25        50.3017        55.6224         1.5042        -999.25        -999.25          26.00
      503.16        -999.25          1.451        -999.25        -999.25        50.3043        59.0578         1.4993        -999.25        -999.25          26.00
      503.31        -999.25          1.417        -999.25        -999.25        50.2883        57.4396         1.5117        -999.25        -999.25          26.00
      503.46        -999.25         1.4065        -999.25        -999.25        50.2804        58.1049         1.5484        -999.25        -999.25          26.00
      503.61        -999.25         1.4233        -999.25        -999.25        50.2724        57.0086         1.5249        -999.25        -999.25          26.00
      503.77        -999.25         1.4121        -999.25        -999.25        50.2684        60.2275         1.4329        -999.25        -999.25          26.00
      503.92        -999.25         1.4065        -999.25        -999.25        50.2665        59.0533         1.4855        -999.25        -999.25          26.00
      504.07        -999.25         1.4041        -999.25        -999.25        50.2655        58.9685         1.4526        -999.25        -999.25          26.00
      504.22        -999.25         1.4065        -999.25        -999.25        50.2864        59.2793         1.4698        -999.25        -999.25          26.00
      504.38        -999.25         1.4124        -999.25        -999.25        50.2969        60.3708          1.459        -999.25        -999.25          26.00
      504.53        -999.25         1.3781        -999.25        -999.25        50.3073        58.6522         1.4726        -999.25        -999.25          26.00
      504.68        -999.25         1.4029        -999.25        -999.25        50.3126        59.7685         1.4942        -999.25        -999.25          26.00
      504.83        -999.25         1.4133        -999.25        -999.25        50.3336        59.2061         1.5117        -999.25        -999.25          26.00
      504.99        -999.25         1.4099        -999.25        -999.25        50.3442        60.0037         1.4449        -999.25        -999.25          26.00
      505.14        -999.25          1.417        -999.25        -999.25         50.366         60.324         1.4617        -999.25        -999.25          26.00
      505.29        -999.25         1.4372        -999.25        -999.25         50.377        60.3265         1.5074        -999.25        -999.25          26.00
      505.44        -999.25         1.4334        -999.25        -999.25        50.3024        57.9961         1.5541        -999.25        -999.25          26.00
      505.60        -999.25         1.4189        -999.25        -999.25        50.2652        60.0204          1.449        -999.25        -999.25          26.00
      505.75        -999.25         1.4218        -999.25        -999.25        50.2757        61.7138         1.4464        -999.25        -999.25          26.00
      505.90        -999.25         1.4478        -999.25        -999.25        50.2849        60.7968          1.519        -999.25        -999.25          26.00
      506.05        -999.25         1.4578        -999.25        -999.25        50.2888        61.1642         1.5109        -999.25        -999.25          26.00
      506.21        -999.25         1.4404        -999.25        -999.25        50.2886        58.1607         1.5181        -999.25        -999.25          26.00
      506.36        -999.25         1.4478        -999.25        -999.25        50.2845        57.0447         1.5709        -999.25        -999.25          26.00
      506.51        -999.25         1.4712        -999.25        -999.25        50.2725        58.2679         1.5857        -999.25        -999.25          26.00
      506.66        -999.25         1.4811        -999.25        -999.25        50.2646        62.5535         1.5913        -999.25        -999.25          26.00
      506.81        -999.25         1.4817        -999.25        -999.25        50.2543        58.1246         1.5424        -999.25        -999.25          26.00
      506.97        -999.25         1.5072        -999.25        -999.25        50.2519        59.8677         1.5394        -999.25        -999.25          26.00
      507.12        -999.25         1.5093        -999.25        -999.25          50.26        60.1268         1.5505        -999.25        -999.25          26.00
      507.27        -999.25         1.4998        -999.25        -999.25        50.2705        50.4461         1.5126        -999.25        -999.25          26.00
      507.42        -999.25         1.4494        -999.25        -999.25        50.2915         26.733         1.4645        -999.25        -999.25          26.00
      507.58        -999.25         1.4484        -999.25        -999.25        50.3021        22.4704         1.4092        -999.25        -999.25          26.00
      507.73        -999.25         1.4771        -999.25        -999.25        50.2705         18.613         1.4606        -999.25        -999.25          26.00
      507.88        -999.25         1.4918        -999.25        -999.25        50.2285         19.988         1.4775        -999.25        -999.25          26.00
      508.03        -999.25         1.4824        -999.25        -999.25        50.1969        22.4261         1.5193        -999.25        -999.25          26.00
      508.19        -999.25         1.5068        -999.25        -999.25        50.2074        25.3948         1.5214        -999.25        -999.25          26.00
      508.34        -999.25         1.4964        -999.25        -999.25        50.2284        24.7914         1.6023        -999.25        -999.25          26.00
      508.49        -999.25         1.4784        -999.25        -999.25        50.2389         23.939         1.4956        -999.25        -999.25          26.00
      508.64        -999.25         1.4778        -999.25        -999.25        50.2599        22.3856         1.5678        -999.25        -999.25          26.00
      508.80        -999.25         1.5005        -999.25        -999.25        50.2704        21.5875         1.5499        -999.25        -999.25          26.00
      508.95        -999.25         1.5025        -999.25        -999.25        50.2811        21.3542         1.5129        -999.25        -999.25          26.00
      509.10        -999.25         1.4975        -999.25        -999.25        50.2816        23.2675         1.5481        -999.25        -999.25          26.00
      509.25        -999.25         1.4877        -999.25        -999.25        50.2773        24.1411         1.5496        -999.25        -999.25          26.00
      509.41        -999.25         1.5293        -999.25        -999.25        50.2687        23.7072          1.722        -999.25        -999.25          26.00
      509.56        -999.25         1.5369        -999.25        -999.25        50.2647        23.8583          1.899        -999.25        -999.25          26.00
      509.71        -999.25         1.5276        -999.25        -999.25        50.2566        29.5072         1.9408        -999.25        -999.25          26.00
      509.86        -999.25         1.5107        -999.25        -999.25        50.2581        34.2034         1.8057        -999.25        -999.25          26.00
      510.02        -999.25         1.4548        -999.25        -999.25        50.2609        50.2481         1.5363        -999.25        -999.25          26.00
      510.17        -999.25         1.4158        -999.25        -999.25        50.2624        54.5204         1.4018        -999.25        -999.25          26.00
