#=========================================================================
#       www.Minnelusa.com                   email: info@Minnelusa.com
#       Minnelusa Digital Well Log Data
#=========================================================================
~Version Information
 VERS.   2.0                      :CWLS log ASCII Standard - Version 2.0
 WRAP.   NO                       :One Line per Depth Step
 CREA.   02-08-2006               :LAS File Creation Date (MM-DD-YYYY)
~WELL Information Block
#MNEM   .UNIT              Data                 Description of
#----   -----  ------------------------------   -----------------
 STRT   .F                         10180.0000  :START DEPTH
 STOP   .F                         10414.0000  :STOP DEPTH
 STEP   .F                             1.0000  :STEP
 NULL   .                             -999.25  :NULL VALUE
 COMP   .      Cramer Oil                      :COMPANY
 WELL   .      #36-16 State                    :WELL
 LOC    .      SE SE 36-47N-71W                :LOCATION
 CNTY   .      Campbell                        :COUNTY
 FLD    .                                      :FIELD
 STAT   .      Wyoming                         :STATE
 CTRY   .      U.S.A.                          :COUNTRY
 DATE   .      11/91                           :COMPLETION DATE (MM/YY)
 API    .      49-005-30258-0000               :API NUMBER
 SRVC   .                                      :SERVICE COMPANY
~Curve Information Block
#MNEM   .UNIT                                   Curve Description
#----   -----                                   ---------------------
 DEPT   .F                                     :1 DEPTH
 DT     .US/F                                  :2 SONIC DELTA-T
 RESD   .OHMM                                  :3 DEEP RESISTIVITY
 SP     .MV                                    :4 SP CURVE
 GR     .GAPI                                  :5 GAMMA RAY
~Parameter Information Block
#MNEM   .UNIT                   Value           Information
#----   -----  ------------------------------   --------------------------
 BHT    .DEGF                        194.0000  :BOTTOM HOLE TEMPERATURE
 RMF    .OHMM                          0.4410  :MUD FILTRATE RESISTIVITY
 RMFT   .DEGF                         68.0000  :MEASURE TEMPERATURE OF RMF
 EKB    .F                          4642.0000  :ELEVATION KELLY BUSHING
 SECT   .                                  36  :SECTION
 TOWN   .                                 47N  :TOWNSHIP
 RANG   .                                 71W  :RANGE
~A  Depth     Delta-T     Resist.          SP          GR
# ...
 10314.0000     55.7000     69.0000     85.4000     17.0000
 10315.0000     61.2000     47.0000     87.6000     16.0000
 10316.0000     66.5000     31.0000     89.8000     16.0000
 10317.0000     68.9000     21.0000     91.4000     18.0000
 10318.0000     69.6000     17.5000     93.4000     19.0000
 10319.0000     69.6000     16.1000     94.2000     19.0000
 10320.0000     69.1000     16.1000     95.1000     16.0000
 10321.0000     68.0000     16.1000     95.5000     18.0000
 10322.0000     66.9000     17.5000     95.5000     19.0000
 10323.0000     66.7000     18.0000     95.5000     17.0000
 10324.0000     66.6000     18.3000     95.5000     17.0000
 10325.0000     66.0000     18.3000     95.7000     17.0000
 10326.0000     65.0000     18.3000     96.5000     17.0000
 10327.0000     64.4000     18.3000     96.7000     17.0000
 10328.0000     64.0000     18.2000     96.9000     18.0000
 10329.0000     64.6000     17.4000     97.1000     22.0000
 10330.0000     64.7000     16.3000     97.1000     22.0000
 10331.0000     64.4000     15.4000     96.7000     21.0000
 10332.0000     64.4000     14.0000     95.9000     17.0000
 10333.0000     65.5000     12.7000     95.1000     14.0000
 10334.0000     67.4000     11.0000     94.8000     13.0000
 10335.0000     69.3000      9.0000     94.8000     18.0000
 10336.0000     70.9000      7.5000     94.8000     19.0000
 10337.0000     72.4000      6.7000     94.8000     20.0000
 10338.0000     73.3000      6.1000     95.5000     20.0000
 10339.0000     73.7000      5.7000     96.3000     18.0000
 10340.0000     73.8000      5.6000     97.1000     17.0000
 10341.0000     73.4000      5.3000     98.1000     17.0000
 10342.0000     73.4000      5.0000     99.1000     16.0000
 10343.0000     74.4000      4.5000     99.5000     14.0000
 10344.0000     75.4000      4.0000     99.9000     15.0000
 10345.0000     75.2000      3.5000    100.1000     19.0000
 10346.0000     72.6000      3.2000    100.1000     24.0000
 10347.0000     71.6000      2.8000    100.1000     24.0000
 10348.0000     72.0000      2.5000     99.9000     19.0000
 10349.0000     74.3000      2.2000     99.9000     22.0000
 10350.0000     74.6000      1.9400    100.1000     24.0000
 10351.0000     74.7000      1.7200    101.9000     22.0000
 10352.0000     72.3000      1.5900    102.1000     20.0000
 10353.0000     71.9000      1.5000    103.9000     17.0000
 10354.0000     75.5000      1.4300    104.9000     16.0000
 10355.0000     77.6000      1.3700    105.7000     16.0000
 10356.0000     78.3000      1.3400    106.1000     16.0000
 10357.0000     75.8000      1.3400    106.3000     16.0000
 10358.0000     73.8000      1.3800    106.5000     17.0000
 10359.0000     71.6000      1.5900    106.5000     17.0000
 10360.0000     69.3000      2.0000    106.5000     18.0000
 10361.0000     67.1000      2.9000    106.5000     30.0000
 10362.0000     65.0000      3.3000    106.5000     36.0000
 10363.0000     64.0000      3.8000    105.9000     34.0000
 10364.0000     63.8000      4.5000    105.3000     33.0000
 10365.0000     63.9000      5.0000    104.7000     36.0000
 10366.0000     65.1000      5.3000    104.7000     37.0000
 10367.0000     65.5000      5.5000    104.5000     30.0000
 10368.0000     64.3000      5.6000    104.5000     24.0000
 10369.0000     64.4000      5.6000    104.5000     25.0000
 10370.0000     66.0000      5.7000    104.5000     29.0000
 10371.0000     66.0000      5.7000    104.7000     32.0000
 10372.0000     64.6000      5.7000    105.9000     33.0000
 10373.0000     64.9000      5.7000    106.9000     32.0000
 10374.0000     65.0000      5.8000    109.1000     32.0000
 10375.0000     62.6000      6.3000    109.7000     27.0000
 10376.0000     60.4000      7.2000    108.7000     22.0000
 10377.0000     59.3000      8.1000    107.9000     19.0000
 10378.0000     59.3000      8.3000    107.3000     21.0000
 10379.0000     62.6000      8.3000    106.9000     27.0000
 10380.0000     63.6000      8.1000    106.7000     27.0000
 10381.0000     61.5000      8.0000    106.7000     27.0000
 10382.0000     61.7000      8.8000    106.5000     27.0000
 10383.0000     62.3000     10.0000    105.9000     30.0000
 10384.0000     61.9000     10.1000    105.1000     34.0000
 10385.0000     62.3000      9.2000    102.7000     38.0000
 10386.0000     63.2000      8.6000     87.6000     38.0000
 10387.0000     63.5000      8.5000     78.8000     40.0000
 10388.0000     63.5000      9.4000     76.5000     38.0000
 10389.0000     62.7000     11.4000     76.5000     33.0000
 10390.0000     60.0000     14.8000     76.5000     27.0000
 10391.0000     57.0000     19.0000     76.5000     27.0000
 10392.0000     54.0000     40.0000     76.5000     27.0000
 10393.0000     49.1000     89.0000     76.5000     23.0000
 10394.0000     47.2000    134.0000     75.5000     22.0000
 10395.0000     46.7000    220.0000     74.1000     25.0000
 10396.0000     47.1000    193.0000     72.1000     31.0000
 10397.0000     47.6000    122.0000     70.5000     33.0000
 10398.0000     48.8000     96.0000     68.9000     35.0000
 10399.0000     49.8000     81.0000     67.5000      5.0000
 10400.0000     50.8000     75.0000     66.7000      0.0000
 10401.0000     51.1000     75.0000     65.7000      0.0000
 10402.0000     50.2000     97.0000     65.1000      0.0000
 10403.0000     49.0000    167.0000     64.1000      0.0000
 10404.0000     48.4000    315.0000     63.3000      0.0000
 10405.0000     50.6000   1693.0000     63.1000      0.0000
 10406.0000     50.7000   1874.0000     62.7000      0.0000
 10407.0000     50.4000   1874.0000     62.5000      0.0000
 10408.0000     49.9000   1874.0000     62.5000      0.0000
 10409.0000     49.7000    591.0000     62.5000      0.0000
 10410.0000     49.6000    208.0000     62.5000      0.0000
 10411.0000     51.5000    134.0000     62.5000      0.0000
 10412.0000     52.5000    116.0000     62.9000      0.0000
 10413.0000     53.2000    113.0000     64.3000      0.0000
 10414.0000     54.1000    156.0000     65.9000      0.0000
