~Version Information Block
VERS .                 2.00:  CWLS LOG ASCII STANDARD - VERSION 2.00
WRAP .                   NO:  One line per depth step
~Well Information Block
#MNEM.UNIT        Data Type   Information
#---------- ----------------  -----------
STRT .M           239.72520:  START DEPTH
STOP .M          1083.56400:  STOP DEPTH
STEP .M             0.15240:  STEP
NULL .              -999.25:  NULL VALUE
COMP .                     :  COMPANY
WELL .           TEST_SAMAP:  WELL
FLD  .                     :  FIELD
LOC  .                     :  LOCATION
CTRY .                     :  COUNTRY
STAT .               Norway:  STATE
CNTY .                     :  COUNTY
SRVC .                     :  SERVICE COMPANY
DATE .                     :  DATE
API  .                     :  API NUMBER
UWI  .                     :  UNIQUE WELL ID
LATI .     058 26' 29.869" N    DMS:  LATITUDE
LONG .     001 53' 14.858" E    DMS:  LONGITUDE
~Curve Information Block
#MNEM.UNIT         API CODE   Curve Description
#---------- ----------------  -----------------
DEPTH.M                    :  
A28H .OHMM                0:  
A34H .OHMM                0:  
A40H .OHMM                0:  
GRA  .GAPI                0:  
GRM1 .GAPI                0:  
P16H .OHMM                0:  
P16L .OHMM                0:  
P22H .OHMM                0:  
P22L .OHMM                0:  
P28H .OHMM                0:  
P28L .OHMM                0:  
P34H .OHMM                0:  
P34L .OHMM                0:  
P40H .OHMM                0:  
P40L .OHMM                0:  
ROP5 .M/HR                0:  
SHK1 .1/S                 0:  
TABA .S                   0:  
~Parameter Information Block
#MNEM.UNIT            Value   Description
#---------- ----------------  -----------
APD  .M             1394.46:  Above Perm. Datum
CN   .              Statoil:  Company
COUN .      Maersk Inspirer:  County or Rig name
EDF  .M                54.9:  Elevation DF (wrt EPD)
EGL  .M                 -91:  Elevation GL (wrt EPD)
ELZ  .M                54.9:  Elev. Log Zero (wrt EPD)
EPD  .M                   0:  Elevation Perm. Datum
FL   .     Norwegian North Sea:  Field Location
FN   .                Volve:  Field
LMF  .                   DF:  Log measured from
MP   .                   DF:  Drill measured from
PD   .       Mean Sea Level:  Perm. Datum
R1   .     PETROPHYSICAL COMPOSITE DATA INC.::  Remarks
R2   .     MWD POWERPULSE, RUN 6:  Remarks
R3   .       MWD ARC, RUN 7:  Remarks
TAPE_NAME.     WLC_PETROPHYSICAL_COMPOSITE_1.LIS:  
TOOL_STRING.                 EDIT:  
WN   .             15/9-F-7:  Well Name
PROJECT.     SLEIPNER_OST@st-vlinapp01:  
SET  .     WLC_PETROPHYSICAL_COMPOSITE:  
~Other Information Block
# 
~A       DEPTH           A28H           A34H           A40H            GRA           GRM1           P16H           P16L           P22H           P22L           P28H           P28L           P34H           P34L           P40H           P40L           ROP5           SHK1           TABA 
# ...
     991.05720         0.8296         0.8212         0.8047        42.4267      -999.2500         0.7361         0.7823         0.7731         0.8078         0.7960         0.8222         0.8049         0.8242         0.8170         0.8246        32.2721         0.0000       680.0000
     991.20960         0.8344         0.8173         0.8012        39.8490      -999.2500         0.7441         0.7869         0.7760         0.8130         0.7988         0.8281         0.8144         0.8270         0.8349         0.8207        32.4465         0.0000       680.0000
     991.36200         0.8312         0.8169         0.7926        38.6597      -999.2500         0.7636         0.7940         0.7921         0.8175         0.8100         0.8304         0.8184         0.8308         0.8301         0.8288        32.3368         0.0000       680.0000
     991.51440         0.8267         0.8338         0.8413        39.1245      -999.2500         0.7559         0.7926         0.7860         0.8218         0.8075         0.8362         0.8177         0.8334         0.8269         0.8278        32.2739         0.0000       670.0000
     991.66680         0.8300         0.8441         0.8465        39.9757      -999.2500         0.7652         0.8042         0.7946         0.8239         0.8135         0.8346         0.8208         0.8329         0.8290         0.8275        32.2391         0.0000       670.0000
     991.81920         0.8470         0.8494         0.8372        39.3117      -999.2500         0.7506         0.7945         0.7753         0.8150         0.7922         0.8271         0.8030         0.8300         0.8173         0.8314        31.9136         0.0000       680.0000
     991.97160         0.8349         0.8489         0.8499        38.0983      -999.2500         0.7441         0.7949         0.7753         0.8153         0.7954         0.8262         0.8028         0.8282         0.8108         0.8300        31.8982         0.0000       670.0000
     992.12400         0.8393         0.8267         0.8083        37.5912      -999.2500         0.7486         0.7900         0.7770         0.8135         0.7979         0.8287         0.8086         0.8320         0.8183         0.8312        31.8982         0.0000       670.0000
     992.27640         0.8035         0.8145         0.8344        36.8487      -999.2500         0.7308         0.7879         0.7664         0.8124         0.7954         0.8254         0.8071         0.8238         0.8108         0.8190        31.8982         0.0000       670.0000
     992.42880         0.8297         0.8286         0.8104        36.1605      -999.2500         0.7387         0.7783         0.7698         0.8059         0.7860         0.8210         0.7899         0.8183         0.7987         0.8105        31.8982         0.0000       670.0000
     992.58120         0.8326         0.8330         0.8323        35.6836      -999.2500         0.7335         0.7815         0.7653         0.8101         0.7884         0.8247         0.8005         0.8224         0.8125         0.8171        31.8982         0.0000       670.0000
     992.73360         0.8133         0.8283         0.8318        35.8828      -999.2500         0.7418         0.7888         0.7733         0.8121         0.7950         0.8226         0.8062         0.8208         0.8191         0.8190        31.8982         0.0000       660.0000
     992.88600         0.8191         0.8265         0.8412        37.3497      -999.2500         0.7362         0.7875         0.7703         0.8161         0.7952         0.8295         0.8084         0.8274         0.8217         0.8245        32.2094         0.0000       660.0000
     993.03840         0.8164         0.8281         0.8411        38.0319      -999.2500         0.7588         0.7927         0.7895         0.8197         0.8140         0.8334         0.8239         0.8323         0.8271         0.8294        32.3360         0.0000       650.0000
     993.19080         0.8140         0.8262         0.8325        37.3618      -999.2500         0.7548         0.7947         0.7854         0.8175         0.8102         0.8313         0.8234         0.8326         0.8328         0.8302        32.4650         0.0000       640.0000
     993.34320         0.8307         0.8212         0.8088        35.6473      -999.2500         0.7556         0.7916         0.7792         0.8137         0.7972         0.8266         0.8116         0.8270         0.8294         0.8236        32.5074         0.0000       650.0000
     993.49560         0.8296         0.8139         0.7950        34.1381      -999.2500         0.7648         0.7948         0.7909         0.8159         0.8088         0.8297         0.8187         0.8327         0.8302         0.8321        32.5497         0.0000       640.0000
     993.64800         0.8265         0.8153         0.8069        34.6271      -999.2500         0.7621         0.7939         0.7838         0.8147         0.8036         0.8273         0.8175         0.8285         0.8286         0.8261        26.4333         0.0000       570.0000
     993.80040         0.8397         0.8338         0.8210        36.6012      -999.2500         0.6978         0.7592         0.7233         0.7878         0.7445         0.8068         0.7588         0.8105         0.7721         0.8085        23.4857         0.0000       560.0000
     993.95280         0.8044         0.8203         0.8324        39.0461      -999.2500         0.7359         0.7845         0.7754         0.8113         0.8037         0.8278         0.8151         0.8283         0.8241         0.8231        23.7925         0.0000       570.0000
     994.10520         0.8193         0.8266         0.8171        39.7161      -999.2500         0.7537         0.7960         0.7889         0.8149         0.8165         0.8291         0.8311         0.8360         0.8430         0.8396        23.8828         0.0000       560.0000
     994.25760         0.8367         0.8357         0.8184        39.2513      -999.2500         0.7560         0.7905         0.7906         0.8165         0.8114         0.8313         0.8162         0.8313         0.8215         0.8274        23.9577         0.0000       550.0000
     994.41000         0.8364         0.8411         0.8298        38.7503      -999.2500         0.7562         0.7929         0.7848         0.8151         0.8023         0.8279         0.8092         0.8285         0.8187         0.8259        23.8543         0.0000       560.0000
     994.56240         0.8316         0.8319         0.8238        39.8067      -999.2500         0.7301         0.7886         0.7580         0.8063         0.7789         0.8195         0.7933         0.8246         0.8102         0.8257        23.8098         0.0000       550.0000
     994.71480         0.8389         0.8304         0.8132        40.6881      -999.2500         0.7254         0.7752         0.7509         0.8011         0.7693         0.8169         0.7851         0.8187         0.8078         0.8165        23.7500         0.0000       540.0000
     994.86720         0.8373         0.8235         0.8103        39.8972      -999.2500         0.7294         0.7806         0.7584         0.8086         0.7814         0.8251         0.7947         0.8274         0.8059         0.8269        23.8326         0.0000       540.0000
     995.01960         0.8167         0.8272         0.8377        37.7180      -999.2500         0.7422         0.7871         0.7781         0.8132         0.8055         0.8255         0.8175         0.8220         0.8253         0.8165        23.8541         0.0000       540.0000
     995.17200         0.8149         0.8313         0.8364        37.2954      -999.2500         0.7486         0.7893         0.7827         0.8162         0.8064         0.8287         0.8166         0.8246         0.8259         0.8181        24.6763         0.0000       530.0000
     995.32440         0.8130         0.8261         0.8230        37.7783      -999.2500         0.7388         0.7853         0.7718         0.8073         0.7944         0.8201         0.8039         0.8215         0.8131         0.8201        33.1415         0.0000       530.0000
