~Version Information Block
VERS .                 2.00:  CWLS LOG ASCII STANDARD - VERSION 2.00
WRAP .                   NO:  One line per depth step
~Well Information Block
#MNEM.UNIT        Data Type   Information
#---------- ----------------  -----------
STRT .M           239.72520:  START DEPTH
STOP .M          1083.56400:  STOP DEPTH
STEP .M             0.15240:  STEP
NULL .              -999.25:  NULL VALUE
COMP .                     :  COMPANY
WELL .           TEST_SAMAP:  WELL
FLD  .                     :  FIELD
LOC  .                     :  LOCATION
CTRY .                     :  COUNTRY
STAT .               Norway:  STATE
CNTY .                     :  COUNTY
SRVC .                     :  SERVICE COMPANY
DATE .                     :  DATE
API  .                     :  API NUMBER
UWI  .                     :  UNIQUE WELL ID
LATI .     058 26' 29.869" N    DMS:  LATITUDE
LONG .     001 53' 14.858" E    DMS:  LONGITUDE
~Curve Information Block
#MNEM.UNIT         API CODE   Curve Description
#---------- ----------------  -----------------
DEPTH.M                    :  
A28H .OHMM                0:  
A34H .OHMM                0:  
A40H .OHMM                0:  
GRA  .GAPI                0:  
GRM1 .GAPI                0:  
P16H .OHMM                0:  
P16L .OHMM                0:  
P22H .OHMM                0:  
P22L .OHMM                0:  
P28H .OHMM                0:  
P28L .OHMM                0:  
P34H .OHMM                0:  
P34L .OHMM                0:  
P40H .OHMM                0:  
P40L .OHMM                0:  
ROP5 .M/HR                0:  
SHK1 .1/S                 0:  
TABA .S                   0:  
~Parameter Information Block
#MNEM.UNIT            Value   Description
#---------- ----------------  -----------
APD  .M             1394.46:  Above Perm. Datum
CN   .              Statoil:  Company
COUN .      Maersk Inspirer:  County or Rig name
EDF  .M                54.9:  Elevation DF (wrt EPD)
EGL  .M                 -91:  Elevation GL (wrt EPD)
ELZ  .M                54.9:  Elev. Log Zero (wrt EPD)
EPD  .M                   0:  Elevation Perm. Datum
FL   .     Norwegian North Sea:  Field Location
FN   .                Volve:  Field
LMF  .                   DF:  Log measured from
MP   .                   DF:  Drill measured from
PD   .       Mean Sea Level:  Perm. Datum
R1   .     PETROPHYSICAL COMPOSITE DATA INC.::  Remarks
R2   .     MWD POWERPULSE, RUN 6:  Remarks
R3   .       MWD ARC, RUN 7:  Remarks
TAPE_NAME.     WLC_PETROPHYSICAL_COMPOSITE_1.LIS:  
TOOL_STRING.                 EDIT:  
WN   .             15/9-F-7:  Well Name
PROJECT.     SLEIPNER_OST@st-vlinapp01:  
SET  .     WLC_PETROPHYSICAL_COMPOSITE:  
~Other Information Block
# 
~A       DEPTH           A28H           A34H           A40H            GRA           GRM1           P16H           P16L           P22H           P22L           P28H           P28L           P34H           P34L           P40H           P40L           ROP5           SHK1           TABA 
# ...
    1039.67280         0.7614         0.7781         0.7851        34.8022      -999.2500         0.6449         0.7070         0.6916         0.7379         0.7291         0.7605         0.7458         0.7695         0.7543         0.7731        21.5149         0.0000       760.0000
    1039.82520         0.7560         0.7644         0.7665        34.5003      -999.2500         0.6314         0.6982         0.6816         0.7352         0.7205         0.7597         0.7387         0.7662         0.7521         0.7679        21.5149         0.0000       760.0000
    1039.97760         0.7496         0.7528         0.7486        35.5870      -999.2500         0.6051         0.6853         0.6611         0.7255         0.7084         0.7513         0.7309         0.7563         0.7442         0.7549        21.5243         0.0000       750.0000
    1040.13000         0.7630         0.7813         0.7797        35.4179      -999.2500         0.5983         0.6776         0.6521         0.7170         0.6926         0.7434         0.7106         0.7515         0.7265         0.7544        21.7030         0.0000       750.0000
    1040.28240         0.7501         0.7598         0.7608        34.6513      -999.2500         0.6003         0.6765         0.6540         0.7181         0.6964         0.7468         0.7172         0.7543         0.7346         0.7537        21.9246         0.8000       750.0000
    1040.43480         0.7414         0.7540         0.7565        36.1484      -999.2500         0.6088         0.6822         0.6654         0.7200         0.7094         0.7463         0.7288         0.7524         0.7433         0.7500        21.9950         0.0000       740.0000
    1040.58720         0.7445         0.7612         0.7635        38.6899      -999.2500         0.6024         0.6752         0.6585         0.7139         0.7029         0.7417         0.7237         0.7522         0.7403         0.7557        22.3183         0.0000       740.0000
    1040.73960         0.7345         0.7462         0.7482        40.1810      -999.2500         0.5971         0.6706         0.6529         0.7098         0.6994         0.7358         0.7228         0.7471         0.7398         0.7567        22.4010         0.0000       730.0000
    1040.89200         0.7395         0.7516         0.7526        37.6395      -999.2500         0.5971         0.6648         0.6504         0.7103         0.6907         0.7359         0.7114         0.7387         0.7332         0.7388        22.5788         0.0000       730.0000
    1041.04440         0.7276         0.7454         0.7545        36.7883      -999.2500         0.5858         0.6677         0.6433         0.7077         0.6827         0.7303         0.6988         0.7347         0.7178         0.7378        22.6718         0.0000       720.0000
    1041.19680         0.7332         0.7438         0.7469        37.6395      -999.2500         0.5745         0.6569         0.6273         0.7010         0.6642         0.7261         0.6794         0.7300         0.6959         0.7317        22.7288         0.0000       720.0000
    1041.34920         0.7670         0.7796         0.7809        42.6259      -999.2500         0.5452         0.6490         0.6046         0.6982         0.6425         0.7279         0.6560         0.7354         0.6766         0.7407        23.0081         0.0000       790.0000
    1041.50160         0.7875         0.7825         0.7758        45.4873      -999.2500         0.6369         0.7066         0.7072         0.7524         0.7495         0.7763         0.7661         0.7798         0.7952         0.7859        23.0013         0.0000       780.0000
    1041.65400         0.7606         0.7579         0.7575        46.1755      -999.2500         0.7275         0.7510         0.7804         0.7830         0.8170         0.7983         0.8273         0.7975         0.8330         0.7974        22.6331         0.0000       800.0000
    1041.80640         0.7825         0.7906         0.7881        43.1571      -999.2500         0.6466         0.7136         0.6920         0.7475         0.7198         0.7663         0.7291         0.7677         0.7414         0.7671        22.5782         0.0000       800.0000
    1041.95880         0.7720         0.7801         0.7795        42.5957      -999.2500         0.6622         0.7219         0.6893         0.7462         0.7088         0.7598         0.7242         0.7650         0.7455         0.7726        22.6140         0.0000       810.0000
    1042.11120         0.7546         0.7644         0.7711        41.7566      -999.2500         0.6993         0.7438         0.7358         0.7631         0.7594         0.7731         0.7655         0.7770         0.7701         0.7838        22.9543         0.0000       820.0000
    1042.26360         0.7735         0.7800         0.7801        42.6078      -999.2500         0.7012         0.7405         0.7418         0.7601         0.7663         0.7742         0.7712         0.7797         0.7764         0.7819        24.0067         0.0000       840.0000
    1042.41600         0.7637         0.7644         0.7579        38.1767      -999.2500         0.6804         0.7249         0.7123         0.7462         0.7327         0.7602         0.7426         0.7631         0.7560         0.7619        24.5047         0.0000       850.0000
    1042.56840         0.7561         0.7597         0.7523        35.2127      -999.2500         0.6687         0.7108         0.6936         0.7357         0.7105         0.7510         0.7228         0.7535         0.7400         0.7528        25.0776         0.0000       860.0000
    1042.72080         0.7469         0.7491         0.7498        32.2909      -999.2500         0.6715         0.7111         0.6928         0.7354         0.7118         0.7468         0.7274         0.7462         0.7431         0.7461        25.5402         0.0000       870.0000
    1042.87320         0.7378         0.7417         0.7387        34.6694      -999.2500         0.6737         0.7122         0.7013         0.7353         0.7227         0.7477         0.7336         0.7471         0.7411         0.7442        26.0053         0.0000       880.0000
    1043.02560         0.7504         0.7556         0.7525        35.2066      -999.2500         0.6527         0.7080         0.6887         0.7299         0.7148         0.7423         0.7240         0.7450         0.7284         0.7472        26.6289         0.0000       890.0000
    1043.17800         0.7448         0.7536         0.7531        37.3014      -999.2500         0.6614         0.7028         0.6945         0.7291         0.7160         0.7424         0.7199         0.7410         0.7198         0.7374        27.3847         0.0000       900.0000
    1043.33040         0.7496         0.7504         0.7425        36.4563      -999.2500         0.6498         0.7055         0.6880         0.7286         0.7151         0.7430         0.7236         0.7457         0.7272         0.7449        29.0781         0.0000       920.0000
    1043.48280         0.7401         0.7469         0.7506        37.4523      -999.2500         0.6588         0.7055         0.6985         0.7303         0.7229         0.7446         0.7294         0.7433         0.7359         0.7367        29.3098         0.0000       930.0000
    1043.63520         0.7457         0.7555         0.7598        39.2030      -999.2500         0.6686         0.7081         0.6980         0.7321         0.7180         0.7451         0.7301         0.7450         0.7456         0.7423        29.3410         0.0000       940.0000
    1043.78760         0.7475         0.7467         0.7431        36.8969      -999.2500         0.6574         0.7063         0.6885         0.7310         0.7130         0.7437         0.7279         0.7417         0.7419         0.7370        29.4181         0.0000       940.0000
    1043.94000         0.7372         0.7434         0.7418        35.9733      -999.2500         0.6610         0.7031         0.6882         0.7262         0.7113         0.7403         0.7267         0.7416         0.7402         0.7389        29.5483         0.0000       950.0000
