~Version Information Block
VERS .                 2.00:  CWLS LOG ASCII STANDARD - VERSION 2.00
WRAP .                   NO:  One line per depth step
~Well Information Block
#MNEM.UNIT        Data Type   Information
#---------- ----------------  -----------
STRT .M           239.72520:  START DEPTH
STOP .M          1083.56400:  STOP DEPTH
STEP .M             0.15240:  STEP
NULL .              -999.25:  NULL VALUE
COMP .                     :  COMPANY
WELL .           TEST_SAMAP:  WELL
FLD  .                     :  FIELD
LOC  .                     :  LOCATION
CTRY .                     :  COUNTRY
STAT .               Norway:  STATE
CNTY .                     :  COUNTY
SRVC .                     :  SERVICE COMPANY
DATE .                     :  DATE
API  .                     :  API NUMBER
UWI  .                     :  UNIQUE WELL ID
LATI .     058 26' 29.869" N    DMS:  LATITUDE
LONG .     001 53' 14.858" E    DMS:  LONGITUDE
~Curve Information Block
#MNEM.UNIT         API CODE   Curve Description
#---------- ----------------  -----------------
DEPTH.M                    :  
A28H .OHMM                0:  
A34H .OHMM                0:  
A40H .OHMM                0:  
GRA  .GAPI                0:  
GRM1 .GAPI                0:  
P16H .OHMM                0:  
P16L .OHMM                0:  
P22H .OHMM                0:  
P22L .OHMM                0:  
P28H .OHMM                0:  
P28L .OHMM                0:  
P34H .OHMM                0:  
P34L .OHMM                0:  
P40H .OHMM                0:  
P40L .OHMM                0:  
ROP5 .M/HR                0:  
SHK1 .1/S                 0:  
TABA .S                   0:  
~Parameter Information Block
#MNEM.UNIT            Value   Description
#---------- ----------------  -----------
APD  .M             1394.46:  Above Perm. Datum
CN   .              Statoil:  Company
COUN .      Maersk Inspirer:  County or Rig name
EDF  .M                54.9:  Elevation DF (wrt EPD)
EGL  .M                 -91:  Elevation GL (wrt EPD)
ELZ  .M                54.9:  Elev. Log Zero (wrt EPD)
EPD  .M                   0:  Elevation Perm. Datum
FL   .     Norwegian North Sea:  Field Location
FN   .                Volve:  Field
LMF  .                   DF:  Log measured from
MP   .                   DF:  Drill measured from
PD   .       Mean Sea Level:  Perm. Datum
R1   .     PETROPHYSICAL COMPOSITE DATA INC.::  Remarks
R2   .     MWD POWERPULSE, RUN 6:  Remarks
R3   .       MWD ARC, RUN 7:  Remarks
TAPE_NAME.     WLC_PETROPHYSICAL_COMPOSITE_1.LIS:  
TOOL_STRING.                 EDIT:  
WN   .             15/9-F-7:  Well Name
PROJECT.     SLEIPNER_OST@st-vlinapp01:  
SET  .     WLC_PETROPHYSICAL_COMPOSITE:  
~Other Information Block
# 
~A       DEPTH           A28H           A34H           A40H            GRA           GRM1           P16H           P16L           P22H           P22L           P28H           P28L           P34H           P34L           P40H           P40L           ROP5           SHK1           TABA 
# ...
    1052.93160         0.7933         0.8018         0.8019        36.6434      -999.2500         0.7379         0.7709         0.7666         0.7950         0.7954         0.8102         0.8133         0.8090         0.8212         0.8003        20.0968         0.0000      1100.0000
    1053.08400         0.7958         0.8061         0.8049        37.4825      -999.2500         0.6828         0.7487         0.7155         0.7720         0.7427         0.7874         0.7563         0.7911         0.7636         0.7908        19.6918         0.0000      1110.0000
    1053.23640         0.7958         0.7995         0.7894        37.3497      -999.2500         0.6555         0.7327         0.6937         0.7557         0.7220         0.7729         0.7359         0.7795         0.7479         0.7812        19.5667         0.0000      1110.0000
    1053.38880         0.7835         0.7885         0.7857        35.1825      -999.2500         0.6611         0.7317         0.7040         0.7575         0.7334         0.7746         0.7425         0.7784         0.7481         0.7773        19.4683         0.0000      1100.0000
    1053.54120         0.7913         0.7937         0.7803        35.5206      -999.2500         0.6689         0.7270         0.7110         0.7607         0.7414         0.7807         0.7590         0.7838         0.7790         0.7837        19.3877         0.0000      1100.0000
    1053.69360         0.7952         0.7953         0.7894        37.8810      -999.2500         0.6828         0.7398         0.7232         0.7719         0.7558         0.7898         0.7774         0.7924         0.7993         0.7937        19.4388         0.0000      1110.0000
    1053.84600         0.7776         0.7878         0.7941        39.5471      -999.2500         0.6847         0.7370         0.7224         0.7678         0.7532         0.7842         0.7722         0.7848         0.7888         0.7841        19.5700         0.0000      1110.0000
    1053.99840         0.7823         0.7849         0.7814        38.6174      -999.2500         0.6649         0.7320         0.7065         0.7619         0.7399         0.7769         0.7600         0.7807         0.7781         0.7885        19.7350         0.0000      1100.0000
    1054.15080         0.7797         0.7881         0.7941        37.4463      -999.2500         0.6524         0.7276         0.6992         0.7564         0.7371         0.7755         0.7576         0.7821         0.7729         0.7858        19.9368         0.0000      1110.0000
    1054.30320         0.7906         0.7993         0.7978        35.2730      -999.2500         0.6679         0.7308         0.7220         0.7642         0.7584         0.7881         0.7693         0.7945         0.7775         0.7928        19.8208         0.0000      1110.0000
    1054.45560         0.7787         0.7841         0.7835        34.1743      -999.2500         0.6923         0.7426         0.7428         0.7743         0.7776         0.7938         0.7917         0.7970         0.8064         0.7959        19.7446         0.0000      1090.0000
    1054.60800         0.7902         0.7943         0.7881        34.0295      -999.2500         0.6908         0.7435         0.7362         0.7746         0.7703         0.7955         0.7881         0.7998         0.8056         0.7979        19.1564         0.0000      1090.0000
    1054.76040         0.8005         0.8019         0.7920        35.6654      -999.2500         0.6465         0.7226         0.6991         0.7597         0.7399         0.7841         0.7614         0.7897         0.7801         0.7896        18.9740         0.0000      3190.0000
    1054.91280         0.8001         0.8108         0.8187        34.8625      -999.2500         0.6301         0.7222         0.6830         0.7573         0.7288         0.7811         0.7542         0.7893         0.7710         0.7933        18.3586         0.0000      3180.0000
    1055.06520         0.7897         0.7965         0.7963        33.4197      -999.2500         0.6385         0.7247         0.6981         0.7635         0.7479         0.7880         0.7736         0.7936         0.7902         0.7953        17.8006         0.0000      3170.0000
    1055.21760         0.7872         0.7951         0.7902        31.1741      -999.2500         0.6546         0.7250         0.7126         0.7640         0.7564         0.7908         0.7776         0.7981         0.7965         0.7984        17.5483         0.0000      3150.0000
    1055.37000         0.7948         0.8087         0.8114        33.7940      -999.2500         0.6291         0.7148         0.6940         0.7556         0.7407         0.7841         0.7573         0.7938         0.7697         0.7977        16.9791         0.0000      3150.0000
    1055.52240         0.7891         0.8030         0.8042        34.8082      -999.2500         0.6391         0.7155         0.6948         0.7588         0.7412         0.7851         0.7677         0.7908         0.7887         0.7938        16.8812         0.0000      3140.0000
    1055.67480         0.7999         0.8025         0.7923        36.1846      -999.2500         0.6369         0.7119         0.6929         0.7561         0.7372         0.7859         0.7643         0.7939         0.7925         0.7955        16.5592         0.0000      3140.0000
    1055.82720         0.7970         0.8062         0.8021        36.0518      -999.2500         0.6316         0.7178         0.6964         0.7575         0.7428         0.7838         0.7605         0.7927         0.7754         0.7979        16.3473         0.0000      3750.0000
    1055.97960         0.7915         0.7966         0.7917        36.8185      -999.2500         0.6392         0.7155         0.6982         0.7580         0.7415         0.7853         0.7653         0.7916         0.7920         0.7927        16.3678         0.0000      3750.0000
    1056.13200         0.7818         0.7930         0.8012        37.3195      -999.2500         0.6460         0.7214         0.7042         0.7630         0.7508         0.7876         0.7756         0.7929         0.7955         0.7966        16.5654         0.0000      3750.0000
    1056.28440         0.7877         0.7945         0.7912        35.5628      -999.2500         0.6416         0.7221         0.7038         0.7634         0.7529         0.7881         0.7788         0.7923         0.8013         0.7932        16.8044         0.0000      3750.0000
    1056.43680         0.7881         0.7983         0.8016        34.2589      -999.2500         0.6364         0.7243         0.6975         0.7630         0.7454         0.7872         0.7672         0.7937         0.7820         0.7975        17.0364         0.0000      3760.0000
    1056.58920         0.7832         0.7890         0.7897        34.5607      -999.2500         0.6519         0.7220         0.7097         0.7627         0.7514         0.7888         0.7686         0.7950         0.7832         0.7968        17.1776         0.0000      3760.0000
    1056.74160         0.7972         0.8072         0.8022        36.8487      -999.2500         0.6510         0.7305         0.7116         0.7671         0.7533         0.7910         0.7687         0.7976         0.7830         0.7999        17.4173         0.0000      3760.0000
    1056.89400         0.8015         0.8063         0.7976        36.8487      -999.2500         0.6605         0.7306         0.7153         0.7684         0.7575         0.7911         0.7805         0.7950         0.8024         0.7957        17.6068         0.0000      3760.0000
    1057.04640         0.7986         0.8027         0.7935        36.2148      -999.2500         0.6614         0.7300         0.7162         0.7691         0.7553         0.7940         0.7743         0.7981         0.7948         0.7961        17.7447         0.0000      3760.0000
    1057.19880         0.7926         0.7997         0.8006        35.9069      -999.2500         0.6598         0.7339         0.7145         0.7715         0.7580         0.7930         0.7790         0.7976         0.7936         0.8018        17.9118         0.0000      3750.0000
