~Version Information Block
VERS .                 2.00:  CWLS LOG ASCII STANDARD - VERSION 2.00
WRAP .                   NO:  One line per depth step
~Well Information Block
#MNEM.UNIT        Data Type   Information
#---------- ----------------  -----------
STRT .M           239.72520:  START DEPTH
STOP .M          1083.56400:  STOP DEPTH
STEP .M             0.15240:  STEP
NULL .              -999.25:  NULL VALUE
COMP .                     :  COMPANY
WELL .           TEST_SAMAP:  WELL
FLD  .                     :  FIELD
LOC  .                     :  LOCATION
CTRY .                     :  COUNTRY
STAT .               Norway:  STATE
CNTY .                     :  COUNTY
SRVC .                     :  SERVICE COMPANY
DATE .                     :  DATE
API  .                     :  API NUMBER
UWI  .                     :  UNIQUE WELL ID
LATI .     058 26' 29.869" N    DMS:  LATITUDE
LONG .     001 53' 14.858" E    DMS:  LONGITUDE
~Curve Information Block
#MNEM.UNIT         API CODE   Curve Description
#---------- ----------------  -----------------
DEPTH.M                    :  
A28H .OHMM                0:  
A34H .OHMM                0:  
A40H .OHMM                0:  
GRA  .GAPI                0:  
GRM1 .GAPI                0:  
P16H .OHMM                0:  
P16L .OHMM                0:  
P22H .OHMM                0:  
P22L .OHMM                0:  
P28H .OHMM                0:  
P28L .OHMM                0:  
P34H .OHMM                0:  
P34L .OHMM                0:  
P40H .OHMM                0:  
P40L .OHMM                0:  
ROP5 .M/HR                0:  
SHK1 .1/S                 0:  
TABA .S                   0:  
~Parameter Information Block
#MNEM.UNIT            Value   Description
#---------- ----------------  -----------
APD  .M             1394.46:  Above Perm. Datum
CN   .              Statoil:  Company
COUN .      Maersk Inspirer:  County or Rig name
EDF  .M                54.9:  Elevation DF (wrt EPD)
EGL  .M                 -91:  Elevation GL (wrt EPD)
ELZ  .M                54.9:  Elev. Log Zero (wrt EPD)
EPD  .M                   0:  Elevation Perm. Datum
FL   .     Norwegian North Sea:  Field Location
FN   .                Volve:  Field
LMF  .                   DF:  Log measured from
MP   .                   DF:  Drill measured from
PD   .       Mean Sea Level:  Perm. Datum
R1   .     PETROPHYSICAL COMPOSITE DATA INC.::  Remarks
R2   .     MWD POWERPULSE, RUN 6:  Remarks
R3   .       MWD ARC, RUN 7:  Remarks
TAPE_NAME.     WLC_PETROPHYSICAL_COMPOSITE_1.LIS:  
TOOL_STRING.                 EDIT:  
WN   .             15/9-F-7:  Well Name
PROJECT.     SLEIPNER_OST@st-vlinapp01:  
SET  .     WLC_PETROPHYSICAL_COMPOSITE:  
~Other Information Block
# 
~A       DEPTH           A28H           A34H           A40H            GRA           GRM1           P16H           P16L           P22H           P22L           P28H           P28L           P34H           P34L           P40H           P40L           ROP5           SHK1           TABA 
# ...
    1017.57480         0.7927         0.7894         0.7829        37.1807      -999.2500         0.7168         0.7556         0.7481         0.7821         0.7713         0.7987         0.7861         0.8007         0.8032         0.7980        24.5159         0.0000      2600.0000
    1017.72720         0.8074         0.8113         0.8053        36.9513      -999.2500         0.6930         0.7516         0.7288         0.7791         0.7557         0.7945         0.7709         0.7960         0.7861         0.7954        24.9330         0.0000      2600.0000
    1017.87960         0.7979         0.8018         0.7963        38.7925      -999.2500         0.7310         0.7592         0.7555         0.7856         0.7753         0.8014         0.7877         0.8049         0.7989         0.8065        25.4421         0.0000      2600.0000
    1018.03200         0.8049         0.8083         0.8023        38.5208      -999.2500         0.7152         0.7659         0.7466         0.7872         0.7717         0.7998         0.7837         0.8032         0.7910         0.8061        25.8833         0.0000      2590.0000
    1018.18440         0.8164         0.8201         0.8186        38.3035      -999.2500         0.7007         0.7605         0.7353         0.7866         0.7611         0.8023         0.7743         0.8046         0.7867         0.8039        26.1962         0.0000      2590.0000
    1018.33680         0.8067         0.8104         0.8109        39.3358      -999.2500         0.7100         0.7675         0.7460         0.7933         0.7764         0.8089         0.7922         0.8115         0.8013         0.8112        26.1331         0.0000      2590.0000
    1018.48920         0.8150         0.8219         0.8217        42.6561      -999.2500         0.7069         0.7703         0.7441         0.7922         0.7721         0.8053         0.7841         0.8101         0.7922         0.8152        26.1248         0.0000      2570.0000
    1018.64160         0.8149         0.8203         0.8196        44.7025      -999.2500         0.7067         0.7736         0.7483         0.7977         0.7785         0.8123         0.7892         0.8183         0.7953         0.8251        26.1275         0.0000      2570.0000
    1018.79400         0.8164         0.8206         0.8198        42.8190      -999.2500         0.7251         0.7794         0.7706         0.8057         0.7970         0.8213         0.8006         0.8265         0.8052         0.8320        26.1275         0.0000      2570.0000
    1018.94640         0.8092         0.8126         0.8122        39.8972      -999.2500         0.7531         0.7860         0.7915         0.8126         0.8137         0.8282         0.8172         0.8304         0.8215         0.8300        26.1268         0.0000      2560.0000
    1019.09880         0.8366         0.8411         0.8408        39.9093      -999.2500         0.7446         0.7796         0.7770         0.8135         0.7971         0.8314         0.8078         0.8331         0.8243         0.8344        26.1245         0.0000      2560.0000
    1019.25120         0.8404         0.8394         0.8353        43.3563      -999.2500         0.7530         0.7940         0.7870         0.8277         0.8082         0.8472         0.8193         0.8479         0.8361         0.8437        26.0465         0.0000      2560.0000
    1019.40360         0.8483         0.8466         0.8481        45.6684      -999.2500         0.7665         0.8050         0.7960         0.8354         0.8169         0.8492         0.8309         0.8469         0.8490         0.8450        25.7881         0.0000      2550.0000
    1019.55600         0.8378         0.8399         0.8389        45.4692      -999.2500         0.7861         0.8232         0.8217         0.8492         0.8472         0.8622         0.8606         0.8616         0.8751         0.8599        25.6547         0.0000      2540.0000
    1019.70840         0.8481         0.8521         0.8545        43.8815      -999.2500         0.7817         0.8256         0.8221         0.8488         0.8503         0.8596         0.8613         0.8586         0.8705         0.8573        25.4010         0.0000       640.0000
    1019.86080         0.8422         0.8424         0.8350        42.1490      -999.2500         0.7692         0.8121         0.8094         0.8321         0.8335         0.8438         0.8387         0.8431         0.8446         0.8378        25.4010         0.0000       640.0000
    1020.01320         0.8295         0.8271         0.8209        40.0965      -999.2500         0.7398         0.7845         0.7630         0.8086         0.7811         0.8222         0.7948         0.8231         0.8110         0.8214        29.6432         0.0000       650.0000
    1020.16560         0.8229         0.8223         0.8161        39.1789      -999.2500         0.7282         0.7782         0.7499         0.7997         0.7675         0.8102         0.7814         0.8087         0.7972         0.8057        30.7725         0.0000       640.0000
    1020.31800         0.8006         0.8009         0.7932        39.9093      -999.2500         0.7210         0.7665         0.7451         0.7887         0.7649         0.7993         0.7804         0.7964         0.7972         0.7914        31.1063         0.0000       640.0000
    1020.47040         0.7869         0.7883         0.7854        40.5009      -999.2500         0.7117         0.7546         0.7463         0.7791         0.7737         0.7916         0.7831         0.7913         0.7844         0.7896        31.5154         0.0000       650.0000
    1020.62280         0.7874         0.7882         0.7845        39.7886      -999.2500         0.7155         0.7567         0.7462         0.7789         0.7675         0.7893         0.7783         0.7891         0.7905         0.7897        31.6030         0.0000       650.0000
    1020.77520         0.7912         0.7893         0.7753        38.5148      -999.2500         0.7181         0.7585         0.7499         0.7758         0.7698         0.7861         0.7779         0.7883         0.7891         0.7890        31.6809         0.0000       650.0000
    1020.92760         0.7723         0.7769         0.7782        37.5791      -999.2500         0.7102         0.7486         0.7391         0.7673         0.7548         0.7795         0.7556         0.7825         0.7569         0.7822        31.4916         0.0000       620.0000
    1021.08000         0.7787         0.7847         0.7861        37.2109      -999.2500         0.6788         0.7326         0.7113         0.7562         0.7282         0.7705         0.7323         0.7733         0.7413         0.7734        26.4018         0.0000       630.0000
    1021.23240         0.7843         0.7864         0.7798        36.9633      -999.2500         0.7212         0.7508         0.7491         0.7761         0.7672         0.7899         0.7765         0.7893         0.7891         0.7857        26.7935         0.0000       630.0000
    1021.38480         0.7921         0.7921         0.7856        36.5045      -999.2500         0.7345         0.7580         0.7548         0.7818         0.7704         0.7938         0.7819         0.7915         0.7952         0.7866        27.1601         0.0000       630.0000
    1021.53720         0.7888         0.7901         0.7828        37.3618      -999.2500         0.7203         0.7580         0.7459         0.7807         0.7668         0.7919         0.7810         0.7922         0.7952         0.7927        27.5700         0.0000       640.0000
    1021.68960         0.7911         0.7972         0.7907        37.6516      -999.2500         0.7223         0.7627         0.7496         0.7836         0.7689         0.7930         0.7782         0.7893         0.7875         0.7837        27.5700         0.0000       640.0000
    1021.84200         0.8033         0.8065         0.8024        39.2332      -999.2500         0.7214         0.7660         0.7469         0.7837         0.7663         0.7930         0.7766         0.7947         0.7857         0.7967        27.5700         0.0000       640.0000
