~Version Information Block
VERS .                 2.00:  CWLS LOG ASCII STANDARD - VERSION 2.00
WRAP .                   NO:  One line per depth step
~Well Information Block
#MNEM.UNIT        Data Type   Information
#---------- ----------------  -----------
STRT .M           239.72520:  START DEPTH
STOP .M          1083.56400:  STOP DEPTH
STEP .M             0.15240:  STEP
NULL .              -999.25:  NULL VALUE
COMP .                     :  COMPANY
WELL .           TEST_SAMAP:  WELL
FLD  .                     :  FIELD
LOC  .                     :  LOCATION
CTRY .                     :  COUNTRY
STAT .               Norway:  STATE
CNTY .                     :  COUNTY
SRVC .                     :  SERVICE COMPANY
DATE .                     :  DATE
API  .                     :  API NUMBER
UWI  .                     :  UNIQUE WELL ID
LATI .     058 26' 29.869" N    DMS:  LATITUDE
LONG .     001 53' 14.858" E    DMS:  LONGITUDE
~Curve Information Block
#MNEM.UNIT         API CODE   Curve Description
#---------- ----------------  -----------------
DEPTH.M                    :  
A28H .OHMM                0:  
A34H .OHMM                0:  
A40H .OHMM                0:  
GRA  .GAPI                0:  
GRM1 .GAPI                0:  
P16H .OHMM                0:  
P16L .OHMM                0:  
P22H .OHMM                0:  
P22L .OHMM                0:  
P28H .OHMM                0:  
P28L .OHMM                0:  
P34H .OHMM                0:  
P34L .OHMM                0:  
P40H .OHMM                0:  
P40L .OHMM                0:  
ROP5 .M/HR                0:  
SHK1 .1/S                 0:  
TABA .S                   0:  
~Parameter Information Block
#MNEM.UNIT            Value   Description
#---------- ----------------  -----------
APD  .M             1394.46:  Above Perm. Datum
CN   .              Statoil:  Company
COUN .      Maersk Inspirer:  County or Rig name
EDF  .M                54.9:  Elevation DF (wrt EPD)
EGL  .M                 -91:  Elevation GL (wrt EPD)
ELZ  .M                54.9:  Elev. Log Zero (wrt EPD)
EPD  .M                   0:  Elevation Perm. Datum
FL   .     Norwegian North Sea:  Field Location
FN   .                Volve:  Field
LMF  .                   DF:  Log measured from
MP   .                   DF:  Drill measured from
PD   .       Mean Sea Level:  Perm. Datum
R1   .     PETROPHYSICAL COMPOSITE DATA INC.::  Remarks
R2   .     MWD POWERPULSE, RUN 6:  Remarks
R3   .       MWD ARC, RUN 7:  Remarks
TAPE_NAME.     WLC_PETROPHYSICAL_COMPOSITE_1.LIS:  
TOOL_STRING.                 EDIT:  
WN   .             15/9-F-7:  Well Name
PROJECT.     SLEIPNER_OST@st-vlinapp01:  
SET  .     WLC_PETROPHYSICAL_COMPOSITE:  
~Other Information Block
# 
~A       DEPTH           A28H           A34H           A40H            GRA           GRM1           P16H           P16L           P22H           P22L           P28H           P28L           P34H           P34L           P40H           P40L           ROP5           SHK1           TABA 
# ...
     920.34360         0.8909         0.9035         0.9109        28.3488      -999.2500         0.8329         0.8649         0.8466         0.8823         0.8542         0.8893         0.8603         0.8870         0.8716         0.8850        32.8807         0.0000       370.0000
     920.49600         0.8805         0.8950         0.9044        30.8481      -999.2500         0.8395         0.8632         0.8576         0.8848         0.8674         0.8926         0.8692         0.8884         0.8719         0.8853        33.6588         0.0000       360.0000
     920.64840         0.9007         0.9028         0.8953        31.4035      -999.2500         0.8295         0.8611         0.8395         0.8791         0.8483         0.8883         0.8615         0.8906         0.8811         0.8940        35.1315         0.0000       360.0000
     920.80080         0.9007         0.9028         0.8953        29.5743      -999.2500         0.8295         0.8611         0.8395         0.8791         0.8483         0.8883         0.8615         0.8906         0.8811         0.8940        36.1371         0.0000       350.0000
     920.95320         0.9235         0.9153         0.8968        27.1777      -999.2500         0.8319         0.8604         0.8390         0.8811         0.8450         0.8909         0.8578         0.8907         0.8795         0.8909        37.1364         0.0000       350.0000
     921.10560         0.8993         0.8985         0.8881        25.2097      -999.2500         0.8288         0.8661         0.8474         0.8808         0.8585         0.8895         0.8627         0.8906         0.8682         0.8896        37.3232         0.0000       340.0000
     921.25800         0.8784         0.8809         0.8852        26.3808      -999.2500         0.8190         0.8564         0.8449         0.8740         0.8596         0.8843         0.8607         0.8843         0.8609         0.8809        38.6437         0.0000       340.0000
     921.41040         0.8782         0.8853         0.8914        28.9284      -999.2500         0.8266         0.8557         0.8479         0.8750         0.8601         0.8847         0.8643         0.8835         0.8705         0.8805        40.3613         0.0000       340.0000
     921.56280         0.8797         0.8800         0.8805        32.8342      -999.2500         0.8149         0.8477         0.8354         0.8680         0.8495         0.8801         0.8570         0.8804         0.8656         0.8766        41.9672         0.0000       340.0000
     921.71520         0.8741         0.8735         0.8738        34.0114      -999.2500         0.8047         0.8434         0.8198         0.8652         0.8357         0.8748         0.8510         0.8711         0.8653         0.8656        43.0889         0.0000       340.0000
     921.86760         0.8701         0.8730         0.8763        31.5363      -999.2500         0.8068         0.8480         0.8280         0.8654         0.8456         0.8727         0.8569         0.8703         0.8665         0.8677        43.1993         0.0000       330.0000
     922.02000         0.8717         0.8734         0.8740        28.3549      -999.2500         0.8023         0.8410         0.8236         0.8622         0.8392         0.8700         0.8481         0.8673         0.8572         0.8665        45.8379         0.0000       400.0000
     922.17240         0.8795         0.8796         0.8745        25.2459      -999.2500         0.8176         0.8495         0.8389         0.8704         0.8536         0.8779         0.8612         0.8714         0.8692         0.8638        47.4150         0.0000       400.0000
     922.32480         0.8777         0.8746         0.8735        24.6966      -999.2500         0.8236         0.8537         0.8475         0.8716         0.8609         0.8793         0.8637         0.8758         0.8677         0.8709        48.3830         0.0000       400.0000
     922.47720         0.8962         0.8910         0.8758        24.7811      -999.2500         0.8331         0.8621         0.8551         0.8756         0.8640         0.8823         0.8660         0.8802         0.8753         0.8758        49.8491         0.0000       400.0000
     922.62960         0.8832         0.8760         0.8740        26.9423      -999.2500         0.8349         0.8632         0.8531         0.8804         0.8675         0.8840         0.8764         0.8761         0.8844         0.8692        50.9311         0.0000       400.0000
     922.78200         0.8687         0.8719         0.8752        29.5985      -999.2500         0.8326         0.8574         0.8464         0.8746         0.8610         0.8812         0.8755         0.8757         0.8901         0.8682        52.3586         0.0000       400.0000
     922.93440         0.8664         0.8715         0.8675        31.7838      -999.2500         0.8327         0.8545         0.8477         0.8725         0.8605         0.8772         0.8686         0.8708         0.8747         0.8658        53.9915         0.0000       400.0000
     923.08680         0.8664         0.8715         0.8675        32.0856      -999.2500         0.8327         0.8545         0.8477         0.8725         0.8605         0.8772         0.8686         0.8708         0.8747         0.8658        55.4817         0.0000       390.0000
     923.23920         0.8729         0.8753         0.8689        31.6087      -999.2500         0.8380         0.8605         0.8536         0.8729         0.8658         0.8782         0.8753         0.8722         0.8862         0.8618        57.1694         0.0000       390.0000
     923.39160         0.8846         0.8843         0.8790        29.5260      -999.2500         0.8275         0.8552         0.8436         0.8684         0.8558         0.8721         0.8662         0.8657         0.8797         0.8586        59.1081         0.0000       390.0000
     923.54400         0.8705         0.8676         0.8612        27.1355      -999.2500         0.8270         0.8540         0.8442         0.8650         0.8527         0.8719         0.8544         0.8710         0.8587         0.8661        60.2878         0.0000       390.0000
     923.69640         0.8656         0.8636         0.8566        24.6664      -999.2500         0.8215         0.8498         0.8402         0.8608         0.8494         0.8680         0.8496         0.8668         0.8513         0.8607        60.2878         0.0000       400.0000
     923.84880         0.8646         0.8581         0.8502        24.3223      -999.2500         0.8242         0.8472         0.8395         0.8616         0.8472         0.8672         0.8498         0.8642         0.8558         0.8608        60.8364         0.0000       400.0000
     924.00120         0.8671         0.8681         0.8669        25.7591      -999.2500         0.8182         0.8490         0.8366         0.8659         0.8487         0.8720         0.8517         0.8645         0.8526         0.8537        60.9583         0.0000       400.0000
     924.15360         0.8689         0.8744         0.8767        27.1294      -999.2500         0.8162         0.8511         0.8327         0.8665         0.8473         0.8713         0.8581         0.8658         0.8674         0.8600        60.9636         0.0000       400.0000
     924.30600         0.8689         0.8744         0.8767        28.0168      -999.2500         0.8162         0.8511         0.8327         0.8665         0.8473         0.8713         0.8581         0.8658         0.8674         0.8600        60.9621         0.0000       390.0000
     924.45840         0.8641         0.8638         0.8619        28.0712      -999.2500         0.8308         0.8496         0.8431         0.8683         0.8562         0.8780         0.8700         0.8746         0.8838         0.8664        60.9583         0.0000       390.0000
     924.61080         0.8624         0.8667         0.8621        27.9263      -999.2500         0.8122         0.8424         0.8278         0.8602         0.8424         0.8703         0.8497         0.8711         0.8510         0.8698        60.9583         0.0000       390.0000
