~Version Information Block
VERS .                 2.00:  CWLS LOG ASCII STANDARD - VERSION 2.00
WRAP .                   NO:  One line per depth step
~Well Information Block
#MNEM.UNIT        Data Type   Information
#---------- ----------------  -----------
STRT .M           239.72520:  START DEPTH
STOP .M          1083.56400:  STOP DEPTH
STEP .M             0.15240:  STEP
NULL .              -999.25:  NULL VALUE
COMP .                     :  COMPANY
WELL .           TEST_SAMAP:  WELL
FLD  .                     :  FIELD
LOC  .                     :  LOCATION
CTRY .                     :  COUNTRY
STAT .               Norway:  STATE
CNTY .                     :  COUNTY
SRVC .                     :  SERVICE COMPANY
DATE .                     :  DATE
API  .                     :  API NUMBER
UWI  .                     :  UNIQUE WELL ID
LATI .     058 26' 29.869" N    DMS:  LATITUDE
LONG .     001 53' 14.858" E    DMS:  LONGITUDE
~Curve Information Block
#MNEM.UNIT         API CODE   Curve Description
#---------- ----------------  -----------------
DEPTH.M                    :  
A28H .OHMM                0:  
A34H .OHMM                0:  
A40H .OHMM                0:  
GRA  .GAPI                0:  
GRM1 .GAPI                0:  
P16H .OHMM                0:  
P16L .OHMM                0:  
P22H .OHMM                0:  
P22L .OHMM                0:  
P28H .OHMM                0:  
P28L .OHMM                0:  
P34H .OHMM                0:  
P34L .OHMM                0:  
P40H .OHMM                0:  
P40L .OHMM                0:  
ROP5 .M/HR                0:  
SHK1 .1/S                 0:  
TABA .S                   0:  
~Parameter Information Block
#MNEM.UNIT            Value   Description
#---------- ----------------  -----------
APD  .M             1394.46:  Above Perm. Datum
CN   .              Statoil:  Company
COUN .      Maersk Inspirer:  County or Rig name
EDF  .M                54.9:  Elevation DF (wrt EPD)
EGL  .M                 -91:  Elevation GL (wrt EPD)
ELZ  .M                54.9:  Elev. Log Zero (wrt EPD)
EPD  .M                   0:  Elevation Perm. Datum
FL   .     Norwegian North Sea:  Field Location
FN   .                Volve:  Field
LMF  .                   DF:  Log measured from
MP   .                   DF:  Drill measured from
PD   .       Mean Sea Level:  Perm. Datum
R1   .     PETROPHYSICAL COMPOSITE DATA INC.::  Remarks
R2   .     MWD POWERPULSE, RUN 6:  Remarks
R3   .       MWD ARC, RUN 7:  Remarks
TAPE_NAME.     WLC_PETROPHYSICAL_COMPOSITE_1.LIS:  
TOOL_STRING.                 EDIT:  
WN   .             15/9-F-7:  Well Name
PROJECT.     SLEIPNER_OST@st-vlinapp01:  
SET  .     WLC_PETROPHYSICAL_COMPOSITE:  
~Other Information Block
# 
~A       DEPTH           A28H           A34H           A40H            GRA           GRM1           P16H           P16L           P22H           P22L           P28H           P28L           P34H           P34L           P40H           P40L           ROP5           SHK1           TABA 
# ...
     898.24560      -999.2500      -999.2500      -999.2500      -999.2500      -999.2500      -999.2500      -999.2500      -999.2500      -999.2500      -999.2500      -999.2500      -999.2500      -999.2500      -999.2500      -999.2500        46.6277      -999.2500      -999.2500
     898.39800      -999.2500      -999.2500      -999.2500      -999.2500      -999.2500      -999.2500      -999.2500      -999.2500      -999.2500      -999.2500      -999.2500      -999.2500      -999.2500      -999.2500      -999.2500        50.6388      -999.2500      -999.2500
     898.55040      -999.2500      -999.2500      -999.2500      -999.2500      -999.2500      -999.2500      -999.2500      -999.2500      -999.2500      -999.2500      -999.2500      -999.2500      -999.2500      -999.2500      -999.2500        54.5783      -999.2500      -999.2500
     898.70280      -999.2500      -999.2500      -999.2500      -999.2500      -999.2500      -999.2500      -999.2500      -999.2500      -999.2500      -999.2500      -999.2500      -999.2500      -999.2500      -999.2500      -999.2500        60.3056      -999.2500      -999.2500
     898.85520      -999.2500      -999.2500      -999.2500      -999.2500      -999.2500      -999.2500      -999.2500      -999.2500      -999.2500      -999.2500      -999.2500      -999.2500      -999.2500      -999.2500      -999.2500        65.3568      -999.2500      -999.2500
     899.00760      -999.2500      -999.2500      -999.2500      -999.2500      -999.2500      -999.2500      -999.2500      -999.2500      -999.2500      -999.2500      -999.2500      -999.2500      -999.2500      -999.2500      -999.2500        69.6755      -999.2500      -999.2500
     899.16000      -999.2500      -999.2500      -999.2500      -999.2500      -999.2500      -999.2500      -999.2500      -999.2500      -999.2500      -999.2500      -999.2500      -999.2500      -999.2500      -999.2500      -999.2500        76.4156      -999.2500      -999.2500
     899.31240      -999.2500      -999.2500      -999.2500      -999.2500      -999.2500      -999.2500      -999.2500      -999.2500      -999.2500      -999.2500      -999.2500      -999.2500      -999.2500      -999.2500      -999.2500        82.0972      -999.2500      -999.2500
     899.46480      -999.2500      -999.2500      -999.2500      -999.2500      -999.2500      -999.2500      -999.2500      -999.2500      -999.2500      -999.2500      -999.2500      -999.2500      -999.2500      -999.2500      -999.2500        86.9778      -999.2500      -999.2500
     899.61720      -999.2500      -999.2500      -999.2500      -999.2500      -999.2500      -999.2500      -999.2500      -999.2500      -999.2500      -999.2500      -999.2500      -999.2500      -999.2500      -999.2500      -999.2500        90.1025      -999.2500      -999.2500
     899.76960         0.2163         0.1365         0.1000        12.1219      -999.2500         0.4465         0.5717         0.4111         0.7462         0.4615         2.1010         0.8969      1000.0000         4.6158      1000.0000        90.0679         0.0000      1199.9922
     899.92200         0.2455         0.2041         0.1329        12.9972      -999.2500         0.3628         1.2754         0.3631         1.1418         0.3541         1.4561         0.4492         2.8357         0.8743         6.9587        90.0332         0.0000      1189.9922
     900.07440         0.3014         0.3922         0.3321        13.8907      -999.2500         0.3599         1.8146         0.3535         2.5562         0.2591         2.2327         0.2016         0.7543         0.2071         0.2689        90.0102         0.0000      1189.9922
     900.22680         0.2420         0.1878         0.1191        14.7539      -999.2500         0.3669         0.9277         0.3510         1.1483         0.3794         0.7724         0.5857         0.3989         1.4136         0.2558        90.0217         0.0000      1099.9922
     900.37920         0.3323         0.6014         1.1042        17.0359      -999.2500         0.4178         0.7062         0.3452         0.8474         0.3770         3.0925         0.6345      1000.0000         1.5060      1000.0000        90.0332         0.0000      1109.9922
     900.53160         0.2079         0.2349         0.3357        20.8632      -999.2500         0.3638         0.7172         0.3601         0.9157         0.3681         3.3205         0.3930      1000.0000         0.4247      1000.0000        90.0448         0.0000      1109.9922
     900.68400         0.9352         0.2237         0.1000        22.7950      -999.2500         4.7782         0.6770         0.1086         0.8983         0.1000         0.8864         0.1114         0.1601         6.2205         0.1000        90.0448         0.0000      1109.9922
     900.83640       500.0000         4.2286         0.1000        23.4892      -999.2500         0.8432         0.8250         0.1724         0.9634         0.1342         2.6056         0.3845         3.6297       194.0722         0.9425        90.0679         0.0000      1109.9922
     900.98880         0.2197         0.3496         2.3056        21.9860      -999.2500         0.3666         0.9711         0.3640         1.0871         0.3388         1.6755         0.1840         2.2940         0.1000         1.7845        90.0910         0.0000      1119.9922
     901.14120         0.5811       500.0000       700.0000        23.1934      -999.2500         0.3721         0.1000         0.3761         0.2646         0.1336         1.0409         0.1048         1.2248         0.4149         0.9125        90.0910         0.0000      1119.9922
     901.29360         0.2329         0.1828         0.1322        19.7343      -999.2500         0.3859         0.6324         0.4032         1.1363         0.3909         1.9462         0.3620         0.9578         0.3451         0.3296        90.0910         0.0000      1129.9922
     901.44600         0.2039         0.1000         0.1000        17.6214      -999.2500         0.3532         1.0177         0.3802         0.9777         0.3869         1.7024         0.2811         2.1583         0.1715         0.9951        90.1141         0.0000      1129.9922
     901.59840         0.2505         0.4064         4.0002        13.8605      -999.2500         0.3021         0.5173         0.4259         0.7703         0.5283         0.5107         0.1712         0.2679         0.1000         0.1993        90.1257         0.0000      1149.9922
     901.75080         0.2396         0.2104         0.1497        14.0959      -999.2500         0.3698         1.4405         0.3661         1.5650         0.4376         1.3286         0.4829         0.6555         0.3963         0.3051        90.1257         0.0000      1329.9922
     901.90320         0.6434         0.2942         0.1683        15.3335      -999.2500         0.2873         0.9598         0.3670         0.9695         0.8513         1.0798         1.7935         0.6479         1.0204         0.2763        90.1257         0.0000      1399.9922
     902.05560         0.2616         1.6453       700.0000        14.9411      -999.2500         0.3726         0.8031         0.3820         0.8506         0.2663         2.8501         2.8212         6.7084      1000.0000         1.1441        90.1025         0.0000      1399.9922
     902.20800         0.2406         0.2964         0.6144        14.1322      -999.2500         0.3554         0.7719         0.3883         0.9323         0.4064         1.5037         0.4806         3.4413         0.7084         9.7047        90.0794         0.0000      1399.9922
     902.36040         0.1998         0.2520         0.2918        13.4319      -999.2500         0.5557      1000.0000         0.2746      1000.0000         0.1526         5.0916         0.1816         3.7696         0.7128      1000.0000        90.0563         0.0000      1389.9922
     902.51280         0.2215         0.2079         0.2073        13.4258      -999.2500         0.4178         0.8226         0.4008         1.0477         0.3795         2.6806         0.3554         3.1785         0.3337         0.9208        90.0217         0.0000      1389.9922
