~Version Information Block
VERS .                 2.00:  CWLS LOG ASCII STANDARD - VERSION 2.00
WRAP .                   NO:  One line per depth step
~Well Information Block
#MNEM.UNIT        Data Type   Information
#---------- ----------------  -----------
STRT .M           239.72520:  START DEPTH
STOP .M          1083.56400:  STOP DEPTH
STEP .M             0.15240:  STEP
NULL .              -999.25:  NULL VALUE
COMP .                     :  COMPANY
WELL .           TEST_SAMAP:  WELL
FLD  .                     :  FIELD
LOC  .                     :  LOCATION
CTRY .                     :  COUNTRY
STAT .               Norway:  STATE
CNTY .                     :  COUNTY
SRVC .                     :  SERVICE COMPANY
DATE .                     :  DATE
API  .                     :  API NUMBER
UWI  .                     :  UNIQUE WELL ID
LATI .     058 26' 29.869" N    DMS:  LATITUDE
LONG .     001 53' 14.858" E    DMS:  LONGITUDE
~Curve Information Block
#MNEM.UNIT         API CODE   Curve Description
#---------- ----------------  -----------------
DEPTH.M                    :  
A28H .OHMM                0:  
A34H .OHMM                0:  
A40H .OHMM                0:  
GRA  .GAPI                0:  
GRM1 .GAPI                0:  
P16H .OHMM                0:  
P16L .OHMM                0:  
P22H .OHMM                0:  
P22L .OHMM                0:  
P28H .OHMM                0:  
P28L .OHMM                0:  
P34H .OHMM                0:  
P34L .OHMM                0:  
P40H .OHMM                0:  
P40L .OHMM                0:  
ROP5 .M/HR                0:  
SHK1 .1/S                 0:  
TABA .S                   0:  
~Parameter Information Block
#MNEM.UNIT            Value   Description
#---------- ----------------  -----------
APD  .M             1394.46:  Above Perm. Datum
CN   .              Statoil:  Company
COUN .      Maersk Inspirer:  County or Rig name
EDF  .M                54.9:  Elevation DF (wrt EPD)
EGL  .M                 -91:  Elevation GL (wrt EPD)
ELZ  .M                54.9:  Elev. Log Zero (wrt EPD)
EPD  .M                   0:  Elevation Perm. Datum
FL   .     Norwegian North Sea:  Field Location
FN   .                Volve:  Field
LMF  .                   DF:  Log measured from
MP   .                   DF:  Drill measured from
PD   .       Mean Sea Level:  Perm. Datum
R1   .     PETROPHYSICAL COMPOSITE DATA INC.::  Remarks
R2   .     MWD POWERPULSE, RUN 6:  Remarks
R3   .       MWD ARC, RUN 7:  Remarks
TAPE_NAME.     WLC_PETROPHYSICAL_COMPOSITE_1.LIS:  
TOOL_STRING.                 EDIT:  
WN   .             15/9-F-7:  Well Name
PROJECT.     SLEIPNER_OST@st-vlinapp01:  
SET  .     WLC_PETROPHYSICAL_COMPOSITE:  
~Other Information Block
# 
~A       DEPTH           A28H           A34H           A40H            GRA           GRM1           P16H           P16L           P22H           P22L           P28H           P28L           P34H           P34L           P40H           P40L           ROP5           SHK1           TABA 
# ...
     955.70040         0.8375         0.8359         0.8274        29.0733      -999.2500         0.7647         0.8016         0.7938         0.8234         0.8070         0.8370         0.8104         0.8368         0.8222         0.8306        36.3335        17.6000       500.0000
     955.85280         0.8447         0.8427         0.8293        28.9767      -999.2500         0.7601         0.7965         0.7794         0.8168         0.7920         0.8260         0.8008         0.8243         0.8142         0.8222        35.4588         2.4000       510.0000
     956.00520         0.8459         0.8396         0.8309        29.8822      -999.2500         0.7469         0.7969         0.7751         0.8184         0.7934         0.8300         0.8006         0.8279         0.8085         0.8217        34.6849         0.0000       510.0000
     956.15760         0.8320         0.8315         0.8286        31.2043      -999.2500         0.7654         0.8027         0.7852         0.8206         0.7964         0.8304         0.8008         0.8318         0.8081         0.8323        34.4458         0.0000       500.0000
     956.31000         0.8278         0.8289         0.8265        30.8481      -999.2500         0.7696         0.8016         0.7936         0.8244         0.8042         0.8348         0.8059         0.8314         0.8136         0.8259        33.5877         0.0000       500.0000
     956.46240         0.8389         0.8271         0.8087        34.7781      -999.2500         0.7762         0.8053         0.7938         0.8258         0.8033         0.8354         0.8092         0.8357         0.8207         0.8372        32.9267         0.0000       500.0000
     956.61480         0.8414         0.8426         0.8409        36.8306      -999.2500         0.7565         0.7925         0.7736         0.8232         0.7857         0.8381         0.7956         0.8363         0.8090         0.8336        34.1092         0.0000       490.0000
     956.76720         0.8669         0.8653         0.8600        39.2151      -999.2500         0.8482         0.8524         0.8623         0.8690         0.8716         0.8758         0.8805         0.8680         0.8946         0.8551        39.7564         0.0000       530.0000
     956.91960         0.8822         0.8826         0.8650        38.7020      -999.2500         0.8241         0.8487         0.8474         0.8608         0.8600         0.8700         0.8632         0.8719         0.8693         0.8689        39.7564         0.0000       520.0000
     957.07200         0.8651         0.8535         0.8356        39.5109      -999.2500         0.8194         0.8437         0.8327         0.8527         0.8413         0.8608         0.8493         0.8611         0.8622         0.8543        39.8620         0.0000       520.0000
     957.22440         0.8467         0.8402         0.8279        40.3380      -999.2500         0.7829         0.8150         0.7904         0.8299         0.7985         0.8397         0.8107         0.8385         0.8273         0.8313        40.0469         0.0000       530.0000
     957.37680         0.8375         0.8331         0.8269        37.9051      -999.2500         0.7578         0.8071         0.7732         0.8232         0.7872         0.8322         0.8010         0.8296         0.8167         0.8220        40.0204         0.0000       520.0000
     957.52920         0.8309         0.8391         0.8355        35.3214      -999.2500         0.7604         0.7971         0.7829         0.8173         0.7937         0.8280         0.7929         0.8272         0.7936         0.8238        39.7564         0.0000       520.0000
     957.68160         0.8324         0.8353         0.8296        33.9571      -999.2500         0.7562         0.8009         0.7840         0.8199         0.7986         0.8300         0.8004         0.8294         0.8041         0.8263        39.7564         0.0000       520.0000
     957.83400         0.8423         0.8484         0.8478        32.6290      -999.2500         0.7517         0.7908         0.7754         0.8151         0.7935         0.8296         0.8027         0.8295         0.8103         0.8240        39.8356         0.0000       520.0000
     957.98640         0.8350         0.8389         0.8396        29.7554      -999.2500         0.7451         0.7931         0.7685         0.8143         0.7861         0.8258         0.7935         0.8281         0.7978         0.8306        39.8620         0.0000       520.0000
     958.13880         0.8321         0.8413         0.8475        25.5840      -999.2500         0.7383         0.7873         0.7633         0.8135         0.7810         0.8267         0.7921         0.8246         0.8059         0.8199        39.7564         0.0000       510.0000
     958.29120         0.8364         0.8401         0.8373        23.6703      -999.2500         0.7460         0.7942         0.7751         0.8150         0.7928         0.8256         0.7971         0.8266         0.8016         0.8276        39.7564         0.0000       520.0000
     958.44360         0.8488         0.8397         0.8242        26.3386      -999.2500         0.7493         0.7978         0.7747         0.8208         0.7887         0.8324         0.7953         0.8317         0.8078         0.8295        39.9676         0.0000       520.0000
     958.59600         0.8412         0.8430         0.8440        31.2948      -999.2500         0.7837         0.8214         0.8156         0.8472         0.8379         0.8577         0.8504         0.8548         0.8650         0.8534        40.0204         0.0000       510.0000
     958.74840         0.8585         0.8573         0.8510        35.5508      -999.2500         0.8010         0.8296         0.8161         0.8496         0.8310         0.8579         0.8440         0.8542         0.8561         0.8495        39.7564         0.0000       520.0000
     958.90080         0.8561         0.8628         0.8645        36.2088      -999.2500         0.7754         0.8229         0.7998         0.8387         0.8134         0.8486         0.8171         0.8515         0.8233         0.8532        39.7564         0.0000       520.0000
     959.05320         0.8698         0.8735         0.8672        35.2550      -999.2500         0.7823         0.8267         0.8074         0.8486         0.8241         0.8592         0.8331         0.8569         0.8444         0.8525        39.8356         0.0000       510.0000
     959.20560         0.8277         0.8257         0.8236        33.8182      -999.2500         0.7901         0.8248         0.8040         0.8379         0.8205         0.8462         0.8343         0.8474         0.8430         0.8457        40.0469         0.0000       520.0000
     959.35800         0.8343         0.8366         0.8367        32.7437      -999.2500         0.7559         0.8047         0.7754         0.8239         0.7923         0.8320         0.8060         0.8291         0.8203         0.8260        40.0469         0.0000       510.0000
     959.51040         0.8345         0.8242         0.8051        31.9106      -999.2500         0.7576         0.7998         0.7714         0.8183         0.7843         0.8265         0.7983         0.8247         0.8151         0.8226        39.7564         0.0000       510.0000
     959.66280         0.8408         0.8512         0.8461        31.5967      -999.2500         0.7668         0.7999         0.7883         0.8186         0.7992         0.8269         0.8014         0.8241         0.8072         0.8202        39.9676         0.0000       520.0000
     959.81520         0.8327         0.8377         0.8361        32.7799      -999.2500         0.7601         0.7971         0.7787         0.8164         0.7930         0.8262         0.8017         0.8258         0.8101         0.8241        40.0469        10.2000       510.0000
     959.96760         0.8356         0.8381         0.8332        34.1080      -999.2500         0.7461         0.7894         0.7726         0.8131         0.7922         0.8249         0.8031         0.8219         0.8137         0.8156        39.8884         1.2000       510.0000
