~Version Information Block
VERS .                 2.00:  CWLS LOG ASCII STANDARD - VERSION 2.00
WRAP .                   NO:  One line per depth step
~Well Information Block
#MNEM.UNIT        Data Type   Information
#---------- ----------------  -----------
STRT .M           239.72520:  START DEPTH
STOP .M          1083.56400:  STOP DEPTH
STEP .M             0.15240:  STEP
NULL .              -999.25:  NULL VALUE
COMP .                     :  COMPANY
WELL .           TEST_SAMAP:  WELL
FLD  .                     :  FIELD
LOC  .                     :  LOCATION
CTRY .                     :  COUNTRY
STAT .               Norway:  STATE
CNTY .                     :  COUNTY
SRVC .                     :  SERVICE COMPANY
DATE .                     :  DATE
API  .                     :  API NUMBER
UWI  .                     :  UNIQUE WELL ID
LATI .     058 26' 29.869" N    DMS:  LATITUDE
LONG .     001 53' 14.858" E    DMS:  LONGITUDE
~Curve Information Block
#MNEM.UNIT         API CODE   Curve Description
#---------- ----------------  -----------------
DEPTH.M                    :  
A28H .OHMM                0:  
A34H .OHMM                0:  
A40H .OHMM                0:  
GRA  .GAPI                0:  
GRM1 .GAPI                0:  
P16H .OHMM                0:  
P16L .OHMM                0:  
P22H .OHMM                0:  
P22L .OHMM                0:  
P28H .OHMM                0:  
P28L .OHMM                0:  
P34H .OHMM                0:  
P34L .OHMM                0:  
P40H .OHMM                0:  
P40L .OHMM                0:  
ROP5 .M/HR                0:  
SHK1 .1/S                 0:  
TABA .S                   0:  
~Parameter Information Block
#MNEM.UNIT            Value   Description
#---------- ----------------  -----------
APD  .M             1394.46:  Above Perm. Datum
CN   .              Statoil:  Company
COUN .      Maersk Inspirer:  County or Rig name
EDF  .M                54.9:  Elevation DF (wrt EPD)
EGL  .M                 -91:  Elevation GL (wrt EPD)
ELZ  .M                54.9:  Elev. Log Zero (wrt EPD)
EPD  .M                   0:  Elevation Perm. Datum
FL   .     Norwegian North Sea:  Field Location
FN   .                Volve:  Field
LMF  .                   DF:  Log measured from
MP   .                   DF:  Drill measured from
PD   .       Mean Sea Level:  Perm. Datum
R1   .     PETROPHYSICAL COMPOSITE DATA INC.::  Remarks
R2   .     MWD POWERPULSE, RUN 6:  Remarks
R3   .       MWD ARC, RUN 7:  Remarks
TAPE_NAME.     WLC_PETROPHYSICAL_COMPOSITE_1.LIS:  
TOOL_STRING.                 EDIT:  
WN   .             15/9-F-7:  Well Name
PROJECT.     SLEIPNER_OST@st-vlinapp01:  
SET  .     WLC_PETROPHYSICAL_COMPOSITE:  
~Other Information Block
# 
~A       DEPTH           A28H           A34H           A40H            GRA           GRM1           P16H           P16L           P22H           P22L           P28H           P28L           P34H           P34L           P40H           P40L           ROP5           SHK1           TABA 
# ...
    1061.77080         0.7904         0.7934         0.7911        34.9652      -999.2500         0.6803         0.7472         0.7362         0.7813         0.7706         0.8009         0.7793         0.8041         0.7902         0.8055        22.2425         0.0000       990.0000
    1061.92320         0.8097         0.8119         0.8016        31.5363      -999.2500         0.6739         0.7353         0.7240         0.7762         0.7551         0.8007         0.7691         0.8068         0.7906         0.8115        17.5978         0.0000       990.0000
    1062.07560         0.8266         0.8331         0.8341        33.7880      -999.2500         0.6694         0.7447         0.7124         0.7829         0.7426         0.8027         0.7625         0.8035         0.7892         0.8043        17.4031         0.0000       990.0000
    1062.22800         0.8237         0.8310         0.8389        36.3597      -999.2500         0.6890         0.7595         0.7376         0.8006         0.7720         0.8207         0.7910         0.8211         0.8144         0.8231        17.5675         0.0000       980.0000
    1062.38040         0.8354         0.8420         0.8426        38.4001      -999.2500         0.7593         0.8045         0.8139         0.8337         0.8502         0.8489         0.8638         0.8488         0.8794         0.8470        17.5396         0.0000       980.0000
    1062.53280         0.8473         0.8516         0.8469        37.8749      -999.2500         0.7571         0.8094         0.8072         0.8349         0.8387         0.8475         0.8479         0.8490         0.8586         0.8519        17.5275         0.0000       980.0000
    1062.68520         0.8314         0.8343         0.8318        36.8064      -999.2500         0.7579         0.8011         0.7934         0.8245         0.8174         0.8385         0.8300         0.8401         0.8460         0.8386        17.6630         0.0000       980.0000
    1062.83760         0.8319         0.8366         0.8376        35.6654      -999.2500         0.7468         0.7975         0.7774         0.8202         0.7983         0.8321         0.8094         0.8322         0.8230         0.8307        17.9151         0.0000       980.0000
    1062.99000         0.8379         0.8378         0.8350        36.2631      -999.2500         0.7368         0.7900         0.7664         0.8153         0.7853         0.8262         0.7965         0.8224         0.8133         0.8177        18.2906         0.0000       980.0000
    1063.14240         0.8273         0.8304         0.8310        39.2211      -999.2500         0.7581         0.7991         0.7811         0.8211         0.7974         0.8315         0.8134         0.8308         0.8384         0.8298        18.4338         0.0000       980.0000
    1063.29480         0.8227         0.8237         0.8244        40.2776      -999.2500         0.7450         0.7905         0.7757         0.8124         0.7998         0.8216         0.8136         0.8192         0.8255         0.8178        18.5906         0.0000       980.0000
    1063.44720         0.8124         0.8191         0.8178        39.9153      -999.2500         0.7340         0.7823         0.7653         0.8051         0.7912         0.8182         0.8046         0.8174         0.8129         0.8124        19.1451         0.0000       990.0000
    1063.59960         0.8169         0.8227         0.8201        38.8649      -999.2500         0.7554         0.7926         0.7892         0.8093         0.8106         0.8184         0.8174         0.8208         0.8245         0.8240        19.2935         0.0000       990.0000
    1063.75200         0.8097         0.8055         0.7945        38.6778      -999.2500         0.7912         0.8066         0.8180         0.8210         0.8339         0.8296         0.8425         0.8291         0.8568         0.8246        19.4654         0.0000       980.0000
    1063.90440         0.8088         0.8154         0.8112        36.5951      -999.2500         0.7698         0.7959         0.7981         0.8069         0.8155         0.8149         0.8168         0.8144         0.8148         0.8080        20.0640         0.0000       980.0000
    1064.05680         0.8189         0.8228         0.8072        32.9730      -999.2500         0.7060         0.7606         0.7255         0.7802         0.7460         0.7954         0.7646         0.8016         0.7814         0.8028        20.2703         0.0000       970.0000
    1064.20920         0.8049         0.8142         0.8112        30.7937      -999.2500         0.6872         0.7547         0.7193         0.7763         0.7483         0.7952         0.7663         0.8023         0.7780         0.7996        20.3941         0.0000       960.0000
    1064.36160         0.8156         0.8258         0.8227        31.5483      -999.2500         0.6855         0.7668         0.7245         0.7888         0.7529         0.8014         0.7611         0.8011         0.7624         0.7969        20.6383         0.0000       960.0000
    1064.51400         0.8258         0.8215         0.8257        33.5344      -999.2500         0.6836         0.7670         0.7198         0.7979         0.7412         0.8093         0.7460         0.8050         0.7515         0.8043        21.0621         0.0000       960.0000
    1064.66640         0.8321         0.8361         0.8446        36.6796      -999.2500         0.6961         0.7824         0.7413         0.8154         0.7603         0.8239         0.7562         0.8175         0.7597         0.8198        21.5975         0.0000       960.0000
    1064.81880         0.9110         0.9219         0.9413        40.3862      -999.2500         0.6811         0.7964         0.7396         0.8428         0.7735         0.8591         0.7801         0.8610         0.7911         0.8792        21.7300         0.0000       960.0000
    1064.97120         0.9872         0.9800         0.9749        50.2383      -999.2500         0.9782         0.9768         1.0996         1.0276         1.1668         1.0404         1.1857         1.0360         1.2332         1.0501        22.0493         0.0000       980.0000
    1065.12360         0.9865         0.9790         0.9826        54.4399      -999.2500         1.1884         1.0713         1.2417         1.0806         1.2895         1.0845         1.3244         1.0798         1.3555         1.0716        22.7767         0.0000      1000.0000
    1065.27600         0.9423         0.9377         0.9153        57.7239      -999.2500         0.9646         0.9741         0.9699         0.9611         0.9955         0.9610         1.0237         0.9583         1.0335         0.9417        23.3808         0.0000      1020.0000
    1065.42840         0.8571         0.8642         0.8489        50.5341      -999.2500         0.7457         0.8357         0.7497         0.8271         0.7588         0.8286         0.7645         0.8289         0.7616         0.8186        23.8559         0.0000      1040.0000
    1065.58080         0.8144         0.8134         0.7883        47.6062      -999.2500         0.7091         0.7887         0.7140         0.7922         0.7327         0.7938         0.7474         0.7895         0.7431         0.7814        23.6734         0.0000      1060.0000
    1065.73320         0.7920         0.7937         0.7797        43.1933      -999.2500         0.6861         0.7423         0.7294         0.7684         0.7521         0.7847         0.7505         0.7840         0.7489         0.7757        23.4312         0.0000      1070.0000
    1065.88560         0.7883         0.7799         0.7649        43.7668      -999.2500         0.6928         0.7346         0.7275         0.7663         0.7446         0.7820         0.7470         0.7801         0.7552         0.7769        23.0732         0.0000      1070.0000
    1066.03800         0.7896         0.7879         0.7785        43.4288      -999.2500         0.7004         0.7332         0.7252         0.7596         0.7387         0.7731         0.7486         0.7756         0.7686         0.7802        22.6342         0.0000      1070.0000
