~Version Information Block
VERS .                 2.00:  CWLS LOG ASCII STANDARD - VERSION 2.00
WRAP .                   NO:  One line per depth step
~Well Information Block
#MNEM.UNIT        Data Type   Information
#---------- ----------------  -----------
STRT .M           239.72520:  START DEPTH
STOP .M          1083.56400:  STOP DEPTH
STEP .M             0.15240:  STEP
NULL .              -999.25:  NULL VALUE
COMP .                     :  COMPANY
WELL .           TEST_SAMAP:  WELL
FLD  .                     :  FIELD
LOC  .                     :  LOCATION
CTRY .                     :  COUNTRY
STAT .               Norway:  STATE
CNTY .                     :  COUNTY
SRVC .                     :  SERVICE COMPANY
DATE .                     :  DATE
API  .                     :  API NUMBER
UWI  .                     :  UNIQUE WELL ID
LATI .     058 26' 29.869" N    DMS:  LATITUDE
LONG .     001 53' 14.858" E    DMS:  LONGITUDE
~Curve Information Block
#MNEM.UNIT         API CODE   Curve Description
#---------- ----------------  -----------------
DEPTH.M                    :  
A28H .OHMM                0:  
A34H .OHMM                0:  
A40H .OHMM                0:  
GRA  .GAPI                0:  
GRM1 .GAPI                0:  
P16H .OHMM                0:  
P16L .OHMM                0:  
P22H .OHMM                0:  
P22L .OHMM                0:  
P28H .OHMM                0:  
P28L .OHMM                0:  
P34H .OHMM                0:  
P34L .OHMM                0:  
P40H .OHMM                0:  
P40L .OHMM                0:  
ROP5 .M/HR                0:  
SHK1 .1/S                 0:  
TABA .S                   0:  
~Parameter Information Block
#MNEM.UNIT            Value   Description
#---------- ----------------  -----------
APD  .M             1394.46:  Above Perm. Datum
CN   .              Statoil:  Company
COUN .      Maersk Inspirer:  County or Rig name
EDF  .M                54.9:  Elevation DF (wrt EPD)
EGL  .M                 -91:  Elevation GL (wrt EPD)
ELZ  .M                54.9:  Elev. Log Zero (wrt EPD)
EPD  .M                   0:  Elevation Perm. Datum
FL   .     Norwegian North Sea:  Field Location
FN   .                Volve:  Field
LMF  .                   DF:  Log measured from
MP   .                   DF:  Drill measured from
PD   .       Mean Sea Level:  Perm. Datum
R1   .     PETROPHYSICAL COMPOSITE DATA INC.::  Remarks
R2   .     MWD POWERPULSE, RUN 6:  Remarks
R3   .       MWD ARC, RUN 7:  Remarks
TAPE_NAME.     WLC_PETROPHYSICAL_COMPOSITE_1.LIS:  
TOOL_STRING.                 EDIT:  
WN   .             15/9-F-7:  Well Name
PROJECT.     SLEIPNER_OST@st-vlinapp01:  
SET  .     WLC_PETROPHYSICAL_COMPOSITE:  
~Other Information Block
# 
~A       DEPTH           A28H           A34H           A40H            GRA           GRM1           P16H           P16L           P22H           P22L           P28H           P28L           P34H           P34L           P40H           P40L           ROP5           SHK1           TABA 
# ...
     911.50440         0.1093         0.1770         1.0036        14.2348      -999.2500         0.1000         0.1000         0.1000         0.1000         0.1893         0.1602         4.3944         0.2948      1000.0000         0.5480        69.6824         0.0000     12190.0000
     911.65680         0.1353         0.2845         2.8577        14.3616      -999.2500         0.1000         0.1000         0.1000         0.1000         0.1218         0.1346         0.3880         0.2346         0.7987         0.3941        69.6340         0.0000     12200.0000
     911.80920         0.1291         0.2775         1.3996        13.9692      -999.2500         0.1000         0.1000         0.1000         0.1000         0.1064         0.1186         0.3162         0.1909         2.5769         0.2933        69.6340         0.0000     12200.0000
     911.96160         0.1102         0.2035         0.5771        13.6854      -999.2500         0.1000         0.1000         0.1000         0.1000         0.1000         0.1033         0.1389         0.1480         0.3478         0.2143        69.7032         0.0000     12210.0000
     912.11400         0.1000         0.1619         0.4907        14.7358      -999.2500         0.1000         0.1000         0.1000         0.1000         0.1000         0.1048         0.1043         0.1411         0.3110         0.2274        69.6686         0.0000     12230.0000
     912.26640         0.1073         0.1579         0.3541        15.9915      -999.2500         0.1000         0.1000         0.2147         0.1089         0.5141         0.1704         1.2375         0.2457      1000.0000         0.5142        69.6271         0.0000     12260.0000
     912.41880         0.2859         0.5870        12.0767        18.1165      -999.2500         0.1284         0.1000         0.3077         0.1810         0.5410         0.2997         1.0713         0.5033       276.7265         1.6889        69.6409         0.0000     12290.0000
     912.57120         0.5068         0.9665         7.1077        19.2997      -999.2500         0.7913         0.2233         0.9068         0.3711         1.1803         0.5658         2.8527         0.9429        88.0669         2.9813        69.6962         0.0000     12330.0000
     912.72360         0.5097         0.8829         3.5227        22.2818      -999.2500         1.0274         0.3017         0.8740         0.4062         0.9769         0.5418         1.9973         0.8232        11.0375         1.7530        69.6686         0.0000     12350.0000
     912.87600         0.4998         0.7189         1.0718        23.6824      -999.2500         0.4288         0.2633         0.4454         0.3288         0.4740         0.4124         0.5670         0.5680         0.7683         0.9216        69.6271         0.0000     12380.0000
     913.02840         0.5963         1.1086         2.5468        28.1376      -999.2500         2.6400         0.3705         2.3127         0.4789         1.8074         0.6465         1.6780         0.8824         2.0682         1.1912        69.6478         0.0000     12400.0000
     913.18080         0.6071         1.5508         2.9663        29.1095      -999.2500         1.5588         0.3314         1.7984         0.4284         2.5765         0.6451         3.6368         0.9596         3.7389         1.1585        69.6962         0.0000     12420.0000
     913.33320         0.2961         0.4919         0.6610        29.9003      -999.2500         0.2483         0.2054         0.3676         0.2642         0.9289         0.3968         3.5532         0.5982         7.1430         0.7402        69.6686         0.0000     12430.0000
     913.48560         0.2853         0.4814         0.5705        27.8116      -999.2500         0.1679         0.1752         0.2346         0.2301         0.5318         0.3498         1.5800         0.5116         2.3333         0.5927        69.6271         0.0000     12360.0000
     913.63800         0.2257         0.3176         0.3630        25.8677      -999.2500         0.1208         0.1323         0.1418         0.1755         0.3051         0.2706         0.8612         0.3867         0.8467         0.4203        69.6617         0.0000     12370.0000
     913.79040         0.2738         0.4271         0.4043        22.5656      -999.2500         0.1022         0.1107         0.1179         0.1475         0.2252         0.2330         0.4576         0.3571         0.3795         0.4237        69.7032         0.0000     12360.0000
     913.94280         0.2974         0.5137         0.6765        18.6115      -999.2500         0.1000         0.1000         0.1000         0.1230         0.2150         0.2061         0.3774         0.3187         0.2845         0.3981        69.6755         0.0000     12370.0000
     914.09520         0.2180         0.3614         0.5065        15.2127      -999.2500         0.1000         0.1000         0.1000         0.1168         0.3017         0.2019         0.6880         0.3091         0.5981         0.4164        69.6271         0.0000     12380.0000
     914.24760         0.1838         0.3110         0.5369        15.0618      -999.2500         0.1000         0.1000         0.1012         0.1160         0.3551         0.2041         0.7828         0.3089         0.9899         0.4497        69.6478         0.0000     12390.0000
     914.40000         0.1647         0.2735         0.5794        15.8828      -999.2500         0.1000         0.1000         0.1012         0.1170         0.3585         0.2065         0.7715         0.3131         0.8870         0.4802        69.6893         0.0000     12390.0000
     914.55240         0.1838         0.3307         0.9189        16.9513      -999.2500         0.1000         0.1000         0.1140         0.1287         0.3594         0.2295         0.5648         0.3471         0.6747         0.5852        69.6617         0.0000     12400.0000
     914.70480         0.1793         0.3264         1.0600        18.0983      -999.2500         0.1000         0.1000         0.1267         0.1419         0.4855         0.2533         0.8189         0.3924         0.8261         0.7210        69.6133         0.0000     12400.0000
     914.85720         0.1939         0.3796         1.6902        18.6960      -999.2500         0.1000         0.1000         0.1272         0.1528         0.4794         0.2702         1.0251         0.4134         1.3303         0.7292        30.6517         0.0000     12400.0000
     915.00960         0.2567         0.5630         2.2107        18.7443      -999.2500         0.1000         0.1000         0.1189         0.1544         0.2832         0.2501         0.3961         0.3668         0.3779         0.5775        45.6051         0.0000     12410.0000
     915.16200         0.2072         0.3945         0.8270        18.3398      -999.2500         0.1000         0.1066         0.1822         0.1758         0.4417         0.2839         0.7050         0.4060         0.9774         0.6027        49.8726         0.0000     12410.0000
     915.31440         0.1805         0.3359         0.8850        18.4364      -999.2500         0.1285         0.1262         0.3904         0.2019         1.3409         0.3334         1.8675         0.5207         1.7381         0.8253        49.8719         0.0000     12400.0000
     915.46680         0.2211         0.3997         1.2085        19.0280      -999.2500         0.1101         0.1308         0.2738         0.2113         1.0880         0.3640         3.0386         0.5896         2.6215         0.9132        49.8775         0.0000     12400.0000
     915.61920         0.3704         0.7279         1.2456        19.3902      -999.2500         0.1000         0.1186         0.1487         0.1869         0.4417         0.3337         1.7169         0.5555         3.1803         0.7702        49.8775         0.0000     12410.0000
     915.77160         0.2777         0.4231         0.6725        20.0724      -999.2500         0.1000         0.1033         0.1010         0.1548         0.2552         0.2763         1.2303         0.4673         4.9845         0.6028        49.8775         0.0000     12410.0000
