~Version Information Block
VERS .                 2.00:  CWLS LOG ASCII STANDARD - VERSION 2.00
WRAP .                   NO:  One line per depth step
~Well Information Block
#MNEM.UNIT        Data Type   Information
#---------- ----------------  -----------
STRT .M           239.72520:  START DEPTH
STOP .M          1083.56400:  STOP DEPTH
STEP .M             0.15240:  STEP
NULL .              -999.25:  NULL VALUE
COMP .                     :  COMPANY
WELL .           TEST_SAMAP:  WELL
FLD  .                     :  FIELD
LOC  .                     :  LOCATION
CTRY .                     :  COUNTRY
STAT .               Norway:  STATE
CNTY .                     :  COUNTY
SRVC .                     :  SERVICE COMPANY
DATE .                     :  DATE
API  .                     :  API NUMBER
UWI  .                     :  UNIQUE WELL ID
LATI .     058 26' 29.869" N    DMS:  LATITUDE
LONG .     001 53' 14.858" E    DMS:  LONGITUDE
~Curve Information Block
#MNEM.UNIT         API CODE   Curve Description
#---------- ----------------  -----------------
DEPTH.M                    :  
A28H .OHMM                0:  
A34H .OHMM                0:  
A40H .OHMM                0:  
GRA  .GAPI                0:  
GRM1 .GAPI                0:  
P16H .OHMM                0:  
P16L .OHMM                0:  
P22H .OHMM                0:  
P22L .OHMM                0:  
P28H .OHMM                0:  
P28L .OHMM                0:  
P34H .OHMM                0:  
P34L .OHMM                0:  
P40H .OHMM                0:  
P40L .OHMM                0:  
ROP5 .M/HR                0:  
SHK1 .1/S                 0:  
TABA .S                   0:  
~Parameter Information Block
#MNEM.UNIT            Value   Description
#---------- ----------------  -----------
APD  .M             1394.46:  Above Perm. Datum
CN   .              Statoil:  Company
COUN .      Maersk Inspirer:  County or Rig name
EDF  .M                54.9:  Elevation DF (wrt EPD)
EGL  .M                 -91:  Elevation GL (wrt EPD)
ELZ  .M                54.9:  Elev. Log Zero (wrt EPD)
EPD  .M                   0:  Elevation Perm. Datum
FL   .     Norwegian North Sea:  Field Location
FN   .                Volve:  Field
LMF  .                   DF:  Log measured from
MP   .                   DF:  Drill measured from
PD   .       Mean Sea Level:  Perm. Datum
R1   .     PETROPHYSICAL COMPOSITE DATA INC.::  Remarks
R2   .     MWD POWERPULSE, RUN 6:  Remarks
R3   .       MWD ARC, RUN 7:  Remarks
TAPE_NAME.     WLC_PETROPHYSICAL_COMPOSITE_1.LIS:  
TOOL_STRING.                 EDIT:  
WN   .             15/9-F-7:  Well Name
PROJECT.     SLEIPNER_OST@st-vlinapp01:  
SET  .     WLC_PETROPHYSICAL_COMPOSITE:  
~Other Information Block
# 
~A       DEPTH           A28H           A34H           A40H            GRA           GRM1           P16H           P16L           P22H           P22L           P28H           P28L           P34H           P34L           P40H           P40L           ROP5           SHK1           TABA 
# ...
    1026.41400         0.8030         0.8124         0.8035        39.1608      -999.2500         0.6809         0.7445         0.7192         0.7699         0.7482         0.7883         0.7627         0.7953         0.7750         0.7976        31.9606         0.0000       770.0000
    1026.56640         0.7901         0.8018         0.8097        38.8589      -999.2500         0.6659         0.7307         0.7098         0.7635         0.7386         0.7847         0.7470         0.7904         0.7534         0.7921        30.8907         0.0000       770.0000
    1026.71880         0.7969         0.7997         0.7905        39.8127      -999.2500         0.6622         0.7278         0.7039         0.7633         0.7355         0.7867         0.7542         0.7924         0.7730         0.7927        30.1291         0.0000       770.0000
    1026.87120         0.8048         0.8103         0.8102        42.1973      -999.2500         0.6664         0.7292         0.7101         0.7704         0.7457         0.7960         0.7660         0.8000         0.7823         0.7985        29.5324         0.0000       770.0000
    1027.02360         0.8014         0.8138         0.8228        44.7931      -999.2500         0.6703         0.7359         0.7186         0.7749         0.7561         0.7983         0.7739         0.8038         0.7870         0.8073        29.1482         0.0000       780.0000
    1027.17600         0.8102         0.8241         0.8266        42.4387      -999.2500         0.6621         0.7401         0.7170         0.7745         0.7544         0.7967         0.7657         0.8027         0.7738         0.8049        28.7541         0.0000       780.0000
    1027.32840         0.7997         0.8118         0.8173        39.9455      -999.2500         0.6738         0.7388         0.7162         0.7721         0.7503         0.7945         0.7708         0.8008         0.7894         0.8017        28.3107         0.0000       780.0000
    1027.48080         0.8100         0.8132         0.8051        37.8568      -999.2500         0.6641         0.7383         0.7120         0.7725         0.7508         0.7950         0.7738         0.8013         0.7945         0.8035        27.8801         0.0000       780.0000
    1027.63320         0.7839         0.7967         0.8106        39.8369      -999.2500         0.6802         0.7426         0.7303         0.7750         0.7632         0.7955         0.7724         0.8034         0.7801         0.8104        27.4610         0.0000       780.0000
    1027.78560         0.7922         0.7989         0.8007        37.2229      -999.2500         0.6815         0.7364         0.7263         0.7748         0.7593         0.7990         0.7778         0.8028         0.7975         0.8009        27.2058         0.0000       780.0000
    1027.93800         0.8021         0.8043         0.7979        34.7418      -999.2500         0.6828         0.7403         0.7227         0.7747         0.7511         0.7970         0.7699         0.8039         0.7949         0.8079        27.0567         0.0000       780.0000
    1028.09040         0.7970         0.8031         0.8043        33.8363      -999.2500         0.6906         0.7400         0.7260         0.7757         0.7548         0.7965         0.7762         0.7992         0.7999         0.7989        27.2416         0.0000       780.0000
    1028.24280         0.7904         0.8030         0.8056        36.9694      -999.2500         0.6852         0.7403         0.7279         0.7756         0.7603         0.7969         0.7777         0.8009         0.7941         0.8016        27.1741         0.0000       780.0000
    1028.39520         0.7880         0.7972         0.7997        39.9033      -999.2500         0.6791         0.7399         0.7246         0.7741         0.7592         0.7940         0.7769         0.7968         0.7928         0.7970        27.1601         0.0000       770.0000
    1028.54760         0.8014         0.8138         0.8174        40.1628      -999.2500         0.6780         0.7464         0.7236         0.7750         0.7556         0.7928         0.7698         0.7963         0.7842         0.7960        26.9992         0.0000       770.0000
    1028.70000         0.7967         0.8086         0.8093        39.6558      -999.2500         0.6756         0.7451         0.7235         0.7725         0.7566         0.7893         0.7669         0.7930         0.7732         0.7941        26.7395         0.0000       790.0000
    1028.85240         0.7994         0.8080         0.8131        38.2492      -999.2500         0.6784         0.7426         0.7194         0.7719         0.7513         0.7916         0.7655         0.7981         0.7737         0.8006        26.5958         0.0000       810.0000
    1029.00480         0.7922         0.7994         0.7989        38.7804      -999.2500         0.6798         0.7357         0.7181         0.7647         0.7478         0.7845         0.7637         0.7920         0.7772         0.7965        26.4507         0.0000       810.0000
    1029.15720         0.7875         0.7957         0.8016        38.9676      -999.2500         0.6781         0.7357         0.7148         0.7650         0.7437         0.7837         0.7567         0.7902         0.7636         0.7950        26.3128         0.0000       810.0000
    1029.30960         0.7754         0.7849         0.7902        38.1345      -999.2500         0.6779         0.7363         0.7173         0.7647         0.7476         0.7804         0.7604         0.7812         0.7675         0.7796        26.2496         0.0000       810.0000
    1029.46200         0.7809         0.7890         0.7885        35.8707      -999.2500         0.6702         0.7317         0.7078         0.7606         0.7387         0.7774         0.7567         0.7812         0.7705         0.7838        26.2518         0.0000       810.0000
    1029.61440         0.7911         0.7961         0.7963        35.7862      -999.2500         0.6513         0.7282         0.6948         0.7577         0.7292         0.7752         0.7466         0.7784         0.7587         0.7791        26.1491         0.0000       820.0000
    1029.76680         0.7871         0.7980         0.7933        36.2389      -999.2500         0.6656         0.7256         0.7102         0.7552         0.7397         0.7766         0.7501         0.7862         0.7600         0.7918        26.1248         0.0000       820.0000
    1029.91920         0.7722         0.7752         0.7755        37.1263      -999.2500         0.6754         0.7278         0.7153         0.7601         0.7461         0.7807         0.7639         0.7874         0.7808         0.7921        26.1245         0.0000       820.0000
    1030.07160         0.7725         0.7792         0.7776        36.5287      -999.2500         0.6766         0.7296         0.7231         0.7589         0.7529         0.7776         0.7639         0.7834         0.7772         0.7867        26.1245         0.0000       820.0000
    1030.22400         0.7953         0.7937         0.7765        37.7964      -999.2500         0.6776         0.7276         0.7124         0.7582         0.7363         0.7771         0.7532         0.7835         0.7773         0.7889        26.1245         0.0000       830.0000
    1030.37640         0.7878         0.7983         0.8009        40.5733      -999.2500         0.6651         0.7270         0.7019         0.7581         0.7292         0.7758         0.7466         0.7769         0.7661         0.7750        26.1255         0.0000       830.0000
    1030.52880         0.7807         0.7823         0.7808        42.3602      -999.2500         0.6591         0.7226         0.6983         0.7540         0.7267         0.7726         0.7414         0.7751         0.7557         0.7744        25.9795         0.0000       830.0000
    1030.68120         0.7742         0.7837         0.7853        41.2917      -999.2500         0.6775         0.7296         0.7162         0.7602         0.7439         0.7773         0.7587         0.7785         0.7744         0.7770        25.7862         0.0000       840.0000
