~Version Information Block
VERS .                 2.00:  CWLS LOG ASCII STANDARD - VERSION 2.00
WRAP .                   NO:  One line per depth step
~Well Information Block
#MNEM.UNIT        Data Type   Information
#---------- ----------------  -----------
STRT .M           239.72520:  START DEPTH
STOP .M          1083.56400:  STOP DEPTH
STEP .M             0.15240:  STEP
NULL .              -999.25:  NULL VALUE
COMP .                     :  COMPANY
WELL .           TEST_SAMAP:  WELL
FLD  .                     :  FIELD
LOC  .                     :  LOCATION
CTRY .                     :  COUNTRY
STAT .               Norway:  STATE
CNTY .                     :  COUNTY
SRVC .                     :  SERVICE COMPANY
DATE .                     :  DATE
API  .                     :  API NUMBER
UWI  .                     :  UNIQUE WELL ID
LATI .     058 26' 29.869" N    DMS:  LATITUDE
LONG .     001 53' 14.858" E    DMS:  LONGITUDE
~Curve Information Block
#MNEM.UNIT         API CODE   Curve Description
#---------- ----------------  -----------------
DEPTH.M                    :  
A28H .OHMM                0:  
A34H .OHMM                0:  
A40H .OHMM                0:  
GRA  .GAPI                0:  
GRM1 .GAPI                0:  
P16H .OHMM                0:  
P16L .OHMM                0:  
P22H .OHMM                0:  
P22L .OHMM                0:  
P28H .OHMM                0:  
P28L .OHMM                0:  
P34H .OHMM                0:  
P34L .OHMM                0:  
P40H .OHMM                0:  
P40L .OHMM                0:  
ROP5 .M/HR                0:  
SHK1 .1/S                 0:  
TABA .S                   0:  
~Parameter Information Block
#MNEM.UNIT            Value   Description
#---------- ----------------  -----------
APD  .M             1394.46:  Above Perm. Datum
CN   .              Statoil:  Company
COUN .      Maersk Inspirer:  County or Rig name
EDF  .M                54.9:  Elevation DF (wrt EPD)
EGL  .M                 -91:  Elevation GL (wrt EPD)
ELZ  .M                54.9:  Elev. Log Zero (wrt EPD)
EPD  .M                   0:  Elevation Perm. Datum
FL   .     Norwegian North Sea:  Field Location
FN   .                Volve:  Field
LMF  .                   DF:  Log measured from
MP   .                   DF:  Drill measured from
PD   .       Mean Sea Level:  Perm. Datum
R1   .     PETROPHYSICAL COMPOSITE DATA INC.::  Remarks
R2   .     MWD POWERPULSE, RUN 6:  Remarks
R3   .       MWD ARC, RUN 7:  Remarks
TAPE_NAME.     WLC_PETROPHYSICAL_COMPOSITE_1.LIS:  
TOOL_STRING.                 EDIT:  
WN   .             15/9-F-7:  Well Name
PROJECT.     SLEIPNER_OST@st-vlinapp01:  
SET  .     WLC_PETROPHYSICAL_COMPOSITE:  
~Other Information Block
# 
~A       DEPTH           A28H           A34H           A40H            GRA           GRM1           P16H           P16L           P22H           P22L           P28H           P28L           P34H           P34L           P40H           P40L           ROP5           SHK1           TABA 
# ...
     968.95920         1.2339         1.2149         1.2298        56.9754      -999.2500         1.2062         1.2483         1.2987         1.3038         1.3418         1.3194         1.3522         1.3184         1.3905         1.3381        18.1068       118.8000      4370.0000
     969.11160         1.5631         1.5422         1.5037        68.1314      -999.2500         1.4653         1.4727         1.5351         1.5165         1.5839         1.5247         1.6333         1.5184         1.7119         1.5285        18.1074       108.0000      4390.0000
     969.26400         1.6478         1.5966         1.5626        76.4260      -999.2500         1.7557         1.8181         1.7832         1.7475         1.8293         1.7168         1.8664         1.7181         1.8743         1.7214        18.1075       122.8000      4410.0000
     969.41640         1.6913         1.6497         1.6250        76.9210      -999.2500         1.7946         1.8714         1.7861         1.7873         1.8058         1.7489         1.8324         1.7405         1.8364         1.7295        18.0804       149.6000      4430.0000
     969.56880         1.7759         1.7213         1.6582        72.1036      -999.2500         1.6942         1.8445         1.7039         1.8103         1.7243         1.7706         1.7444         1.7200         1.7528         1.6688        18.0479         0.0000      4460.0000
     969.72120         1.7640         1.6927         1.6187        68.2220      -999.2500         1.6561         1.8111         1.6959         1.7877         1.7153         1.7428         1.7051         1.6900         1.6873         1.6512        22.2669         0.0000      4470.0000
     969.87360         1.6951         1.6526         1.5865        62.7949      -999.2500         1.5774         1.6725         1.6114         1.6939         1.6202         1.6807         1.6092         1.6408         1.6048         1.6060        41.2525         0.0000      4490.0000
     970.02600         1.8761         1.8156         1.7218        61.1589      -999.2500         1.4183         1.5433         1.4323         1.5889         1.4692         1.6002         1.5366         1.5779         1.6149         1.5537        41.2525         0.0000      4510.0000
     970.17840         1.5002         1.5144         1.5210        59.6799      -999.2500         1.5614         1.4873         1.5718         1.5403         1.5849         1.5711         1.5981         1.5765         1.6086         1.5757        41.4231         2.2000      4520.0000
     970.33080         1.2102         1.2243         1.2145        57.3919      -999.2500         1.5392         1.3300         1.5384         1.3723         1.5653         1.4137         1.5979         1.4198         1.6066         1.3909        41.5653         0.0000      1390.0000
     970.48320         1.1008         1.1357         1.1321        49.7433      -999.2500         1.1705         1.1323         1.1574         1.1488         1.1705         1.1794         1.1858         1.1908         1.1755         1.1686        41.5653         0.0000      1400.0000
     970.63560         1.0351         1.0249         0.9991        42.3844      -999.2500         0.8047         0.9172         0.8228         0.9412         0.8373         0.9645         0.8435         0.9712         0.8458         0.9616        41.8545         0.8000      1510.0000
     970.78800         0.9499         0.9413         0.9374        36.1967      -999.2500         0.7852         0.8737         0.8148         0.9015         0.8404         0.9252         0.8517         0.9346         0.8539         0.9333        41.4095         0.0000      1530.0000
     970.94040         0.9042         0.9202         0.9359        35.9733      -999.2500         0.7356         0.8066         0.7768         0.8513         0.8103         0.8803         0.8239         0.8910         0.8288         0.8994        41.0438         0.0000      1540.0000
     971.09280         0.8747         0.8785         0.8883        36.4080      -999.2500         0.7098         0.7778         0.7603         0.8268         0.8052         0.8611         0.8296         0.8716         0.8436         0.8739        26.7152         0.0000      1400.0000
     971.24520         0.8660         0.8751         0.8794        35.2006      -999.2500         0.7338         0.7819         0.7695         0.8281         0.8093         0.8575         0.8472         0.8689         0.8819         0.8799        20.3383         0.6000      1400.0000
     971.39760         0.8363         0.8656         0.8919        34.1019      -999.2500         0.7350         0.7866         0.7764         0.8202         0.8193         0.8460         0.8483         0.8610         0.8640         0.8730        20.2784         1.6000      1400.0000
     971.55000         0.8621         0.8641         0.8608        33.5526      -999.2500         0.6926         0.7694         0.7328         0.8045         0.7775         0.8303         0.8129         0.8454         0.8366         0.8591        19.7931         0.0000      1370.0000
     971.70240         0.8437         0.8450         0.8461        32.6471      -999.2500         0.6156         0.7339         0.6710         0.7734         0.7293         0.8048         0.7681         0.8213         0.7884         0.8312        18.3644         0.0000      1350.0000
     971.85480         0.8205         0.8615         0.8867        29.3570      -999.2500         0.6383         0.7323         0.7003         0.7749         0.7499         0.8089         0.7688         0.8235         0.7752         0.8278        17.2325         0.0000      1340.0000
     972.00720         0.7979         0.8249         0.8470        29.0552      -999.2500         0.6219         0.7230         0.7001         0.7748         0.7694         0.8129         0.7993         0.8249         0.8067         0.8260        16.6865         0.4000      1320.0000
     972.15960         0.8297         0.8593         0.8706        31.8502      -999.2500         0.5993         0.7050         0.6742         0.7630         0.7361         0.8072         0.7655         0.8212         0.7865         0.8213        15.3608         0.0000      1310.0000
     972.31200         0.8118         0.8263         0.8174        33.8786      -999.2500         0.5840         0.6840         0.6590         0.7444         0.7235         0.7905         0.7574         0.8102         0.7835         0.8203        14.3385         0.0000      1300.0000
     972.46440         0.8117         0.8371         0.8295        33.0515      -999.2500         0.5884         0.6780         0.6591         0.7392         0.7190         0.7872         0.7522         0.8044         0.7805         0.8061        13.4803         0.0000      1280.0000
     972.61680         0.7893         0.8095         0.8245        31.9649      -999.2500         0.5917         0.6814         0.6641         0.7425         0.7334         0.7903         0.7765         0.8096         0.8060         0.8160        13.7823         0.0000      1280.0000
     972.76920         0.7960         0.8031         0.7976        32.2607      -999.2500         0.5866         0.6858         0.6675         0.7442         0.7416         0.7913         0.7838         0.8155         0.8134         0.8301        13.9167         0.0000      1260.0000
     972.92160         0.7822         0.8027         0.8043        33.2507      -999.2500         0.5698         0.6654         0.6447         0.7304         0.7161         0.7787         0.7612         0.7974         0.7957         0.8060        13.7043         0.0000      1250.0000
     973.07400         0.7505         0.7829         0.7957        34.3857      -999.2500         0.5076         0.6330         0.5824         0.6992         0.6532         0.7502         0.6977         0.7766         0.7331         0.7961        13.3815         0.0000      1240.0000
     973.22640         0.7478         0.7794         0.7936        33.5345      -999.2500         0.4694         0.5877         0.5467         0.6706         0.6220         0.7398         0.6779         0.7686         0.7318         0.7787        14.0659         0.0000     46130.0000
