~Version Information Block
VERS .                 2.00:  CWLS LOG ASCII STANDARD - VERSION 2.00
WRAP .                   NO:  One line per depth step
~Well Information Block
#MNEM.UNIT        Data Type   Information
#---------- ----------------  -----------
STRT .M           239.72520:  START DEPTH
STOP .M          1083.56400:  STOP DEPTH
STEP .M             0.15240:  STEP
NULL .              -999.25:  NULL VALUE
COMP .                     :  COMPANY
WELL .           TEST_SAMAP:  WELL
FLD  .                     :  FIELD
LOC  .                     :  LOCATION
CTRY .                     :  COUNTRY
STAT .               Norway:  STATE
CNTY .                     :  COUNTY
SRVC .                     :  SERVICE COMPANY
DATE .                     :  DATE
API  .                     :  API NUMBER
UWI  .                     :  UNIQUE WELL ID
LATI .     058 26' 29.869" N    DMS:  LATITUDE
LONG .     001 53' 14.858" E    DMS:  LONGITUDE
~Curve Information Block
#MNEM.UNIT         API CODE   Curve Description
#---------- ----------------  -----------------
DEPTH.M                    :  
A28H .OHMM                0:  
A34H .OHMM                0:  
A40H .OHMM                0:  
GRA  .GAPI                0:  
GRM1 .GAPI                0:  
P16H .OHMM                0:  
P16L .OHMM                0:  
P22H .OHMM                0:  
P22L .OHMM                0:  
P28H .OHMM                0:  
P28L .OHMM                0:  
P34H .OHMM                0:  
P34L .OHMM                0:  
P40H .OHMM                0:  
P40L .OHMM                0:  
ROP5 .M/HR                0:  
SHK1 .1/S                 0:  
TABA .S                   0:  
~Parameter Information Block
#MNEM.UNIT            Value   Description
#---------- ----------------  -----------
APD  .M             1394.46:  Above Perm. Datum
CN   .              Statoil:  Company
COUN .      Maersk Inspirer:  County or Rig name
EDF  .M                54.9:  Elevation DF (wrt EPD)
EGL  .M                 -91:  Elevation GL (wrt EPD)
ELZ  .M                54.9:  Elev. Log Zero (wrt EPD)
EPD  .M                   0:  Elevation Perm. Datum
FL   .     Norwegian North Sea:  Field Location
FN   .                Volve:  Field
LMF  .                   DF:  Log measured from
MP   .                   DF:  Drill measured from
PD   .       Mean Sea Level:  Perm. Datum
R1   .     PETROPHYSICAL COMPOSITE DATA INC.::  Remarks
R2   .     MWD POWERPULSE, RUN 6:  Remarks
R3   .       MWD ARC, RUN 7:  Remarks
TAPE_NAME.     WLC_PETROPHYSICAL_COMPOSITE_1.LIS:  
TOOL_STRING.                 EDIT:  
WN   .             15/9-F-7:  Well Name
PROJECT.     SLEIPNER_OST@st-vlinapp01:  
SET  .     WLC_PETROPHYSICAL_COMPOSITE:  
~Other Information Block
# 
~A       DEPTH           A28H           A34H           A40H            GRA           GRM1           P16H           P16L           P22H           P22L           P28H           P28L           P34H           P34L           P40H           P40L           ROP5           SHK1           TABA 
# ...
    1075.02960         1.6308         1.5943         1.5835        95.5687      -999.2500         1.3287         1.5148         1.3836         1.5379         1.4233         1.5521         1.4396         1.5631         1.4508         1.5780        16.5759         0.0000      1230.0000
    1075.18200         1.6245         1.6003         1.5939       100.4162      -999.2500         1.4168         1.5772         1.4019         1.5834         1.4257         1.5802         1.4716         1.5692         1.4990         1.5589        14.7945         0.0000      1170.0000
    1075.33440         1.5918         1.5969         1.6138       102.7525      -999.2500         1.3215         1.5275         1.3472         1.5354         1.3873         1.5342         1.4214         1.5363         1.4342         1.5495        13.7728         0.0000      1170.0000
    1075.48680         1.6094         1.5908         1.5783       104.3885      -999.2500         1.3198         1.5250         1.3809         1.5383         1.4334         1.5482         1.4494         1.5571         1.4408         1.5674        13.8839         0.0000      1180.0000
    1075.63920         1.6849         1.6408         1.6024       103.4950      -999.2500         1.3267         1.5390         1.3912         1.5552         1.4390         1.5669         1.4498         1.5738         1.4445         1.5791        13.8981         0.0000      1180.0000
    1075.79160         1.6517         1.6231         1.6026       101.8288      -999.2500         1.3287         1.4943         1.3718         1.5446         1.4032         1.5695         1.4307         1.5672         1.4691         1.5602        13.9392         0.0000      1190.0000
    1075.94400         1.6652         1.6428         1.6341       100.6456      -999.2500         1.3937         1.5254         1.4187         1.5730         1.4466         1.5951         1.4813         1.5912         1.5210         1.5840        13.9242         0.0000      1180.0000
    1076.09640         1.6742         1.6407         1.6292       103.0362      -999.2500         1.4396         1.5807         1.4469         1.6102         1.4746         1.6191         1.5176         1.6081         1.5557         1.5958        13.9094         0.0000      1190.0000
    1076.24880         1.6804         1.6483         1.6212       105.3000      -999.2500         1.3906         1.5669         1.4106         1.5991         1.4445         1.6018         1.4907         1.5896         1.5352         1.5886        13.8404         0.0000      1190.0000
    1076.40120         1.6560         1.6409         1.6241       103.7425      -999.2500         1.4391         1.6159         1.4761         1.6257         1.5122         1.6214         1.5364         1.6177         1.5511         1.6265        13.7885         0.0000      1200.0000
    1076.55360         1.7013         1.6641         1.6243       101.4364      -999.2500         1.4223         1.6178         1.4852         1.6212         1.5238         1.6246         1.5301         1.6302         1.5307         1.6374        13.8549         0.0000      1190.0000
    1076.70600         1.7165         1.6764         1.6478        98.7259      -999.2500         1.4362         1.6159         1.4885         1.6403         1.5249         1.6493         1.5472         1.6428         1.5734         1.6342        14.6019         0.0000      1190.0000
    1076.85840         1.6972         1.6703         1.6689        99.2149      -999.2500         1.4602         1.6189         1.4804         1.6450         1.5171         1.6444         1.5557         1.6317         1.5793         1.6302        17.4506         0.0000      1200.0000
    1077.01080         1.6978         1.6860         1.6794        97.2409      -999.2500         1.4806         1.6572         1.5025         1.6643         1.5406         1.6610         1.5795         1.6476         1.6013         1.6337        17.6538         0.0000      1200.0000
    1077.16320         1.7202         1.7005         1.6784        97.6876      -999.2500         1.4744         1.6727         1.5183         1.6618         1.5615         1.6517         1.5860         1.6418         1.5926         1.6323        17.8706      -999.2500      1200.0000
    1077.31560         1.7116         1.6947         1.6797        98.2490      -999.2500         1.4021         1.6005         1.4274         1.6231         1.4679         1.6240         1.5105         1.6124         1.5397         1.6077        18.6681      -999.2500      1210.0000
    1077.46800         1.7878         1.7311         1.6902       102.1669      -999.2500         1.5123         1.6980         1.5396         1.6924         1.5805         1.6812         1.6165         1.6777         1.6332         1.6871        19.1316      -999.2500      1210.0000
    1077.62040         1.7654         1.7091         1.6763       105.3121      -999.2500         1.3819         1.6044         1.3949         1.6223         1.4387         1.6260         1.4972         1.6260         1.5369         1.6343        19.5012      -999.2500      1210.0000
    1077.77280         1.6742         1.6401         1.6292       106.2599      -999.2500         1.3548         1.5204         1.3912         1.5764         1.4278         1.6026         1.4650         1.5980         1.5047         1.5897        19.5951      -999.2500      1210.0000
    1077.92520         1.6491         1.6327         1.6264       104.8472      -999.2500         1.4459         1.5752         1.4633         1.5973         1.4769         1.6159         1.4931         1.6292         1.5162         1.6394        19.5941      -999.2500      1220.0000
    1078.07760         1.6622         1.6495         1.6569      -999.2500      -999.2500         1.4293         1.5783         1.4570         1.6196         1.4834         1.6317         1.5138         1.6226         1.5511         1.6182        19.5400      -999.2500      1220.0000
    1078.23000      -999.2500      -999.2500      -999.2500      -999.2500      -999.2500      -999.2500      -999.2500      -999.2500      -999.2500      -999.2500      -999.2500      -999.2500      -999.2500      -999.2500      -999.2500        19.4115      -999.2500      -999.2500
    1078.38240      -999.2500      -999.2500      -999.2500      -999.2500      -999.2500      -999.2500      -999.2500      -999.2500      -999.2500      -999.2500      -999.2500      -999.2500      -999.2500      -999.2500      -999.2500        19.2930      -999.2500      -999.2500
    1078.53480      -999.2500      -999.2500      -999.2500      -999.2500      -999.2500      -999.2500      -999.2500      -999.2500      -999.2500      -999.2500      -999.2500      -999.2500      -999.2500      -999.2500      -999.2500        19.1908      -999.2500      -999.2500
    1078.68720      -999.2500      -999.2500      -999.2500      -999.2500      -999.2500      -999.2500      -999.2500      -999.2500      -999.2500      -999.2500      -999.2500      -999.2500      -999.2500      -999.2500      -999.2500        18.4316      -999.2500      -999.2500
    1078.83960      -999.2500      -999.2500      -999.2500      -999.2500      -999.2500      -999.2500      -999.2500      -999.2500      -999.2500      -999.2500      -999.2500      -999.2500      -999.2500      -999.2500      -999.2500        17.9949      -999.2500      -999.2500
    1078.99200      -999.2500      -999.2500      -999.2500      -999.2500      -999.2500      -999.2500      -999.2500      -999.2500      -999.2500      -999.2500      -999.2500      -999.2500      -999.2500      -999.2500      -999.2500        17.5841      -999.2500      -999.2500
    1079.14440      -999.2500      -999.2500      -999.2500      -999.2500      -999.2500      -999.2500      -999.2500      -999.2500      -999.2500      -999.2500      -999.2500      -999.2500      -999.2500      -999.2500      -999.2500        17.5962      -999.2500      -999.2500
    1079.29680      -999.2500      -999.2500      -999.2500      -999.2500      -999.2500      -999.2500      -999.2500      -999.2500      -999.2500      -999.2500      -999.2500      -999.2500      -999.2500      -999.2500      -999.2500        17.7613      -999.2500      -999.2500
