~Version Information Block
VERS .                 2.00:  CWLS LOG ASCII STANDARD - VERSION 2.00
WRAP .                   NO:  One line per depth step
~Well Information Block
#MNEM.UNIT        Data Type   Information
#---------- ----------------  -----------
STRT .M           239.72520:  START DEPTH
STOP .M          1083.56400:  STOP DEPTH
STEP .M             0.15240:  STEP
NULL .              -999.25:  NULL VALUE
COMP .                     :  COMPANY
WELL .           TEST_SAMAP:  WELL
FLD  .                     :  FIELD
LOC  .                     :  LOCATION
CTRY .                     :  COUNTRY
STAT .               Norway:  STATE
CNTY .                     :  COUNTY
SRVC .                     :  SERVICE COMPANY
DATE .                     :  DATE
API  .                     :  API NUMBER
UWI  .                     :  UNIQUE WELL ID
LATI .     058 26' 29.869" N    DMS:  LATITUDE
LONG .     001 53' 14.858" E    DMS:  LONGITUDE
~Curve Information Block
#MNEM.UNIT         API CODE   Curve Description
#---------- ----------------  -----------------
DEPTH.M                    :  
A28H .OHMM                0:  
A34H .OHMM                0:  
A40H .OHMM                0:  
GRA  .GAPI                0:  
GRM1 .GAPI                0:  
P16H .OHMM                0:  
P16L .OHMM                0:  
P22H .OHMM                0:  
P22L .OHMM                0:  
P28H .OHMM                0:  
P28L .OHMM                0:  
P34H .OHMM                0:  
P34L .OHMM                0:  
P40H .OHMM                0:  
P40L .OHMM                0:  
ROP5 .M/HR                0:  
SHK1 .1/S                 0:  
TABA .S                   0:  
~Parameter Information Block
#MNEM.UNIT            Value   Description
#---------- ----------------  -----------
APD  .M             1394.46:  Above Perm. Datum
CN   .              Statoil:  Company
COUN .      Maersk Inspirer:  County or Rig name
EDF  .M                54.9:  Elevation DF (wrt EPD)
EGL  .M                 -91:  Elevation GL (wrt EPD)
ELZ  .M                54.9:  Elev. Log Zero (wrt EPD)
EPD  .M                   0:  Elevation Perm. Datum
FL   .     Norwegian North Sea:  Field Location
FN   .                Volve:  Field
LMF  .                   DF:  Log measured from
MP   .                   DF:  Drill measured from
PD   .       Mean Sea Level:  Perm. Datum
R1   .     PETROPHYSICAL COMPOSITE DATA INC.::  Remarks
R2   .     MWD POWERPULSE, RUN 6:  Remarks
R3   .       MWD ARC, RUN 7:  Remarks
TAPE_NAME.     WLC_PETROPHYSICAL_COMPOSITE_1.LIS:  
TOOL_STRING.                 EDIT:  
WN   .             15/9-F-7:  Well Name
PROJECT.     SLEIPNER_OST@st-vlinapp01:  
SET  .     WLC_PETROPHYSICAL_COMPOSITE:  
~Other Information Block
# 
~A       DEPTH           A28H           A34H           A40H            GRA           GRM1           P16H           P16L           P22H           P22L           P28H           P28L           P34H           P34L           P40H           P40L           ROP5           SHK1           TABA 
# ...
     982.21800         0.7600         0.7699         0.7893        41.5453      -999.2500         0.7013         0.7415         0.7282         0.7632         0.7483         0.7740         0.7551         0.7726         0.7570         0.7692        34.1958         0.0000       590.0000
     982.37040         0.7660         0.7928         0.8057        42.1429      -999.2500         0.6995         0.7471         0.7341         0.7615         0.7520         0.7690         0.7492         0.7693         0.7453         0.7690        34.0611         0.0000       590.0000
     982.52280         0.7742         0.7923         0.7972        41.5936      -999.2500         0.6960         0.7380         0.7212         0.7572         0.7380         0.7689         0.7429         0.7681         0.7461         0.7617        34.1493         0.0000       590.0000
     982.67520         0.7741         0.7621         0.7390        40.3681      -999.2500         0.6952         0.7280         0.7165         0.7506         0.7298         0.7637         0.7375         0.7618         0.7494         0.7540        34.3871         0.0000       590.0000
     982.82760         0.7722         0.7570         0.7388        40.5553      -999.2500         0.6926         0.7300         0.7114         0.7517         0.7258         0.7627         0.7400         0.7603         0.7596         0.7550        34.7250         0.0000       600.0000
     982.98000         0.7659         0.7507         0.7311        40.4949      -999.2500         0.7015         0.7296         0.7234         0.7530         0.7386         0.7666         0.7488         0.7667         0.7623         0.7630        34.7240         0.0000       590.0000
     983.13240         0.7469         0.7568         0.7714        41.1529      -999.2500         0.6837         0.7349         0.7161         0.7567         0.7408         0.7678         0.7519         0.7651         0.7587         0.7591        34.7223         0.0000       590.0000
     983.28480         0.7772         0.7587         0.7411        41.9135      -999.2500         0.7017         0.7351         0.7193         0.7572         0.7347         0.7709         0.7493         0.7721         0.7667         0.7690        34.6215         0.0000       600.0000
     983.43720         0.7498         0.7660         0.7767        42.5414      -999.2500         0.7023         0.7396         0.7292         0.7584         0.7502         0.7688         0.7592         0.7696         0.7637         0.7686        34.7247         0.0000       590.0000
     983.58960         0.7813         0.7735         0.7523        42.2878      -999.2500         0.7105         0.7413         0.7291         0.7595         0.7414         0.7702         0.7524         0.7704         0.7697         0.7674        34.7223         0.0000       600.0000
     983.74200         0.7608         0.7501         0.7458        41.0261      -999.2500         0.6982         0.7398         0.7234         0.7596         0.7431         0.7710         0.7553         0.7715         0.7672         0.7692        34.7721         0.0000       600.0000
     983.89440         0.7787         0.7788         0.7808        39.4445      -999.2500         0.7013         0.7444         0.7242         0.7647         0.7426         0.7762         0.7540         0.7777         0.7644         0.7779        34.9464         0.0000       610.0000
     984.04680         0.7740         0.7692         0.7595        38.5812      -999.2500         0.7081         0.7448         0.7350         0.7637         0.7504         0.7752         0.7534         0.7753         0.7577         0.7714        34.9455         0.0000       600.0000
     984.19920         0.7792         0.7683         0.7483        37.7964      -999.2500         0.7183         0.7469         0.7405         0.7673         0.7549         0.7791         0.7630         0.7793         0.7741         0.7761        34.9437         0.0000       610.0000
     984.35160         0.7858         0.7692         0.7618        38.4122      -999.2500         0.7030         0.7460         0.7228         0.7657         0.7417         0.7785         0.7574         0.7802         0.7719         0.7775        34.9449         0.0000       610.0000
     984.50400         0.7972         0.8057         0.7954        39.1125      -999.2500         0.7216         0.7477         0.7380         0.7689         0.7455         0.7796         0.7511         0.7779         0.7651         0.7739        34.9464         0.0000       600.0000
     984.65640         0.7887         0.7931         0.7797        39.1004      -999.2500         0.7374         0.7594         0.7561         0.7740         0.7657         0.7828         0.7703         0.7864         0.7805         0.7900        34.9445         0.0000       610.0000
     984.80880         0.7923         0.7894         0.7666        39.7765      -999.2500         0.7209         0.7541         0.7392         0.7681         0.7479         0.7763         0.7540         0.7794         0.7683         0.7829        34.7755         0.0000       610.0000
     984.96120         0.7984         0.7906         0.7691        38.4001      -999.2500         0.7096         0.7485         0.7288         0.7672         0.7391         0.7785         0.7452         0.7820         0.7576         0.7850        34.5064         0.0000       600.0000
     985.11360         0.7931         0.7956         0.8038        37.7482      -999.2500         0.7107         0.7553         0.7283         0.7747         0.7439         0.7844         0.7594         0.7828         0.7782         0.7789        34.5064         0.0000       610.0000
     985.26600         0.8012         0.7923         0.7832        37.4282      -999.2500         0.7063         0.7443         0.7277         0.7685         0.7412         0.7825         0.7508         0.7837         0.7657         0.7818        34.5061         0.0000       610.0000
     985.41840         0.7964         0.7782         0.7587        37.5610      -999.2500         0.7213         0.7588         0.7429         0.7786         0.7611         0.7882         0.7762         0.7869         0.7931         0.7844        34.5056         0.0000       620.0000
     985.57080         0.7854         0.7892         0.7945        38.9736      -999.2500         0.7191         0.7551         0.7457         0.7785         0.7646         0.7891         0.7724         0.7854         0.7786         0.7799        34.5064         0.0000       610.0000
     985.72320         0.7708         0.7810         0.7902        39.6377      -999.2500         0.7211         0.7560         0.7470         0.7767         0.7667         0.7861         0.7752         0.7853         0.7806         0.7850        34.3121         0.0000       620.0000
     985.87560         0.7695         0.7795         0.7759        40.6277      -999.2500         0.7251         0.7579         0.7495         0.7755         0.7634         0.7855         0.7672         0.7863         0.7728         0.7851        34.2894         0.0000       620.0000
     986.02800         0.7917         0.7949         0.7853        39.2996      -999.2500         0.7040         0.7478         0.7273         0.7656         0.7401         0.7749         0.7447         0.7744         0.7530         0.7721        34.2882         0.0000       620.0000
     986.18040         0.7930         0.7859         0.7654        37.0720      -999.2500         0.7002         0.7470         0.7257         0.7649         0.7416         0.7753         0.7488         0.7765         0.7589         0.7755        34.2905         0.0000       620.0000
     986.33280         0.7831         0.7670         0.7477        35.8586      -999.2500         0.7186         0.7468         0.7396         0.7686         0.7538         0.7806         0.7632         0.7814         0.7761         0.7805        34.2894         0.0000       620.0000
     986.48520         0.7865         0.7746         0.7653        36.1242      -999.2500         0.7057         0.7457         0.7300         0.7689         0.7467         0.7806         0.7556         0.7814         0.7660         0.7821        34.2879         0.0000       620.0000
