~Version Information Block
VERS .                 2.00:  CWLS LOG ASCII STANDARD - VERSION 2.00
WRAP .                   NO:  One line per depth step
~Well Information Block
#MNEM.UNIT        Data Type   Information
#---------- ----------------  -----------
STRT .M           239.72520:  START DEPTH
STOP .M          1083.56400:  STOP DEPTH
STEP .M             0.15240:  STEP
NULL .              -999.25:  NULL VALUE
COMP .                     :  COMPANY
WELL .           TEST_SAMAP:  WELL
FLD  .                     :  FIELD
LOC  .                     :  LOCATION
CTRY .                     :  COUNTRY
STAT .               Norway:  STATE
CNTY .                     :  COUNTY
SRVC .                     :  SERVICE COMPANY
DATE .                     :  DATE
API  .                     :  API NUMBER
UWI  .                     :  UNIQUE WELL ID
LATI .     058 26' 29.869" N    DMS:  LATITUDE
LONG .     001 53' 14.858" E    DMS:  LONGITUDE
~Curve Information Block
#MNEM.UNIT         API CODE   Curve Description
#---------- ----------------  -----------------
DEPTH.M                    :  
A28H .OHMM                0:  
A34H .OHMM                0:  
A40H .OHMM                0:  
GRA  .GAPI                0:  
GRM1 .GAPI                0:  
P16H .OHMM                0:  
P16L .OHMM                0:  
P22H .OHMM                0:  
P22L .OHMM                0:  
P28H .OHMM                0:  
P28L .OHMM                0:  
P34H .OHMM                0:  
P34L .OHMM                0:  
P40H .OHMM                0:  
P40L .OHMM                0:  
ROP5 .M/HR                0:  
SHK1 .1/S                 0:  
TABA .S                   0:  
~Parameter Information Block
#MNEM.UNIT            Value   Description
#---------- ----------------  -----------
APD  .M             1394.46:  Above Perm. Datum
CN   .              Statoil:  Company
COUN .      Maersk Inspirer:  County or Rig name
EDF  .M                54.9:  Elevation DF (wrt EPD)
EGL  .M                 -91:  Elevation GL (wrt EPD)
ELZ  .M                54.9:  Elev. Log Zero (wrt EPD)
EPD  .M                   0:  Elevation Perm. Datum
FL   .     Norwegian North Sea:  Field Location
FN   .                Volve:  Field
LMF  .                   DF:  Log measured from
MP   .                   DF:  Drill measured from
PD   .       Mean Sea Level:  Perm. Datum
R1   .     PETROPHYSICAL COMPOSITE DATA INC.::  Remarks
R2   .     MWD POWERPULSE, RUN 6:  Remarks
R3   .       MWD ARC, RUN 7:  Remarks
TAPE_NAME.     WLC_PETROPHYSICAL_COMPOSITE_1.LIS:  
TOOL_STRING.                 EDIT:  
WN   .             15/9-F-7:  Well Name
PROJECT.     SLEIPNER_OST@st-vlinapp01:  
SET  .     WLC_PETROPHYSICAL_COMPOSITE:  
~Other Information Block
# 
~A       DEPTH           A28H           A34H           A40H            GRA           GRM1           P16H           P16L           P22H           P22L           P28H           P28L           P34H           P34L           P40H           P40L           ROP5           SHK1           TABA 
# ...
     933.60240         0.8853         0.8822         0.8806        31.5001      -999.2500         0.8260         0.8584         0.8408         0.8804         0.8538         0.8904         0.8669         0.8873         0.8827         0.8824        59.6319         0.0000       350.0000
     933.75480         0.8870         0.8875         0.8818        32.7738      -999.2500         0.8424         0.8719         0.8591         0.8901         0.8746         0.8986         0.8863         0.8966         0.8956         0.8930        59.6348         0.0000       350.0000
     933.90720         0.9096         0.9096         0.8981        32.9429      -999.2500         0.8296         0.8741         0.8504         0.8899         0.8681         0.8957         0.8775         0.8945         0.8824         0.8958        59.8188         0.0000       350.0000
     934.05960         0.9021         0.9047         0.9009        31.6027      -999.2500         0.8211         0.8685         0.8465         0.8841         0.8604         0.8944         0.8644         0.8970         0.8713         0.8969        60.2945         0.0000      2100.0000
     934.21200         0.8897         0.8872         0.8763        30.1659      -999.2500         0.8256         0.8632         0.8495         0.8806         0.8628         0.8921         0.8693         0.8953         0.8813         0.8956        60.2878        12.6000      2100.0000
     934.36440         0.8882         0.8859         0.8757        27.4977      -999.2500         0.8325         0.8632         0.8548         0.8812         0.8681         0.8929         0.8729         0.8946         0.8797         0.8922        60.2878         8.6000      2100.0000
     934.51680         0.8916         0.8924         0.8909        25.4512      -999.2500         0.8285         0.8581         0.8467         0.8805         0.8599         0.8931         0.8671         0.8914         0.8742         0.8848        60.2959         8.6000      2100.0000
     934.66920         0.8844         0.8880         0.8972        25.5900      -999.2500         0.8230         0.8569         0.8400         0.8814         0.8546         0.8940         0.8652         0.8906         0.8751         0.8829        59.6923         2.8000      2110.0000
     934.82160         0.8828         0.8859         0.8890        27.5580      -999.2500         0.8180         0.8519         0.8331         0.8768         0.8474         0.8888         0.8615         0.8852         0.8769         0.8785        59.6319         0.0000      2110.0000
     934.97400         0.8828         0.8859         0.8890        30.0995      -999.2500         0.8180         0.8519         0.8331         0.8768         0.8474         0.8888         0.8615         0.8852         0.8769         0.8785        60.1148         0.0000      2100.0000
     935.12640         0.8857         0.8902         0.8906        29.8339      -999.2500         0.8031         0.8539         0.8289         0.8734         0.8463         0.8833         0.8521         0.8844         0.8561         0.8857        60.2908         0.0000      2100.0000
     935.27880         0.8958         0.8849         0.8671        28.3851      -999.2500         0.8124         0.8502         0.8370         0.8707         0.8504         0.8816         0.8553         0.8822         0.8644         0.8818        60.2878         0.0000      2150.0000
     935.43120         0.8967         0.8891         0.8798        26.1394      -999.2500         0.8149         0.8502         0.8382         0.8735         0.8509         0.8866         0.8559         0.8885         0.8654         0.8890        59.9897         0.0000      2180.0000
     935.58360         0.8830         0.8823         0.8835        25.8436      -999.2500         0.8139         0.8480         0.8361         0.8719         0.8500         0.8826         0.8586         0.8803         0.8713         0.8775        59.6351         0.0000      2180.0000
     935.73600         0.8813         0.8819         0.8831        26.2963      -999.2500         0.8162         0.8407         0.8317         0.8661         0.8424         0.8802         0.8504         0.8778         0.8614         0.8697        59.3511         0.0000      2180.0000
     935.88840         0.8666         0.8701         0.8744        27.2381      -999.2500         0.8196         0.8470         0.8380         0.8697         0.8503         0.8796         0.8584         0.8761         0.8696         0.8713        58.3686         0.0000      2180.0000
     936.04080         0.8729         0.8698         0.8606        27.8297      -999.2500         0.8183         0.8487         0.8405         0.8680         0.8514         0.8774         0.8515         0.8762         0.8529         0.8737        57.7505         0.0000      2180.0000
     936.19320         0.8873         0.8787         0.8688        27.4614      -999.2500         0.8178         0.8507         0.8384         0.8703         0.8508         0.8824         0.8579         0.8826         0.8693         0.8780        57.7545         0.0000      2180.0000
     936.34560         0.8904         0.8857         0.8840        25.5598      -999.2500         0.8187         0.8533         0.8370         0.8725         0.8487         0.8822         0.8553         0.8788         0.8643         0.8715        57.7545         0.0000      2180.0000
     936.49800         0.8887         0.8855         0.8850        23.4771      -999.2500         0.8239         0.8475         0.8365         0.8701         0.8485         0.8803         0.8601         0.8770         0.8723         0.8721        57.7531         0.0000      2180.0000
     936.65040         0.8949         0.8935         0.8909        21.8834      -999.2500         0.8201         0.8505         0.8315         0.8720         0.8421         0.8819         0.8528         0.8782         0.8644         0.8717        57.7485         0.0000      2180.0000
     936.80280         0.8882         0.8913         0.8963        22.2396      -999.2500         0.8213         0.8611         0.8380         0.8773         0.8547         0.8826         0.8688         0.8783         0.8811         0.8745        57.6998         0.0000      2180.0000
     936.95520         0.8882         0.8913         0.8963        23.6039      -999.2500         0.8213         0.8611         0.8380         0.8773         0.8547         0.8826         0.8688         0.8783         0.8811         0.8745        57.1523         0.0000      2170.0000
     937.10760         0.8972         0.8991         0.8890        24.8113      -999.2500         0.8240         0.8641         0.8431         0.8822         0.8592         0.8906         0.8684         0.8877         0.8746         0.8826        57.7471         0.0000      2170.0000
     937.26000         0.9113         0.9144         0.9070        25.1131      -999.2500         0.8124         0.8650         0.8400         0.8816         0.8534         0.8907         0.8529         0.8905         0.8544         0.8880        57.7539         0.0000      2180.0000
     937.41240         0.9132         0.9230         0.9244        25.1192      -999.2500         0.8164         0.8730         0.8415         0.8896         0.8625         0.9045         0.8739         0.9121         0.8810         0.9137        58.2578         0.0000      2180.0000
     937.56480         0.9426         0.9539         0.9493        26.2903      -999.2500         0.8374         0.8958         0.8671         0.9162         0.8915         0.9351         0.9037         0.9409         0.9107         0.9346        58.8722         0.0000      2180.0000
     937.71720         0.9625         0.9733         0.9665        28.6447      -999.2500         0.8677         0.9266         0.9014         0.9469         0.9288         0.9695         0.9408         0.9812         0.9456         0.9788        58.4892         0.0000      2180.0000
     937.86960         0.9873         0.9821         0.9757        31.3069      -999.2500         0.8988         0.9627         0.9140         0.9870         0.9328         1.0005         0.9519         0.9977         0.9681         0.9889        57.8701         0.0000      2180.0000
