~Version Information Block
VERS .                 2.00:  CWLS LOG ASCII STANDARD - VERSION 2.00
WRAP .                   NO:  One line per depth step
~Well Information Block
#MNEM.UNIT        Data Type   Information
#---------- ----------------  -----------
STRT .M           239.72520:  START DEPTH
STOP .M          1083.56400:  STOP DEPTH
STEP .M             0.15240:  STEP
NULL .              -999.25:  NULL VALUE
COMP .                     :  COMPANY
WELL .           TEST_SAMAP:  WELL
FLD  .                     :  FIELD
LOC  .                     :  LOCATION
CTRY .                     :  COUNTRY
STAT .               Norway:  STATE
CNTY .                     :  COUNTY
SRVC .                     :  SERVICE COMPANY
DATE .                     :  DATE
API  .                     :  API NUMBER
UWI  .                     :  UNIQUE WELL ID
LATI .     058 26' 29.869" N    DMS:  LATITUDE
LONG .     001 53' 14.858" E    DMS:  LONGITUDE
~Curve Information Block
#MNEM.UNIT         API CODE   Curve Description
#---------- ----------------  -----------------
DEPTH.M                    :  
A28H .OHMM                0:  
A34H .OHMM                0:  
A40H .OHMM                0:  
GRA  .GAPI                0:  
GRM1 .GAPI                0:  
P16H .OHMM                0:  
P16L .OHMM                0:  
P22H .OHMM                0:  
P22L .OHMM                0:  
P28H .OHMM                0:  
P28L .OHMM                0:  
P34H .OHMM                0:  
P34L .OHMM                0:  
P40H .OHMM                0:  
P40L .OHMM                0:  
ROP5 .M/HR                0:  
SHK1 .1/S                 0:  
TABA .S                   0:  
~Parameter Information Block
#MNEM.UNIT            Value   Description
#---------- ----------------  -----------
APD  .M             1394.46:  Above Perm. Datum
CN   .              Statoil:  Company
COUN .      Maersk Inspirer:  County or Rig name
EDF  .M                54.9:  Elevation DF (wrt EPD)
EGL  .M                 -91:  Elevation GL (wrt EPD)
ELZ  .M                54.9:  Elev. Log Zero (wrt EPD)
EPD  .M                   0:  Elevation Perm. Datum
FL   .     Norwegian North Sea:  Field Location
FN   .                Volve:  Field
LMF  .                   DF:  Log measured from
MP   .                   DF:  Drill measured from
PD   .       Mean Sea Level:  Perm. Datum
R1   .     PETROPHYSICAL COMPOSITE DATA INC.::  Remarks
R2   .     MWD POWERPULSE, RUN 6:  Remarks
R3   .       MWD ARC, RUN 7:  Remarks
TAPE_NAME.     WLC_PETROPHYSICAL_COMPOSITE_1.LIS:  
TOOL_STRING.                 EDIT:  
WN   .             15/9-F-7:  Well Name
PROJECT.     SLEIPNER_OST@st-vlinapp01:  
SET  .     WLC_PETROPHYSICAL_COMPOSITE:  
~Other Information Block
# 
~A       DEPTH           A28H           A34H           A40H            GRA           GRM1           P16H           P16L           P22H           P22L           P28H           P28L           P34H           P34L           P40H           P40L           ROP5           SHK1           TABA 
# ...
    1004.31600         0.8195         0.8161         0.8073        36.2389      -999.2500         0.7280         0.7656         0.7477         0.7869         0.7640         0.8003         0.7770         0.8000         0.7914         0.7937        43.1993         0.0000       460.0000
    1004.46840         0.8003         0.8019         0.7932        36.6977      -999.2500         0.7298         0.7662         0.7545         0.7871         0.7726         0.8000         0.7807         0.8022         0.7868         0.8013        42.9229         0.0000       460.0000
    1004.62080         0.8090         0.8106         0.7967        36.1484      -999.2500         0.7295         0.7696         0.7564         0.7883         0.7751         0.8029         0.7842         0.8069         0.7938         0.8038        42.8615         0.0000       460.0000
    1004.77320         0.8126         0.8276         0.8328        35.3515      -999.2500         0.7194         0.7604         0.7412         0.7842         0.7609         0.8036         0.7747         0.8124         0.7857         0.8145        43.1993         0.0000       460.0000
    1004.92560         0.8275         0.8351         0.8263        34.3132      -999.2500         0.7104         0.7697         0.7387         0.7900         0.7616         0.8087         0.7726         0.8172         0.7792         0.8165        43.1993         0.0000       460.0000
    1005.07800         0.8488         0.8612         0.8590        34.0114      -999.2500         0.7482         0.8004         0.7786         0.8268         0.8059         0.8499         0.8179         0.8598         0.8188         0.8592        43.3900         0.0000       470.0000
    1005.23040         0.8937         0.9019         0.8946        36.4442      -999.2500         0.7768         0.8294         0.7978         0.8579         0.8144         0.8786         0.8253         0.8856         0.8360         0.8859        44.2259         0.0000       470.0000
    1005.38280         0.9233         0.9323         0.9329        40.9597      -999.2500         0.7974         0.8718         0.8303         0.8996         0.8490         0.9196         0.8516         0.9270         0.8546         0.9291        44.8580         0.0000       470.0000
    1005.53520         0.9621         0.9644         0.9677        46.7611      -999.2500         0.8391         0.9188         0.8692         0.9486         0.8858         0.9689         0.8900         0.9786         0.8972         0.9865        45.9249         0.0000       470.0000
    1005.68760         1.2214         1.2038         1.1939        52.8402      -999.2500         0.9503         1.0855         1.0109         1.1405         1.0394         1.1536         1.0520         1.1544         1.0867         1.1832        45.8776         0.4000       470.0000
    1005.84000         1.3636         1.3246         1.3124        60.4767      -999.2500         1.2070         1.2875         1.2913         1.3419         1.3324         1.3493         1.3598         1.3461         1.4294         1.3755        44.3396         0.0000       470.0000
    1005.99240         1.5506         1.5238         1.5130        69.8579      -999.2500         1.6184         1.6405         1.6711         1.6310         1.7123         1.6131         1.7541         1.6077         1.8129         1.6229        43.6643         0.0000       470.0000
    1006.14480         1.6194         1.5948         1.5672        79.5409      -999.2500         1.6954         1.7354         1.7129         1.6955         1.7307         1.6654         1.7614         1.6487         1.8063         1.6399        43.0849         0.0000       460.0000
    1006.29720         1.5965         1.5664         1.5461        85.7589      -999.2500         1.6852         1.7667         1.6974         1.7144         1.7282         1.6778         1.7641         1.6583         1.7855         1.6462        41.7771         0.0000       460.0000
    1006.44960         1.6187         1.5760         1.5218        87.9865      -999.2500         1.6363         1.7380         1.6726         1.7028         1.6939         1.6695         1.6976         1.6424         1.6999         1.6230        41.8214         0.0000       470.0000
    1006.60200         1.5667         1.5100         1.4623        85.4510      -999.2500         1.5493         1.6408         1.5965         1.6226         1.6333         1.6083         1.6437         1.5810         1.6400         1.5405        42.3492         0.0000       470.0000
    1006.75440         1.5167         1.4844         1.4394        82.6740      -999.2500         1.4541         1.5171         1.4971         1.5381         1.5244         1.5438         1.5314         1.5155         1.5339         1.4683        42.5289         0.0000       470.0000
    1006.90680         1.3609         1.3463         1.3153        76.1785      -999.2500         1.2647         1.3369         1.2903         1.3559         1.3136         1.3617         1.3346         1.3495         1.3567         1.3316        42.5289         0.0000       480.0000
    1007.05920         1.2948         1.2626         1.2168        68.3366      -999.2500         1.1621         1.2271         1.1762         1.2478         1.1937         1.2594         1.2157         1.2542         1.2396         1.2406        42.7260         0.0000       480.0000
    1007.21160         1.1258         1.1336         1.1170        59.8549      -999.2500         1.0181         1.0541         1.0338         1.0862         1.0412         1.1014         1.0421         1.0989         1.0452         1.0944        43.7828         0.0000       490.0000
    1007.36400         1.0651         1.0651         1.0479        55.9250      -999.2500         0.9255         0.9917         0.9607         1.0253         0.9800         1.0417         0.9862         1.0410         0.9975         1.0391        45.8729         0.0000       490.0000
    1007.51640         1.0252         1.0089         0.9870        53.7819      -999.2500         0.9033         0.9505         0.9208         0.9789         0.9354         0.9939         0.9545         0.9958         0.9828         0.9973        48.1149         0.0000       490.0000
    1007.66880         0.9245         0.9309         0.9299        52.1761      -999.2500         0.8453         0.8813         0.8769         0.9096         0.8985         0.9230         0.9076         0.9259         0.9166         0.9328        50.6241         0.0000       500.0000
    1007.82120         0.8967         0.9018         0.8960        47.3044      -999.2500         0.8267         0.8527         0.8525         0.8764         0.8694         0.8880         0.8796         0.8904         0.8939         0.8951        50.6707         0.0000       490.0000
    1007.97360         0.8348         0.8367         0.8369        43.6461      -999.2500         0.7540         0.7873         0.7666         0.8110         0.7771         0.8236         0.7876         0.8247         0.8009         0.8248        49.0834         0.0000       590.0000
    1008.12600         0.8399         0.8454         0.8510        40.1568      -999.2500         0.7496         0.7913         0.7673         0.8103         0.7799         0.8205         0.7866         0.8220         0.7933         0.8230        48.5468         0.6000       580.0000
    1008.27840         0.8186         0.8225         0.8233        38.5208      -999.2500         0.7393         0.7785         0.7606         0.8007         0.7736         0.8112         0.7801         0.8111         0.7899         0.8117        47.1518         0.4000       580.0000
    1008.43080         0.8067         0.8147         0.8144        35.8948      -999.2500         0.7306         0.7730         0.7527         0.7950         0.7694         0.8051         0.7795         0.8039         0.7898         0.8028        45.8643         0.0000       590.0000
    1008.58320         0.8023         0.8017         0.8053        34.4701      -999.2500         0.7319         0.7796         0.7619         0.7976         0.7865         0.8038         0.8002         0.8014         0.8103         0.8016        44.7027         1.2000       590.0000
