~Version Information Block
VERS .                 2.00:  CWLS LOG ASCII STANDARD - VERSION 2.00
WRAP .                   NO:  One line per depth step
~Well Information Block
#MNEM.UNIT        Data Type   Information
#---------- ----------------  -----------
STRT .M           239.72520:  START DEPTH
STOP .M          1083.56400:  STOP DEPTH
STEP .M             0.15240:  STEP
NULL .              -999.25:  NULL VALUE
COMP .                     :  COMPANY
WELL .           TEST_SAMAP:  WELL
FLD  .                     :  FIELD
LOC  .                     :  LOCATION
CTRY .                     :  COUNTRY
STAT .               Norway:  STATE
CNTY .                     :  COUNTY
SRVC .                     :  SERVICE COMPANY
DATE .                     :  DATE
API  .                     :  API NUMBER
UWI  .                     :  UNIQUE WELL ID
LATI .     058 26' 29.869" N    DMS:  LATITUDE
LONG .     001 53' 14.858" E    DMS:  LONGITUDE
~Curve Information Block
#MNEM.UNIT         API CODE   Curve Description
#---------- ----------------  -----------------
DEPTH.M                    :  
A28H .OHMM                0:  
A34H .OHMM                0:  
A40H .OHMM                0:  
GRA  .GAPI                0:  
GRM1 .GAPI                0:  
P16H .OHMM                0:  
P16L .OHMM                0:  
P22H .OHMM                0:  
P22L .OHMM                0:  
P28H .OHMM                0:  
P28L .OHMM                0:  
P34H .OHMM                0:  
P34L .OHMM                0:  
P40H .OHMM                0:  
P40L .OHMM                0:  
ROP5 .M/HR                0:  
SHK1 .1/S                 0:  
TABA .S                   0:  
~Parameter Information Block
#MNEM.UNIT            Value   Description
#---------- ----------------  -----------
APD  .M             1394.46:  Above Perm. Datum
CN   .              Statoil:  Company
COUN .      Maersk Inspirer:  County or Rig name
EDF  .M                54.9:  Elevation DF (wrt EPD)
EGL  .M                 -91:  Elevation GL (wrt EPD)
ELZ  .M                54.9:  Elev. Log Zero (wrt EPD)
EPD  .M                   0:  Elevation Perm. Datum
FL   .     Norwegian North Sea:  Field Location
FN   .                Volve:  Field
LMF  .                   DF:  Log measured from
MP   .                   DF:  Drill measured from
PD   .       Mean Sea Level:  Perm. Datum
R1   .     PETROPHYSICAL COMPOSITE DATA INC.::  Remarks
R2   .     MWD POWERPULSE, RUN 6:  Remarks
R3   .       MWD ARC, RUN 7:  Remarks
TAPE_NAME.     WLC_PETROPHYSICAL_COMPOSITE_1.LIS:  
TOOL_STRING.                 EDIT:  
WN   .             15/9-F-7:  Well Name
PROJECT.     SLEIPNER_OST@st-vlinapp01:  
SET  .     WLC_PETROPHYSICAL_COMPOSITE:  
~Other Information Block
# 
~A       DEPTH           A28H           A34H           A40H            GRA           GRM1           P16H           P16L           P22H           P22L           P28H           P28L           P34H           P34L           P40H           P40L           ROP5           SHK1           TABA 
# ...
     946.86120         0.8337         0.8446         0.8637        36.7642      -999.2500         0.7741         0.8079         0.7947         0.8297         0.8091         0.8382         0.8188         0.8412         0.8315         0.8515        59.1730         0.0000       400.0000
     947.01360         0.8392         0.8413         0.8460        37.2592      -999.2500         0.7823         0.8098         0.7993         0.8245         0.8074         0.8315         0.8092         0.8340         0.8145         0.8394        59.4014         0.0000       400.0000
     947.16600         0.8489         0.8482         0.8426        37.7421      -999.2500         0.7745         0.8123         0.7993         0.8297         0.8129         0.8362         0.8125         0.8316         0.8105         0.8265        59.6319         0.0000       400.0000
     947.31840         0.8542         0.8488         0.8394        38.2734      -999.2500         0.7789         0.8172         0.8005         0.8325         0.8183         0.8400         0.8289         0.8382         0.8371         0.8347        59.6362         0.0000       400.0000
     947.47080         0.8553         0.8596         0.8581        37.4946      -999.2500         0.7862         0.8217         0.8037         0.8320         0.8168         0.8393         0.8234         0.8398         0.8287         0.8362        59.6362         0.0000       400.0000
     947.62320         0.8558         0.8444         0.8338        34.6936      -999.2500         0.7737         0.8107         0.7875         0.8276         0.7992         0.8363         0.8095         0.8333         0.8213         0.8262        59.3986         0.0000       400.0000
     947.77560         0.8349         0.8351         0.8280        31.6148      -999.2500         0.7682         0.8088         0.7853         0.8233         0.7987         0.8309         0.8074         0.8292         0.8160         0.8246        59.1652         0.0000       410.0000
     947.92800         0.8280         0.8243         0.8169        30.0331      -999.2500         0.7787         0.8101         0.7950         0.8262         0.8043         0.8342         0.8124         0.8317         0.8274         0.8261        59.6334         0.0000       410.0000
     948.08040         0.8362         0.8409         0.8412        30.7394      -999.2500         0.7689         0.8128         0.7960         0.8318         0.8143         0.8407         0.8203         0.8351         0.8245         0.8248        59.6391         0.0000       410.0000
     948.23280         0.8467         0.8419         0.8292        32.5384      -999.2500         0.7995         0.8261         0.8104         0.8399         0.8175         0.8456         0.8224         0.8432         0.8295         0.8403        59.6319         0.0000       410.0000
     948.38520         0.8639         0.8536         0.8426        34.3495      -999.2500         0.7769         0.8172         0.7952         0.8351         0.8081         0.8454         0.8194         0.8443         0.8358         0.8390        59.6319         0.0000       410.0000
     948.53760         0.8722         0.8634         0.8446        35.9613      -999.2500         0.7937         0.8264         0.8046         0.8411         0.8099         0.8491         0.8165         0.8481         0.8305         0.8444        59.6391         0.0000       420.0000
     948.69000         0.8531         0.8627         0.8708        37.9051      -999.2500         0.7956         0.8323         0.8165         0.8471         0.8300         0.8543         0.8346         0.8530         0.8386         0.8502        59.6334         0.0000       420.0000
     948.84240         0.8610         0.8523         0.8394        40.6881      -999.2500         0.8039         0.8306         0.8102         0.8452         0.8181         0.8524         0.8304         0.8517         0.8460         0.8501        59.6319         0.0000       420.0000
     948.99480         0.8614         0.8539         0.8490        43.6522      -999.2500         0.7619         0.8129         0.7800         0.8337         0.7914         0.8421         0.7989         0.8393         0.8102         0.8372        59.6370         0.0000       420.0000
     949.14720         0.8451         0.8454         0.8417        45.5658      -999.2500         0.8020         0.8305         0.8119         0.8482         0.8192         0.8558         0.8310         0.8501         0.8506         0.8409        59.6398         0.0000       420.0000
     949.29960         0.8672         0.8619         0.8535        43.3503      -999.2500         0.8082         0.8399         0.8256         0.8535         0.8380         0.8612         0.8452         0.8599         0.8533         0.8546        59.6362         0.0000       430.0000
     949.45200         0.8470         0.8510         0.8576        39.6498      -999.2500         0.8129         0.8338         0.8261         0.8498         0.8331         0.8580         0.8359         0.8594         0.8413         0.8611        59.6319         0.0000       460.0000
     949.60440         0.8683         0.8621         0.8473        35.2006      -999.2500         0.7961         0.8345         0.8147         0.8503         0.8254         0.8576         0.8314         0.8548         0.8416         0.8498        59.6348         0.0000       460.0000
     949.75680         0.8549         0.8478         0.8331        33.1180      -999.2500         0.8094         0.8428         0.8220         0.8538         0.8306         0.8573         0.8376         0.8513         0.8477         0.8427        59.6377         0.0000       470.0000
     949.90920         0.8578         0.8578         0.8503        31.0775      -999.2500         0.8020         0.8333         0.8203         0.8460         0.8324         0.8521         0.8369         0.8495         0.8409         0.8444        59.6319         0.0000       470.0000
     950.06160         0.8800         0.8740         0.8636        30.6670      -999.2500         0.7824         0.8226         0.7955         0.8361         0.8070         0.8444         0.8144         0.8439         0.8194         0.8396        59.6319         0.0000       470.0000
     950.21400         0.8481         0.8483         0.8496        31.5484      -999.2500         0.7668         0.8108         0.7824         0.8265         0.7952         0.8352         0.8029         0.8347         0.8091         0.8316        59.6319         0.0000       480.0000
     950.36640         0.8416         0.8399         0.8334        32.6290      -999.2500         0.7579         0.7970         0.7737         0.8199         0.7882         0.8332         0.7978         0.8320         0.8042         0.8252        59.6319         0.0000       490.0000
     950.51880         0.8396         0.8406         0.8403        32.1219      -999.2500         0.7548         0.7995         0.7754         0.8211         0.7907         0.8311         0.7999         0.8281         0.8093         0.8234        59.1068         0.0000       490.0000
     950.67120         0.8448         0.8383         0.8258        30.8179      -999.2500         0.7635         0.7955         0.7797         0.8176         0.7893         0.8308         0.7989         0.8321         0.8164         0.8299        59.5036         0.0000       500.0000
     950.82360         0.8402         0.8369         0.8271        30.0512      -999.2500         0.7654         0.7954         0.7788         0.8189         0.7907         0.8305         0.8012         0.8290         0.8126         0.8259        59.6377         0.0000       500.0000
     950.97600         0.8436         0.8412         0.8281        30.3591      -999.2500         0.7672         0.7983         0.7908         0.8211         0.8030         0.8335         0.8067         0.8317         0.8146         0.8257        59.6348         0.0000       510.0000
     951.12840         0.8547         0.8503         0.8348        29.3329      -999.2500         0.7826         0.8048         0.7927         0.8239         0.7972         0.8362         0.8036         0.8391         0.8183         0.8387        59.6319         0.0000       510.0000
