~VERSION INFORMATION
 VERS.                 2.0:   CWLS LOG ASCII STANDARD -VERSION 2.0
 WRAP.                  NO:   ONE LINE PER DEPTH STEP
~WELL INFORMATION BLOCK
#MNEM.UNIT           DATA                DESCRIPTION OF MNEMONIC
#---------    -------------------        -------------------------------
 STRT.M                     197.90          :START DEPTH
 STOP.M                    3465.97          :STOP DEPTH
 STEP.M                     0.1524          :STEP
 NULL.                     -999.25          :NULL VALUE
 COMP.                                      :COMPANY
 WELL.                  15/9-F-1 B          :WELL
 FLD.                        VOLVE          :FIELD
 LOC.                                       :LOCATION
 CNTY.                                      :COUNTY
 STAT.                                      :STATE
 CTRY.                                      :COUNTRY
 SRVC.                                      :SERVICE COMPANY
 DATE.                   17-Apr-20          :DATE
 UWI.                   15/9-F-1 B          :UNIQUE WELL ID
 ELEVREF.                       KB          :REFERENCE ELEVATION
 ELEV.M                      54.90          :ELEVATION
 XCOORD.                435046.531          :SURFACE X
 YCOORD.               6478567.000          :SURFACE Y
~CURVE INFORMATION      
#MNEM.UNIT      API CODE      CURVE DESCRIPTION
#---------    -------------   ------------------------------
DEPT.M                        : Depth
CALI.in                       : CALI
RDEP.-                        : Deep Resistivity
DEN.-                         : Density of correlated events
DENC.-                        : DENC
ROP.-                         : ROP
GR.API                        : smoothed gr
RMED.-                        : Medium Resistivity
NEU.-                         : NEU
PEF.b/e                       : Photoelectric Factor
BS.-                          : Bit Size
AC.µs/ft                      : Sonic Transit Time (Slowness)
ACS.µs/ft                     : ACS
~PARAMETER INFORMATION
#MNEM.UNIT           DATA                 DESCRIPTION OF MNEMONIC
#---------         -----------         ------------------------------
~A   DEPT          CALI          RDEP           DEN          DENC           ROP            GR          RMED           NEU           PEF            BS            AC           ACS
# ...
     3001.45        -999.25         2.9763        -999.25        -999.25        29.9699        16.4277         3.2292        -999.25        -999.25          12.25         69.405       134.3781
     3001.60        -999.25         2.9649        -999.25        -999.25        29.9685        13.1634         3.1968        -999.25        -999.25          12.25        69.7558       135.2339
     3001.76        -999.25         2.9516        -999.25        -999.25        29.9653        13.9611         3.1734        -999.25        -999.25          12.25        69.7955       135.4119
     3001.91        -999.25         2.7146        -999.25        -999.25        29.9838        19.4782         2.6735        -999.25        -999.25          12.25        69.6826       135.2226
     3002.06        -999.25         2.7856        -999.25        -999.25        30.0056        19.6771         2.8443        -999.25        -999.25          12.25        69.6852        134.975
     3002.21        -999.25         2.8694        -999.25        -999.25        30.0209        21.4012         3.0068        -999.25        -999.25          12.25        69.3944       134.4789
     3002.36        -999.25         2.8559        -999.25        -999.25        30.0144        20.9772         2.9985        -999.25        -999.25          12.25        69.4703       134.5236
     3002.52        -999.25         2.8505        -999.25        -999.25        30.0015        21.9294          2.993        -999.25        -999.25          12.25        69.7777       135.7163
     3002.67        -999.25         2.7031        -999.25        -999.25        29.9951         23.302         2.7004        -999.25        -999.25          12.25        70.1136       136.6835
     3002.82        -999.25         2.7064        -999.25        -999.25        29.9822        21.0617         2.7031        -999.25        -999.25          12.25        71.1054       138.9977
     3002.97        -999.25         2.8921        -999.25        -999.25        29.9756        19.4103         3.0816        -999.25        -999.25          12.25          71.37        140.011
     3003.13        -999.25         2.9975        -999.25        -999.25        29.9625        18.6309         3.1933        -999.25        -999.25          12.25        72.0398       141.1032
     3003.28        -999.25         3.0209        -999.25        -999.25         29.956        18.2595         3.1933        -999.25        -999.25          12.25        71.8218        141.237
     3003.43        -999.25          3.015        -999.25        -999.25        29.9431         17.865         3.0424        -999.25        -999.25          12.25        70.9754       140.6676
     3003.58        -999.25         3.1071        -999.25        -999.25        29.9367        17.7962         3.1915        -999.25        -999.25          12.25        70.5406       140.1853
     3003.74        -999.25         3.1834        -999.25        -999.25         29.952         17.725         3.3732        -999.25        -999.25          12.25        70.6322       138.9252
     3003.89        -999.25         3.1845        -999.25        -999.25        29.9737        17.4872         3.3651        -999.25        -999.25          12.25        70.6549       138.1417
     3004.04        -999.25         3.2081        -999.25        -999.25        29.9889        17.3407         3.3903        -999.25        -999.25          12.25        70.6867       136.0796
     3004.19        -999.25         3.2484        -999.25        -999.25        29.9824        18.7477         3.4243        -999.25        -999.25          12.25        70.5254       134.8505
     3004.35        -999.25         3.2167        -999.25        -999.25        29.9694        19.0058         3.3484        -999.25        -999.25          12.25        70.4497       132.2336
     3004.50        -999.25         3.2332        -999.25        -999.25         29.963         19.505         3.3558        -999.25        -999.25          12.25        70.4653       131.5205
     3004.65        -999.25         3.3098        -999.25        -999.25        29.9528        16.6198         3.5312        -999.25        -999.25          12.25         70.524       131.5073
     3004.80        -999.25         3.1845        -999.25        -999.25        29.9455        15.3899         3.3195        -999.25        -999.25          12.25         70.663       131.2196
     3004.96        -999.25         3.1973        -999.25        -999.25        29.9644        15.9913         3.3297        -999.25        -999.25          12.25        70.7056       131.1375
     3005.11        -999.25         3.1887        -999.25        -999.25        30.0023         17.068         3.3048        -999.25        -999.25          12.25        70.7415       131.3616
     3005.26        -999.25         3.1654        -999.25        -999.25        29.9958        17.8625         3.2739        -999.25        -999.25          12.25        70.7454       131.7057
     3005.41        -999.25         3.0887        -999.25        -999.25        29.9828        17.1106          3.119        -999.25        -999.25          12.25        70.6211       132.6465
     3005.57        -999.25         3.0887        -999.25        -999.25        29.9792        17.6854         3.1165        -999.25        -999.25          12.25        70.5571       132.6078
     3005.72        -999.25         3.0746        -999.25        -999.25        29.9719        18.3584         3.0644        -999.25        -999.25          12.25        70.4271       131.2213
     3005.87        -999.25         3.0298        -999.25        -999.25        29.9654        17.4422          2.975        -999.25        -999.25          12.25        70.3835       130.8004
     3006.02        -999.25         3.1381        -999.25        -999.25        29.9524        15.8576         3.1915        -999.25        -999.25          12.25        70.5056        130.429
     3006.17        -999.25         3.1339        -999.25        -999.25        29.9459        16.2841         3.1734        -999.25        -999.25          12.25        70.6164       131.1823
     3006.33        -999.25         3.1133        -999.25        -999.25         29.933        18.2884         3.0923        -999.25        -999.25          12.25        70.6503       132.8749
     3006.48        -999.25         3.1507        -999.25        -999.25        29.9265        17.6372          3.136        -999.25        -999.25          12.25        70.6524       133.5337
     3006.63        -999.25         3.1823        -999.25        -999.25        29.9136        12.1396         3.1156        -999.25        -999.25          12.25        70.5398       134.1712
     3006.78        -999.25         3.1931        -999.25        -999.25        29.9353          11.92         3.1081        -999.25        -999.25          12.25        70.5042       134.3172
     3006.94        -999.25         3.3807        -999.25        -999.25        29.9787        12.5981         3.3667        -999.25        -999.25          12.25        70.5481       134.6821
     3007.09        -999.25          3.492        -999.25        -999.25        29.9722        11.8466           3.57        -999.25        -999.25          12.25        70.6366       134.9068
     3007.24        -999.25         3.7218        -999.25        -999.25        29.9593        10.0756         3.9566        -999.25        -999.25          12.25        70.8497       135.3085
     3007.39        -999.25         3.8993        -999.25        -999.25        29.9528         9.9625         4.3195        -999.25        -999.25          12.25        70.8079        135.033
     3007.55        -999.25         3.9543        -999.25        -999.25        29.9399         9.8957          4.339        -999.25        -999.25          12.25        70.1327       133.2503
     3007.70        -999.25         3.9588        -999.25        -999.25        29.9337        10.3463         4.2405        -999.25        -999.25          12.25        69.5267       131.4454
