~VERSION INFORMATION
 VERS.                 2.0:   CWLS LOG ASCII STANDARD -VERSION 2.0
 WRAP.                  NO:   ONE LINE PER DEPTH STEP
~WELL INFORMATION BLOCK
#MNEM.UNIT           DATA                DESCRIPTION OF MNEMONIC
#---------    -------------------        -------------------------------
 STRT.M                     197.90          :START DEPTH
 STOP.M                    3465.97          :STOP DEPTH
 STEP.M                     0.1524          :STEP
 NULL.                     -999.25          :NULL VALUE
 COMP.                                      :COMPANY
 WELL.                  15/9-F-1 B          :WELL
 FLD.                        VOLVE          :FIELD
 LOC.                                       :LOCATION
 CNTY.                                      :COUNTY
 STAT.                                      :STATE
 CTRY.                                      :COUNTRY
 SRVC.                                      :SERVICE COMPANY
 DATE.                   17-Apr-20          :DATE
 UWI.                   15/9-F-1 B          :UNIQUE WELL ID
 ELEVREF.                       KB          :REFERENCE ELEVATION
 ELEV.M                      54.90          :ELEVATION
 XCOORD.                435046.531          :SURFACE X
 YCOORD.               6478567.000          :SURFACE Y
~CURVE INFORMATION      
#MNEM.UNIT      API CODE      CURVE DESCRIPTION
#---------    -------------   ------------------------------
DEPT.M                        : Depth
CALI.in                       : CALI
RDEP.-                        : Deep Resistivity
DEN.-                         : Density of correlated events
DENC.-                        : DENC
ROP.-                         : ROP
GR.API                        : smoothed gr
RMED.-                        : Medium Resistivity
NEU.-                         : NEU
PEF.b/e                       : Photoelectric Factor
BS.-                          : Bit Size
AC.µs/ft                      : Sonic Transit Time (Slowness)
ACS.µs/ft                     : ACS
~PARAMETER INFORMATION
#MNEM.UNIT           DATA                 DESCRIPTION OF MNEMONIC
#---------         -----------         ------------------------------
~A   DEPT          CALI          RDEP           DEN          DENC           ROP            GR          RMED           NEU           PEF            BS            AC           ACS
# ...
     3411.10         8.6976         1.0731         2.5189         0.0806        30.0092        47.1828         0.8975         0.1669         6.2963           8.50        75.4846       133.2652
     3411.25         8.6976         1.0759         2.4955         0.0811        29.9931        44.6713          0.927         0.1746         6.0832           8.50        75.9459       134.1192
     3411.41         8.6806         1.1759         2.4424         0.0661        29.9877        45.5234         1.1043         0.1874         5.6363           8.50         76.338       134.5469
     3411.56         8.6976         1.2418         2.4261         0.0557        29.9985        48.8914         1.2002         0.1846         5.5632           8.50         76.205       134.0588
     3411.71         8.6976         1.3543         2.4286         0.0436         29.994        54.7599         1.4428         0.1789          5.613           8.50        75.6509       131.5414
     3411.86          8.613         1.4172         2.4404         0.0414        29.9788        55.0469         1.5733         0.1738         5.5907           8.50        75.2736       130.1773
     3412.02          8.613         1.4687         2.4731         0.0445        29.9759        56.1444         1.6743         0.1599         5.4929           8.50         74.673        127.845
     3412.17         8.5791         1.4616         2.4916         0.0502         29.988        55.0355         1.6699         0.1607         5.5709           8.50        74.4478       127.1314
     3412.32         8.7483         1.3866         2.5105         0.0632        29.9857        55.2324         1.4375         0.1555          6.075           8.50        74.3289       129.4308
     3412.47         8.7229         1.3138         2.5057         0.0662        29.9712        55.5338         1.2997         0.1631         6.3278           8.50        74.4192       130.6451
     3412.63         8.6976         1.2764         2.4847         0.0626        29.9691          57.20         1.2585         0.1686         6.3246           8.50        74.8371       133.1237
     3412.78         8.7483         1.2712         2.4738         0.0569        29.9816        56.6208         1.2522         0.1727         6.0601           8.50        75.1872       134.0392
     3412.93         8.6637         1.2072         2.4548         0.0472        29.9795        54.2407         1.0946         0.1855         5.4811           8.50         75.548       135.7377
     3413.08         8.6976         1.1987         2.4477         0.0453        29.9649        54.8993         1.0604         0.1849         5.2973           8.50        75.6461       135.9297
     3413.24         8.6637         1.2801         2.4345          0.038        29.9625        50.8094         1.2622         0.1799         5.0974           8.50        75.4045       134.0134
     3413.39         8.5791         1.3348         2.4326         0.0326        29.9748        52.2364         1.3704         0.1787         5.0392           8.50        75.1397         132.82
     3413.54         8.5537         1.3612         2.4513         0.0318        29.9725        48.8432         1.3807         0.1722         4.9294           8.50        74.5713       130.8654
     3413.69         8.5791         1.3503         2.4661          0.037         29.958        48.6936         1.3428         0.1667         4.9004           8.50        74.3551       129.3844
     3413.84         8.6976         1.3745          2.481         0.0478        29.9617        56.2454         1.3245         0.1671         5.0702           8.50        73.8803       127.5376
     3414.00          8.613         1.4306           2.48           0.05        29.9799        58.7562         1.4288         0.1701         5.2663           8.50        73.6811       126.2246
     3414.15         8.5791         1.4896         2.4754         0.0484        29.9914        61.1893         1.5913         0.1689         5.5305           8.50        73.3201       128.7187
     3414.30         8.5791          1.538         2.4849         0.0466        29.9777        61.2526         1.7534         0.1593         5.4086           8.50         73.744       129.8874
     3414.45         8.5791          1.537         2.4934         0.0462        29.9711        55.9759         1.7606          0.157         5.3366           8.50         73.948       129.7014
     3414.61          8.613          1.452         2.5023          0.047        29.9578        52.0541         1.6351         0.1558         5.2717           8.50         74.314       128.3399
     3414.76         8.5791         1.3875         2.4976         0.0473        29.4748        54.0448         1.5272         0.1616          5.203           8.50        74.5012       127.9947
     3414.91          8.613         1.2284         2.4742         0.0446        28.5088        59.2243         1.2084         0.1723         4.9931           8.50        74.9576       130.7554
     3415.06         8.5791         1.2255         2.4623         0.0427        28.1273        59.3029         1.2233          0.182         4.9341           8.50        75.3245       132.4528
     3415.22         8.5791         1.2473         2.4499         0.0414        27.3643        63.8219         1.3759         0.1855          5.094           8.50         76.117       135.2352
     3415.37         8.6806         1.2239         2.4497         0.0413        27.0817        60.5903         1.3694         0.1823         5.2713           8.50        76.6292       136.1254
     3415.52         8.5791         1.1144         2.4562         0.0422        26.5165        52.7343          1.126          0.188         5.3664           8.50        77.4355        136.439
     3415.67         8.5791         1.0152         2.4544         0.0438        26.2352        48.9684         0.9305         0.1904         5.2497           8.50        77.4613       136.7237
     3415.83         8.5791         1.0031         2.4268         0.0431        25.6727        51.4318         0.8919         0.1965          5.138           8.50        77.2322       137.0993
     3415.98         8.5791         1.0508         2.4126         0.0403        25.6961        51.8725         0.9622         0.1962         5.2181           8.50        76.9574       137.2278
     3416.13         8.6637         1.1517         2.4233         0.0402        25.7429        56.8187         1.2495         0.1815         5.6824           8.50        76.8996       135.8892
     3416.28         8.6637         1.2072          2.447         0.0435        25.7847        57.1196         1.5216         0.1719         6.0227           8.50        76.8232       135.0768
     3416.44         8.6976           1.13         2.4946         0.0564        25.8683        47.8114         1.4811         0.1643         6.3739           8.50        77.3846       134.4879
     3416.59         8.6976         0.9424         2.4999          0.066        25.9339        41.9196         0.8655         0.1689         6.2732           8.50        77.9471       134.8379
     3416.74         8.6637         0.7497         2.4493         0.0718         26.065        40.4004         0.5988         0.1916          5.707           8.50        78.6988       136.8471
     3416.89         8.6383         0.7977         2.4105         0.0635        26.0868        39.5308         0.6865         0.2008         5.4369           8.50        78.7848       137.3891
     3417.05         8.6637         0.9149         2.3736         0.0475        26.1305        39.4416         0.8497         0.1868         5.3762           8.50        78.0313       135.9444
     3417.20         8.6976         1.0422         2.3821         0.0464        26.3163        42.1673         1.0806         0.1809         5.5345           8.50        77.4421       133.9621
     3417.35         8.6976         1.1531         2.4219         0.0497        26.6878        46.6621         1.3532         0.1697         5.8118           8.50        76.3604       131.2922
