~VERSION INFORMATION
 VERS.                 2.0:   CWLS LOG ASCII STANDARD -VERSION 2.0
 WRAP.                  NO:   ONE LINE PER DEPTH STEP
~WELL INFORMATION BLOCK
#MNEM.UNIT           DATA                DESCRIPTION OF MNEMONIC
#---------    -------------------        -------------------------------
 STRT.M                     197.90          :START DEPTH
 STOP.M                    3465.97          :STOP DEPTH
 STEP.M                     0.1524          :STEP
 NULL.                     -999.25          :NULL VALUE
 COMP.                                      :COMPANY
 WELL.                  15/9-F-1 B          :WELL
 FLD.                        VOLVE          :FIELD
 LOC.                                       :LOCATION
 CNTY.                                      :COUNTY
 STAT.                                      :STATE
 CTRY.                                      :COUNTRY
 SRVC.                                      :SERVICE COMPANY
 DATE.                   17-Apr-20          :DATE
 UWI.                   15/9-F-1 B          :UNIQUE WELL ID
 ELEVREF.                       KB          :REFERENCE ELEVATION
 ELEV.M                      54.90          :ELEVATION
 XCOORD.                435046.531          :SURFACE X
 YCOORD.               6478567.000          :SURFACE Y
~CURVE INFORMATION      
#MNEM.UNIT      API CODE      CURVE DESCRIPTION
#---------    -------------   ------------------------------
DEPT.M                        : Depth
CALI.in                       : CALI
RDEP.-                        : Deep Resistivity
DEN.-                         : Density of correlated events
DENC.-                        : DENC
ROP.-                         : ROP
GR.API                        : smoothed gr
RMED.-                        : Medium Resistivity
NEU.-                         : NEU
PEF.b/e                       : Photoelectric Factor
BS.-                          : Bit Size
AC.µs/ft                      : Sonic Transit Time (Slowness)
ACS.µs/ft                     : ACS
~PARAMETER INFORMATION
#MNEM.UNIT           DATA                 DESCRIPTION OF MNEMONIC
#---------         -----------         ------------------------------
~A   DEPT          CALI          RDEP           DEN          DENC           ROP            GR          RMED           NEU           PEF            BS            AC           ACS
# ...
     3129.47         8.5791         1.9383         2.5533         0.0475        14.9207        42.8735         1.9497         0.1528         6.4682           8.50        82.7214       155.2985
     3129.62          8.613         1.9206         2.5477         0.0489        14.9796        40.6839         1.9206         0.1512         6.4276           8.50         82.971       156.6816
     3129.77         8.6637         1.8955          2.543          0.049        14.9748         39.822           1.87         0.1524         6.5352           8.50        83.2593        157.754
     3129.92          8.613         1.8782          2.536         0.0486         14.965        42.2025         1.8575         0.1555         6.7694           8.50        83.7178       161.1419
     3130.08         8.6383         1.8943         2.5354         0.0488        14.9757        42.1294         1.8993         0.1524         6.8735           8.50        83.9728       162.7024
     3130.23         8.6637         1.8988         2.5407         0.0515         14.997        43.2209         1.9252         0.1569         7.0067           8.50        84.4661       164.2001
     3130.38         8.6637         1.8899         2.5441         0.0539         14.988        44.9729          1.905         0.1628         7.0199           8.50        84.7128       164.0991
     3130.53         8.6637         1.7679         2.5414         0.0521        14.9699        49.3989         1.6368          0.174         6.9401           8.50        84.5131       162.3216
     3130.69         8.6976          1.758         2.5365          0.048        14.9623        49.3306         1.5962         0.1762         6.8837           8.50        84.1812       161.1537
     3130.84         8.6637         1.8642         2.5319         0.0426         14.947        44.8596         1.8277         0.1703         6.7718           8.50        83.1876       158.8969
     3130.99         8.6637         1.9079         2.5336         0.0439        14.9527        41.7041         1.9162         0.1622         6.7449           8.50        82.4083        157.979
     3131.14         8.6637         1.9614         2.5406         0.0528        14.9641        38.0473         2.0104         0.1466         6.9851           8.50        80.9905       156.9273
     3131.30         8.6637         1.9772          2.543         0.0557        14.9464        37.9367         2.0428         0.1443         7.1973           8.50        80.0199       156.6773
     3131.45         8.6637          1.969         2.5422         0.0527        14.9111         39.493         1.9766         0.1505         7.3257           8.50        81.3004       156.4146
     3131.60         8.6637         1.9792         2.5428         0.0511        14.9073        39.9857         1.9863         0.1539         7.2797           8.50        81.5797       156.2901
     3131.75         8.6976         1.9721         2.5486         0.0514        14.8997        39.0009         1.9485         0.1567          7.268           8.50        82.6139       156.1312
     3131.90         8.6637         2.0052         2.5495         0.0481        14.8923        40.4517         2.0016          0.158         7.3221           8.50        82.8483       156.2018
     3132.06         8.6637         2.0414         2.5493         0.0457        14.8886        39.4604         2.0655         0.1531         7.3097           8.50        82.9016       156.3052
     3132.21         8.6637         2.0735         2.5537         0.0425        14.8855        39.8911         2.1395         0.1466         7.0613           8.50        82.9659       156.3503
     3132.36          8.613         2.0399         2.5579         0.0421         14.884        39.8405         2.0537         0.1408         6.8212           8.50        82.9113       156.2266
     3132.51         8.5791          1.992         2.5633         0.0424        14.8926        41.6755         1.9507          0.147         6.3706           8.50        82.8251       155.7159
     3132.67         8.5791         1.9885         2.5613         0.0408        14.8969        42.5249          1.919         0.1505         6.2465           8.50        82.7315       155.4608
     3132.82          8.613         1.9892         2.5559         0.0361        14.9055        40.8672         1.9383         0.1561          6.139           8.50        82.6482       155.0802
     3132.97         8.5791         2.0041         2.5562         0.0358        14.9098        39.9069         1.9769         0.1563         6.1338           8.50        82.6602       154.9241
     3133.12          8.613         2.0697         2.5613         0.0428        14.9477         38.871         2.1181         0.1536         6.3496           8.50        82.5432       154.5925
     3133.28          8.613         2.0642         2.5634         0.0485        14.9667        39.3705         2.1192         0.1523         6.5904           8.50        82.6622       154.5039
     3133.43         8.6637         2.0132          2.559         0.0535        14.9645        41.7473         2.0061         0.1543         7.1142           8.50        82.8552       154.6022
     3133.58         8.6637          2.008         2.5558         0.0525        14.9634        41.8157         1.9878         0.1522         7.2498           8.50        82.7411       154.6957
     3133.73         8.6637         1.9952         2.5607         0.0527         14.964        40.6369         1.9599         0.1487         7.1539           8.50        82.2509       154.8233
     3133.89         8.6637         1.9913          2.564         0.0533        14.9643        39.6522         1.9446         0.1488         6.9936           8.50         81.872        154.819
     3134.04         8.6637         1.9809         2.5582         0.0471        14.9919        39.6772         1.9422         0.1496         6.6345           8.50        81.8119        155.159
     3134.19         8.6637         2.0015         2.5528         0.0413        15.0057         39.273         1.9829         0.1521         6.4602           8.50        82.1202        155.529
     3134.34         8.6383         2.0143         2.5445          0.032        14.9943         38.545          2.071         0.1496         6.1612           8.50        82.7601       157.6867
     3134.50         8.5791         1.9921         2.5416         0.0295        14.9886        38.7703          2.016         0.1507         6.0769           8.50        83.0264       158.9692
     3134.65          8.613         1.9599         2.5412         0.0293        14.9993        40.5673         2.0189         0.1482         6.0587           8.50        83.8354       161.3808
     3134.80         8.6214          1.903          2.546         0.0357        14.9965        42.3647         1.9529          0.164         6.1589           8.50        84.6953       162.4037
     3134.95          8.613         1.8148         2.5478         0.0399        14.9885        44.6994         1.8223          0.165         6.2436           8.50        85.2905       163.0121
     3135.11         8.6637         1.8027         2.5466         0.0456        14.9877        44.3385         1.8572         0.1582         6.5112           8.50        87.0307       165.0555
     3135.26         8.6637         1.8018         2.5444         0.0453         14.995         44.598         1.8799         0.1589         6.5963           8.50        87.9192       166.4629
     3135.41          8.613         1.6719         2.5417           0.04        14.9838         42.935         1.6123         0.1842         6.4285           8.50        88.9937       169.0924
     3135.56         8.5791          1.573         2.5408         0.0378        14.9653        44.6241         1.4452         0.2011          6.241           8.50        89.2455       169.9966
     3135.71         8.5791         1.4996         2.5384         0.0403        14.9577        52.3091           1.37         0.2131         5.9347           8.50        89.4258       170.5998
