~VERSION INFORMATION
 VERS.                 2.0:   CWLS LOG ASCII STANDARD -VERSION 2.0
 WRAP.                  NO:   ONE LINE PER DEPTH STEP
~WELL INFORMATION BLOCK
#MNEM.UNIT           DATA                DESCRIPTION OF MNEMONIC
#---------    -------------------        -------------------------------
 STRT.M                     197.90          :START DEPTH
 STOP.M                    3465.97          :STOP DEPTH
 STEP.M                     0.1524          :STEP
 NULL.                     -999.25          :NULL VALUE
 COMP.                                      :COMPANY
 WELL.                  15/9-F-1 B          :WELL
 FLD.                        VOLVE          :FIELD
 LOC.                                       :LOCATION
 CNTY.                                      :COUNTY
 STAT.                                      :STATE
 CTRY.                                      :COUNTRY
 SRVC.                                      :SERVICE COMPANY
 DATE.                   17-Apr-20          :DATE
 UWI.                   15/9-F-1 B          :UNIQUE WELL ID
 ELEVREF.                       KB          :REFERENCE ELEVATION
 ELEV.M                      54.90          :ELEVATION
 XCOORD.                435046.531          :SURFACE X
 YCOORD.               6478567.000          :SURFACE Y
~CURVE INFORMATION      
#MNEM.UNIT      API CODE      CURVE DESCRIPTION
#---------    -------------   ------------------------------
DEPT.M                        : Depth
CALI.in                       : CALI
RDEP.-                        : Deep Resistivity
DEN.-                         : Density of correlated events
DENC.-                        : DENC
ROP.-                         : ROP
GR.API                        : smoothed gr
RMED.-                        : Medium Resistivity
NEU.-                         : NEU
PEF.b/e                       : Photoelectric Factor
BS.-                          : Bit Size
AC.µs/ft                      : Sonic Transit Time (Slowness)
ACS.µs/ft                     : ACS
~PARAMETER INFORMATION
#MNEM.UNIT           DATA                 DESCRIPTION OF MNEMONIC
#---------         -----------         ------------------------------
~A   DEPT          CALI          RDEP           DEN          DENC           ROP            GR          RMED           NEU           PEF            BS            AC           ACS
# ...
     3295.89          8.613         4.0945         2.2604         0.0352        30.0093        34.8638         4.0774         0.1715         5.1195           8.50        83.0297       134.6207
     3296.04         8.6637         4.1997          2.272          0.031        30.0308        38.3268         4.1955          0.174         5.1981           8.50        83.4486       135.1082
     3296.19          8.613         4.2153         2.2854         0.0333        30.0415        40.6958         4.3052          0.172         5.2216           8.50        83.5423       135.5235
     3296.34          8.613         3.9864         2.3096         0.0451        30.0092         39.368         3.9892         0.1698         5.3122           8.50        83.6453        136.949
     3296.50          8.613         3.9314         2.3143         0.0503        29.9931        41.0299         3.9593         0.1698         5.3623           8.50        83.7356        137.518
     3296.65         8.6637         3.9068         2.3103         0.0532        30.0146        45.7458         3.9531         0.1683         5.3831           8.50        84.5678       138.4979
     3296.80          8.613         3.9084         2.3028         0.0514        30.0093        48.8465         3.9317         0.1778         5.3476           8.50        85.3965       139.2153
     3296.95          8.613         3.8825         2.3001         0.0507        29.9932        47.5019         3.8935         0.1812         5.3463           8.50        85.8109       139.5534
     3297.11          8.613         3.8095         2.2918         0.0485        29.9878        44.6082         3.7713          0.187         5.3345           8.50        86.5348        140.268
     3297.26          8.613          3.792         2.2867         0.0478        29.9985        44.9612         3.7811         0.1899         5.3136           8.50        86.9735       140.5866
     3297.41          8.613         3.7247         2.2805         0.0467        29.9931        45.2332         3.6718         0.1957         5.3231           8.50        87.6171       141.0944
     3297.56          8.613         3.6772         2.2808          0.046         29.977        45.9185         3.5221         0.1984         5.3437           8.50        87.6459       141.2703
     3297.72         8.6637         3.4411         2.2877         0.0451        29.9783        46.3138         3.1016         0.2009         5.3512           8.50        86.6156       140.4448
     3297.87         8.6637           3.39         2.2931         0.0454        29.9957        46.3294         2.9644         0.2027         5.3639           8.50        85.8637       139.6151
     3298.02         8.6637         3.2693         2.3013         0.0436        30.0062        45.8313          2.726         0.1953         5.4506           8.50        83.9157       136.5697
     3298.17         8.6637          3.373         2.3063         0.0414        29.9993        44.2974         2.8343         0.1858         5.5139           8.50        82.8881       134.8614
     3298.33         8.6637          3.776         2.3312          0.042        30.0128        43.0007         3.5316         0.1688         5.6323           8.50        80.3143       131.4854
     3298.48          8.613         3.8871         2.3473         0.0453        30.0331        42.8039         3.7983         0.1679         5.6681           8.50        78.9853        130.369
     3298.63          8.613         4.0588         2.3662         0.0497        30.0441        41.1736         4.0451         0.1602         5.6612           8.50        77.9934        129.716
     3298.78         8.6637         4.1163         2.3669         0.0488        30.0347        40.4074          4.093         0.1571         5.6445           8.50        77.7822       129.9154
     3298.94          8.613          4.108         2.3661         0.0458        30.0361        42.2407         3.9116         0.1472         5.6328           8.50        77.7838       130.4131
     3299.09         8.6637         4.2205         2.3677         0.0463        30.0469         42.143         4.1943         0.1416         5.6437           8.50        77.7214       130.9509
     3299.24         8.6637         4.7643          2.372         0.0507        30.0416        37.6128         5.4553         0.1338         5.6515           8.50        77.7572        131.149
     3299.39         8.6637         5.1618         2.3711         0.0538        30.0254        33.4236         6.4763         0.1318         5.6141           8.50        77.8635       131.1281
     3299.54          8.613         5.4839         2.3561         0.0543          30.02        27.6679         7.0737         0.1317         5.5169           8.50        78.1656       131.1521
     3299.70          8.613         5.3872         2.3492         0.0509        30.0307        26.5948         6.8352         0.1304          5.508           8.50        78.7332       131.3758
     3299.85          8.613         5.1941         2.3442         0.0423        30.0254        26.5097         6.2148         0.1362         5.5006           8.50        80.7837       132.7542
     3300.00          8.613         4.8897         2.3439          0.045        29.9931        31.0261         5.3694         0.1619         5.5506           8.50        82.9384       135.5544
     3300.15         8.6637         4.6134         2.3453         0.0532        30.0039        35.4377         4.7693         0.1747         5.5859           8.50        83.8177       137.2903
     3300.31          8.613         4.3735         2.3262         0.0626        30.0253        40.0567         4.3201         0.1992         5.4974           8.50        85.2835       140.3535
     3300.46          8.613         4.3058         2.3052         0.0586        30.0092        38.0364         4.2129         0.2012         5.4405           8.50        85.8235       141.1113
     3300.61          8.613         4.1859         2.2761         0.0468         29.977        39.1342         4.0532         0.1912         5.4881           8.50        86.2214       140.7813
     3300.76          8.613         4.1585         2.2718         0.0424        29.9877        39.2062         3.9977         0.1813         5.5206           8.50        86.0093       140.0551
     3300.92         8.6637         4.2699         2.2745         0.0378        30.0092        38.7268         4.1861         0.1711          5.499           8.50        85.4763       138.2396
     3301.07         8.6637         4.3873         2.2801         0.0394        29.9932        38.0135         4.3462         0.1688         5.4937           8.50        85.2114       137.6177
     3301.22         8.6637          4.552         2.2892         0.0473         29.961        37.8085         4.6676         0.1725         5.5687           8.50        85.0852       137.3895
     3301.37         8.6383          4.592         2.2876         0.0492        29.9717        34.9864         4.7252         0.1804         5.6166           8.50        85.0529       137.5513
     3301.53          8.613         4.6864         2.2753         0.0456        29.9931        33.1037          4.946          0.185         5.7039           8.50        85.0761       137.6268
     3301.68         8.6383         4.8298         2.2704         0.0432        29.9796        32.7065         5.2322         0.1888         5.7619           8.50        85.0316       137.4882
     3301.83         8.6637         5.0505         2.2706         0.0423        29.9528        30.9403         5.4931         0.1816         5.8756           8.50        84.6829       136.6362
     3301.98         8.6637         5.1201         2.2754         0.0424        29.9731        31.3848         5.4991         0.1792          5.874           8.50        84.3954       136.2423
     3302.14          8.613         5.1129         2.2919         0.0403        30.0139         32.785          5.335         0.1832          5.778           8.50          83.34       134.8572
