~VERSION INFORMATION
 VERS.                 2.0:   CWLS LOG ASCII STANDARD -VERSION 2.0
 WRAP.                  NO:   ONE LINE PER DEPTH STEP
~WELL INFORMATION BLOCK
#MNEM.UNIT           DATA                DESCRIPTION OF MNEMONIC
#---------    -------------------        -------------------------------
 STRT.M                     197.90          :START DEPTH
 STOP.M                    3465.97          :STOP DEPTH
 STEP.M                     0.1524          :STEP
 NULL.                     -999.25          :NULL VALUE
 COMP.                                      :COMPANY
 WELL.                  15/9-F-1 B          :WELL
 FLD.                        VOLVE          :FIELD
 LOC.                                       :LOCATION
 CNTY.                                      :COUNTY
 STAT.                                      :STATE
 CTRY.                                      :COUNTRY
 SRVC.                                      :SERVICE COMPANY
 DATE.                   17-Apr-20          :DATE
 UWI.                   15/9-F-1 B          :UNIQUE WELL ID
 ELEVREF.                       KB          :REFERENCE ELEVATION
 ELEV.M                      54.90          :ELEVATION
 XCOORD.                435046.531          :SURFACE X
 YCOORD.               6478567.000          :SURFACE Y
~CURVE INFORMATION      
#MNEM.UNIT      API CODE      CURVE DESCRIPTION
#---------    -------------   ------------------------------
DEPT.M                        : Depth
CALI.in                       : CALI
RDEP.-                        : Deep Resistivity
DEN.-                         : Density of correlated events
DENC.-                        : DENC
ROP.-                         : ROP
GR.API                        : smoothed gr
RMED.-                        : Medium Resistivity
NEU.-                         : NEU
PEF.b/e                       : Photoelectric Factor
BS.-                          : Bit Size
AC.µs/ft                      : Sonic Transit Time (Slowness)
ACS.µs/ft                     : ACS
~PARAMETER INFORMATION
#MNEM.UNIT           DATA                 DESCRIPTION OF MNEMONIC
#---------         -----------         ------------------------------
~A   DEPT          CALI          RDEP           DEN          DENC           ROP            GR          RMED           NEU           PEF            BS            AC           ACS
# ...
     3059.06        -999.25         2.5553        -999.25        -999.25          21.44        26.0049         2.0105        -999.25        -999.25          12.25        64.4129       113.4449
     3059.21        -999.25         2.6057        -999.25        -999.25        20.8596        31.8132         2.1504        -999.25        -999.25          12.25        68.2696       114.0796
     3059.36        -999.25         2.7229        -999.25        -999.25        20.6642        29.2904         2.2903        -999.25        -999.25          12.25        70.0202        114.608
     3059.51        -999.25         3.0585        -999.25        -999.25        21.3904        26.3149         3.1048        -999.25        -999.25          12.25        72.3538       115.7233
     3059.67        -999.25         3.2495        -999.25        -999.25         22.312        25.1134         3.5302        -999.25        -999.25          12.25        73.2801       117.4118
     3059.82        -999.25         3.5776        -999.25        -999.25        24.2879        21.8245         4.3057        -999.25        -999.25          12.25        72.7919       120.7709
     3059.97        -999.25         3.8046        -999.25        -999.25        25.3422        19.0016         4.7784        -999.25        -999.25          12.25        71.9802       123.1936
     3060.12        -999.25         3.6613        -999.25        -999.25        27.0322        16.7355         4.3154        -999.25        -999.25          12.25        69.5066        125.616
     3060.28        -999.25         3.7206        -999.25        -999.25        27.6679        15.2702         4.3936        -999.25        -999.25          12.25        68.6032       125.6636
     3060.43        -999.25         3.8097        -999.25        -999.25        28.1749          17.45         4.5771        -999.25        -999.25          12.25        67.6546       124.0427
     3060.58        -999.25         3.8111        -999.25        -999.25        28.0461        18.0811         4.5278        -999.25        -999.25          12.25        67.2477       122.6068
     3060.73        -999.25         3.6427        -999.25        -999.25        27.7456        19.8314         3.9164        -999.25        -999.25          12.25        67.1846       120.7851
     3060.89        -999.25         3.5169        -999.25        -999.25        27.5739        20.7088         3.6636        -999.25        -999.25          12.25        67.3361       120.7627
     3061.04        -999.25         3.4073        -999.25        -999.25        27.2079         23.214          3.489        -999.25        -999.25          12.25        68.3357       123.8562
     3061.19        -999.25         3.3931        -999.25        -999.25        27.0136        24.1104         3.4427        -999.25        -999.25          12.25        68.9645       126.0835
     3061.34        -999.25         3.1527        -999.25        -999.25        27.4465        25.1154         3.0998        -999.25        -999.25          12.25        70.3684       129.7802
     3061.50        -999.25         3.0645        -999.25        -999.25        28.0736         25.942         2.9127        -999.25        -999.25          12.25        71.2522       131.5426
     3061.65        -999.25         3.1781        -999.25        -999.25        29.2593        27.3151          3.338        -999.25        -999.25          12.25         72.356       134.6886
     3061.80        -999.25         3.1845        -999.25        -999.25        30.3765        24.5744         3.3917        -999.25        -999.25          12.25        72.4393       137.2804
     3061.95        -999.25          3.193        -999.25        -999.25        30.8708        23.4877          3.619        -999.25        -999.25          12.25        72.0074       138.2697
     3062.11        -999.25         3.2037        -999.25        -999.25        31.8594        20.7923         3.7992        -999.25        -999.25          12.25        70.8719       139.3858
     3062.26        -999.25         3.1364        -999.25        -999.25        32.0658        21.6811         3.6698        -999.25        -999.25          12.25        70.3975       139.5821
     3062.41        -999.25         2.9451        -999.25        -999.25        32.4786        26.8904           3.28        -999.25        -999.25          12.25        70.0534       139.2684
     3062.56        -999.25         2.8497        -999.25        -999.25        31.7351        29.0356         3.1179        -999.25        -999.25          12.25        70.0688       138.9679
     3062.72        -999.25         2.6154        -999.25        -999.25         30.248        33.6239         2.6388        -999.25        -999.25          12.25        70.2021       138.3242
     3062.87        -999.25         2.4509        -999.25        -999.25        30.2039        34.5671         2.3988        -999.25        -999.25          12.25        70.2789       138.1735
     3063.02        -999.25         2.2721        -999.25        -999.25        30.1157        33.8337         2.1483        -999.25        -999.25          12.25        70.7201       138.0961
     3063.17        -999.25         2.2528        -999.25        -999.25        30.1742        34.3916         2.1475        -999.25        -999.25          12.25        71.1028        138.355
     3063.32        -999.25         2.3717        -999.25        -999.25        30.2911        38.1122         2.5338        -999.25        -999.25          12.25        72.3846       139.4095
     3063.48        -999.25         2.3122        -999.25        -999.25        30.5491        39.9035          2.435        -999.25        -999.25          12.25        73.0332       140.5359
     3063.63        -999.25         2.1693        -999.25        -999.25         31.065        38.1784         2.0918        -999.25        -999.25          12.25         74.525       143.4065
     3063.78        -999.25         2.0373        -999.25        -999.25        31.3548        36.7521          1.816        -999.25        -999.25          12.25        75.0061       144.8216
     3063.93        -999.25         2.0867        -999.25        -999.25        31.9345        30.5319         1.8937        -999.25        -999.25          12.25        75.5407       145.4647
     3064.09        -999.25         2.3366        -999.25        -999.25        32.2165        28.4491         2.5068        -999.25        -999.25          12.25         75.577       145.1213
     3064.24        -999.25         2.5789        -999.25        -999.25        32.7806        28.9751         2.9775        -999.25        -999.25          12.25        75.6995        143.293
     3064.39        -999.25         2.5522        -999.25        -999.25        32.7801         30.273         2.8494        -999.25        -999.25          12.25         75.671       142.4545
     3064.54        -999.25         2.3298        -999.25        -999.25        32.7792        35.7628         2.1849        -999.25        -999.25          12.25        75.7779       141.3902
     3064.70        -999.25         2.3618        -999.25        -999.25        32.2766        38.2719         2.2177        -999.25        -999.25          12.25        75.9101       141.0067
     3064.85        -999.25         2.7201        -999.25        -999.25        31.2715        36.3126         2.9261        -999.25        -999.25          12.25          75.99       139.7952
     3065.00        -999.25         3.0601        -999.25        -999.25        31.2158        26.8996         3.5771        -999.25        -999.25          12.25        75.9975       137.3615
     3065.15        -999.25         3.1372        -999.25        -999.25        31.1879        27.5425         3.5373        -999.25        -999.25          12.25        75.9756       136.0293
     3065.31        -999.25         2.9022        -999.25        -999.25        31.4222        34.0471         2.6946        -999.25        -999.25          12.25        75.7519       134.0806
