~VERSION INFORMATION
 VERS.                 2.0:   CWLS LOG ASCII STANDARD -VERSION 2.0
 WRAP.                  NO:   ONE LINE PER DEPTH STEP
~WELL INFORMATION BLOCK
#MNEM.UNIT           DATA                DESCRIPTION OF MNEMONIC
#---------    -------------------        -------------------------------
 STRT.M                     197.90          :START DEPTH
 STOP.M                    3465.97          :STOP DEPTH
 STEP.M                     0.1524          :STEP
 NULL.                     -999.25          :NULL VALUE
 COMP.                                      :COMPANY
 WELL.                  15/9-F-1 B          :WELL
 FLD.                        VOLVE          :FIELD
 LOC.                                       :LOCATION
 CNTY.                                      :COUNTY
 STAT.                                      :STATE
 CTRY.                                      :COUNTRY
 SRVC.                                      :SERVICE COMPANY
 DATE.                   17-Apr-20          :DATE
 UWI.                   15/9-F-1 B          :UNIQUE WELL ID
 ELEVREF.                       KB          :REFERENCE ELEVATION
 ELEV.M                      54.90          :ELEVATION
 XCOORD.                435046.531          :SURFACE X
 YCOORD.               6478567.000          :SURFACE Y
~CURVE INFORMATION      
#MNEM.UNIT      API CODE      CURVE DESCRIPTION
#---------    -------------   ------------------------------
DEPT.M                        : Depth
CALI.in                       : CALI
RDEP.-                        : Deep Resistivity
DEN.-                         : Density of correlated events
DENC.-                        : DENC
ROP.-                         : ROP
GR.API                        : smoothed gr
RMED.-                        : Medium Resistivity
NEU.-                         : NEU
PEF.b/e                       : Photoelectric Factor
BS.-                          : Bit Size
AC.µs/ft                      : Sonic Transit Time (Slowness)
ACS.µs/ft                     : ACS
~PARAMETER INFORMATION
#MNEM.UNIT           DATA                 DESCRIPTION OF MNEMONIC
#---------         -----------         ------------------------------
~A   DEPT          CALI          RDEP           DEN          DENC           ROP            GR          RMED           NEU           PEF            BS            AC           ACS
# ...
     3155.07         8.6976         1.8844         2.4672         0.0442        24.8304        57.2561         1.8301         0.1645         6.0508           8.50        82.8726       148.9439
     3155.22         8.6976         2.0653         2.4874         0.0466        25.6551        54.5393          2.108          0.161         6.0796           8.50        81.8584       146.6746
     3155.37         8.6976         2.1111         2.4948          0.048        26.1625        53.5367         2.1977         0.1605         6.1353           8.50        81.2512       145.3143
     3155.53         8.6637         2.1728         2.4996         0.0517        27.0316        49.0234         2.3365         0.1606         6.3419           8.50        80.3612       144.1684
     3155.68         8.6976         2.2018         2.4997         0.0542        27.3933        50.0224         2.3972         0.1629         6.4215           8.50        80.3365       144.7966
     3155.83         8.6637         2.2103         2.4975         0.0604        28.1484        50.3914         2.3583         0.1738         6.4403           8.50        81.4011       146.9709
     3155.98         8.6976         2.1836         2.4929         0.0624        28.5418          50.51         2.2904         0.1751         6.4139           8.50        82.1303        147.631
     3156.14         8.6976         2.1237         2.4758          0.059        29.2779        48.6579         2.1812         0.1766         6.3149           8.50         83.152       148.4461
     3156.29         8.6976          2.102         2.4682         0.0547        29.6207        50.4144         2.1217         0.1757         6.2328           8.50        83.5508       148.5662
     3156.44         8.6976         2.0359         2.4672         0.0489         29.957        54.9302         2.0281          0.173         6.1216           8.50        83.7482       149.1463
     3156.59         8.6976          2.021         2.4717         0.0476        29.9505        56.7785         1.9567         0.1707          6.139           8.50        83.7223       148.7893
     3156.75         8.6637         1.9438         2.4859         0.0453        29.9376        60.6976         1.8243         0.1636         6.2872           8.50        82.9011       148.3997
     3156.90         8.6637         1.9309         2.4942         0.0442        29.9312        61.3196         1.8186           0.16         6.3701           8.50         82.351       148.0787
     3157.05         8.6637         1.9439         2.5167         0.0552        29.8903        57.7343         1.8655         0.1579         6.4617           8.50        81.8415       148.1528
     3157.20         8.6637         2.0392         2.5218         0.0702        29.8215        50.7789         2.1085          0.165         6.5237           8.50         80.611       148.4204
     3157.36         8.6637         2.0316         2.5151         0.0702        29.8258        50.5516         2.0888         0.1657         6.5351           8.50        79.4269        148.499
     3157.51         8.6637          1.928         2.5041         0.0585        29.8344        56.2131         1.8174         0.1557         6.5312           8.50        77.2823       148.3477
     3157.66         8.6976         1.9172         2.5077         0.0536        29.8445        58.8206         1.7955         0.1489         6.5435           8.50        76.6045       148.1782
     3157.81         8.6637         1.9518         2.5271         0.0554        29.8648         60.337         1.8539         0.1449         6.5623           8.50        78.4738       148.0118
     3157.97         8.6637         2.0518         2.5331         0.0592        29.1716        61.7119         2.0349         0.1494         6.5439           8.50        78.9241       147.9658
     3158.12         8.6976         2.1812         2.5244         0.0582        27.7854        59.1453         2.2925         0.1618         6.4692           8.50        79.2034       147.5431
     3158.27         8.6637         2.1681         2.5188         0.0543        27.0678        58.5094         2.1961         0.1644          6.454           8.50        78.9247       147.2358
     3158.42         8.6637         2.1717         2.5251         0.0507        25.6327         64.272         2.1166         0.1583          6.564           8.50        78.2353       145.7106
     3158.57         8.6637         2.2042         2.5345         0.0525        26.0822        67.5273         2.1806          0.152         6.6356           8.50        77.6911       144.6985
     3158.73         8.6637         2.2896         2.5512         0.0602        26.9811        68.4012         2.3167         0.1434         6.6219           8.50        77.4259       142.8716
     3158.88         8.6637         2.3145         2.5538         0.0639        26.9141        68.5846         2.3649         0.1441         6.5271           8.50        77.3978       142.0971
     3159.03         8.6637         2.4296         2.5429         0.0649          26.78        61.1577         2.6304         0.1519         6.3385           8.50        77.3149       141.1054
     3159.18         8.6637         2.3902          2.531         0.0609        26.7156        58.4219         2.5302         0.1549         6.3133           8.50        77.4297       140.9232
     3159.34         8.6637         2.3171          2.512         0.0494        26.5869         56.282         2.3787         0.1548         6.4126           8.50         77.656       141.2502
     3159.49         8.6637         2.2825         2.5121         0.0458        26.9214        54.0777         2.3225         0.1534         6.4745           8.50        77.8218       141.5712
     3159.64         8.6637         2.2742         2.5287          0.049        27.5903        49.7349         2.4746         0.1523         6.4481           8.50        78.7109       142.9782
     3159.79         8.6637          2.333         2.5368         0.0534        27.7495        47.8104         2.6541         0.1542         6.3717           8.50        79.4562       144.0601
     3159.95         8.6637         2.1122          2.539          0.053        28.0679        52.0866         2.2742         0.1733          6.695           8.50        82.2867        148.308
     3160.10         8.6637         2.0031         2.5366         0.0495         28.462        53.3456         2.0834          0.198         7.0866           8.50        84.1269       151.3041
     3160.25         8.6806           1.71         2.5312         0.0475        29.2503        56.3139         1.5216         0.2782         7.7152           8.50        88.2069       158.5259
     3160.40         8.6637         1.6169         2.5225         0.0488        29.5777        75.8584          1.256         0.3313         7.9955           8.50        91.3534        165.038
     3160.56         8.6976         1.6613         2.5215         0.0478        29.7414        86.4174         1.3061         0.3219         8.0594           8.50         92.356       167.4064
     3160.71         8.6976         1.6963         2.5283         0.0445        29.8352        95.4697         1.3524         0.2827         8.1188           8.50         92.577       169.3522
     3160.86         8.6637         1.7765         2.5315         0.0426        29.8821        88.0904         1.4978         0.2673         8.1536           8.50        92.1218       169.2392
     3161.01         8.6637         2.2337         2.5341         0.0375        29.9188         77.545         2.1732          0.242         8.3479           8.50        90.0659       166.5272
     3161.17         8.6637         2.3438         2.5382         0.0364        29.9372        65.2673         2.3057          0.238         8.4975           8.50        88.8323       164.6745
     3161.32         8.6637         2.5236         2.5658         0.0421        29.9659         56.285         2.5587         0.2393         8.7273           8.50        86.1923       161.0457
