~VERSION INFORMATION
 VERS.                 2.0:   CWLS LOG ASCII STANDARD -VERSION 2.0
 WRAP.                  NO:   ONE LINE PER DEPTH STEP
~WELL INFORMATION BLOCK
#MNEM.UNIT           DATA                DESCRIPTION OF MNEMONIC
#---------    -------------------        -------------------------------
 STRT.M                     197.90          :START DEPTH
 STOP.M                    3465.97          :STOP DEPTH
 STEP.M                     0.1524          :STEP
 NULL.                     -999.25          :NULL VALUE
 COMP.                                      :COMPANY
 WELL.                  15/9-F-1 B          :WELL
 FLD.                        VOLVE          :FIELD
 LOC.                                       :LOCATION
 CNTY.                                      :COUNTY
 STAT.                                      :STATE
 CTRY.                                      :COUNTRY
 SRVC.                                      :SERVICE COMPANY
 DATE.                   17-Apr-20          :DATE
 UWI.                   15/9-F-1 B          :UNIQUE WELL ID
 ELEVREF.                       KB          :REFERENCE ELEVATION
 ELEV.M                      54.90          :ELEVATION
 XCOORD.                435046.531          :SURFACE X
 YCOORD.               6478567.000          :SURFACE Y
~CURVE INFORMATION      
#MNEM.UNIT      API CODE      CURVE DESCRIPTION
#---------    -------------   ------------------------------
DEPT.M                        : Depth
CALI.in                       : CALI
RDEP.-                        : Deep Resistivity
DEN.-                         : Density of correlated events
DENC.-                        : DENC
ROP.-                         : ROP
GR.API                        : smoothed gr
RMED.-                        : Medium Resistivity
NEU.-                         : NEU
PEF.b/e                       : Photoelectric Factor
BS.-                          : Bit Size
AC.µs/ft                      : Sonic Transit Time (Slowness)
ACS.µs/ft                     : ACS
~PARAMETER INFORMATION
#MNEM.UNIT           DATA                 DESCRIPTION OF MNEMONIC
#---------         -----------         ------------------------------
~A   DEPT          CALI          RDEP           DEN          DENC           ROP            GR          RMED           NEU           PEF            BS            AC           ACS
# ...
     3270.28         8.6637         1.7003          2.491         0.0765         23.398        59.5383          1.316         0.1849          6.103           8.50        81.9555        136.646
     3270.44         8.6637         2.1445         2.3903          0.073        24.6824        51.6475          1.838         0.1865         5.6515           8.50        85.0661       139.6581
     3270.59          8.613         2.6988         2.3399         0.0683         25.231        47.4023         2.7171         0.1887         5.3889           8.50        86.0005       140.9088
     3270.74          8.613         3.2909          2.252         0.0484        26.0433        35.6712          3.914         0.1807         5.0698           8.50        87.5261       140.8949
     3270.89          8.613         3.3778         2.2307         0.0413        26.3071        31.8319         4.0545         0.1746         5.0656           8.50        87.8274       140.6971
     3271.05          8.613         4.3353         2.2292         0.0377        26.8346        26.5758         6.6863         0.1632         5.2094           8.50        87.3241       138.3833
     3271.20          8.613         4.9987         2.2369         0.0378        27.0984        25.5055         7.5557         0.1581         5.2642           8.50        86.8269       136.8172
     3271.35          8.613         5.5004         2.2512         0.0396        27.5874        24.5629         7.1536         0.1541         5.2229           8.50         85.711       134.3839
     3271.50          8.613         5.7076         2.2548         0.0412        28.0378        20.1246         6.8204         0.1635         5.1158           8.50        85.2765       133.2468
     3271.66          8.613         5.7577         2.2555         0.0437         28.052        19.9015         6.5053         0.1699         5.1265           8.50          85.10       133.5387
     3271.81         8.6383         5.5896         2.2583         0.0512        28.0805        21.8488         5.5563         0.1717         5.2518           8.50        84.8529       135.4904
     3271.96          8.613         5.4082         2.2572         0.0521        28.0821        23.4755         5.2614         0.1715         5.2783           8.50        84.6657       136.4571
     3272.11          8.613         6.1607         2.2525         0.0489        28.0853        19.4075          6.393         0.1607         5.2002           8.50        84.3158       136.9857
     3272.27          8.613         6.0298         2.2517         0.0466         28.167        17.1083         6.2242         0.1571         5.1389           8.50         84.073       136.6405
     3272.42         8.6637         6.0298         2.2547         0.0392        28.3305        17.6313         5.9997         0.1523         5.1259           8.50        83.6715        134.949
     3272.57         8.6637         5.8693         2.2616         0.0365        28.4864        20.2124         5.9773         0.1522         5.1604           8.50        83.6682       133.7133
     3272.72         8.6637         5.0839         2.2806         0.0416        28.7982        20.9234         4.3044         0.1526         5.1018           8.50         83.439       132.3803
     3272.87          8.613         5.2774          2.282         0.0466        28.9475        19.6213         4.6927         0.1511          5.023           8.50        83.4248       132.2042
     3273.03          8.613          6.161         2.2585         0.0508         29.246         17.437         6.4191         0.1532         4.9253           8.50        83.8113       132.3319
     3273.18          8.613         6.8171          2.241         0.0484        29.3954        16.3575         7.8134         0.1577         4.9041           8.50        83.9422       132.5436
     3273.33         8.6383         7.1781         2.2186         0.0386         29.694        14.2076         8.5602         0.1615         4.9739           8.50         83.851       132.7532
     3273.48         8.6637         6.8885         2.2192         0.0373        29.7751        15.5671         8.0494           0.16         5.0549           8.50        83.7668       132.2643
     3273.64         8.6637         6.7701         2.2262         0.0433        29.9373        17.4904         7.2381         0.1553         5.0953           8.50        83.9259       130.1191
     3273.79         8.6637         7.0268         2.2228         0.0417        29.9308        16.0384         7.9054          0.162         5.0797           8.50        84.0126       128.3525
     3273.94         8.6637         7.1781         2.2305         0.0304        29.9179        19.0331         8.0569         0.1699         5.2131           8.50        84.2123       131.8236
     3274.09         8.6637           6.88         2.2532         0.0315        29.9395        20.9844         7.1531         0.1686         5.3172           8.50        84.3519       133.0595
     3274.25         8.6637         5.2065         2.2984         0.0487        29.9828        22.6579         4.2617         0.1556          5.358           8.50        84.5133       134.9912
     3274.40         8.6383         5.6988         2.2993         0.0558        29.9764        21.0835         4.9802         0.1553         5.2827           8.50        84.7435       135.3683
     3274.55          8.613         6.5015         2.2625         0.0561        29.9634        16.5387         6.4173         0.1609         5.1575           8.50        85.2874       136.1512
     3274.70         8.6637          6.693         2.2332         0.0415        29.9505         18.334         7.9127         0.1709         5.2595           8.50         85.963       136.9218
     3274.86         8.6637         6.2212         2.2365         0.0366        29.9441        20.4683         6.7712         0.1763         5.3292           8.50        86.1825       137.1302
     3275.01         8.6637         4.9478         2.2594         0.0387        29.9312        28.3189         4.8814         0.1806         5.4526           8.50        86.1728        137.237
     3275.16         8.6637          4.957         2.2663          0.041        29.9247          28.10         5.0796         0.1793         5.5176           8.50        85.9631       137.1048
     3275.31         8.6637          4.592         2.2731         0.0482        29.9681        23.9215         4.4376         0.1747         5.5344           8.50        85.4068       136.1978
     3275.47         8.6637          4.098         2.2749         0.0524        29.9898        21.5216         3.9568         0.1741         5.5044           8.50        85.0591       135.4706
     3275.62         8.6637         3.7502         2.2686         0.0506        29.9768        19.3067         5.0549         0.1799         5.4879           8.50        84.5669       134.1133
     3275.77         8.6637         3.4214         2.2661         0.0433        29.9704        19.9409         5.1241          0.185         5.5363           8.50        84.4114       133.8538
     3275.92         8.6637         2.6857         2.2972         0.0192        29.9574        26.0218         3.5558         0.1905          5.977           8.50        84.4089       133.1093
     3276.08         8.6637         2.1287         2.3458         0.0175         29.951        31.5295         2.2398          0.189         6.2803           8.50        84.3941        132.864
     3276.23         8.6637         1.2885         2.4644          0.062        29.9381        34.6602         0.7736         0.1864         6.3217           8.50        84.3879       132.6748
     3276.38         8.6637         1.1916         2.4807         0.0838        29.9316        35.5827         0.8759         0.1868         6.0505           8.50        84.4426       135.1381
     3276.53         8.6637         1.2393         2.4109         0.0707        29.9195        33.8796         1.3364         0.1818         5.7326           8.50        84.1643       137.8589
