~VERSION INFORMATION
 VERS.                 2.0:   CWLS LOG ASCII STANDARD -VERSION 2.0
 WRAP.                  NO:   ONE LINE PER DEPTH STEP
~WELL INFORMATION BLOCK
#MNEM.UNIT           DATA                DESCRIPTION OF MNEMONIC
#---------    -------------------        -------------------------------
 STRT.M                     197.90          :START DEPTH
 STOP.M                    3465.97          :STOP DEPTH
 STEP.M                     0.1524          :STEP
 NULL.                     -999.25          :NULL VALUE
 COMP.                                      :COMPANY
 WELL.                  15/9-F-1 B          :WELL
 FLD.                        VOLVE          :FIELD
 LOC.                                       :LOCATION
 CNTY.                                      :COUNTY
 STAT.                                      :STATE
 CTRY.                                      :COUNTRY
 SRVC.                                      :SERVICE COMPANY
 DATE.                   17-Apr-20          :DATE
 UWI.                   15/9-F-1 B          :UNIQUE WELL ID
 ELEVREF.                       KB          :REFERENCE ELEVATION
 ELEV.M                      54.90          :ELEVATION
 XCOORD.                435046.531          :SURFACE X
 YCOORD.               6478567.000          :SURFACE Y
~CURVE INFORMATION      
#MNEM.UNIT      API CODE      CURVE DESCRIPTION
#---------    -------------   ------------------------------
DEPT.M                        : Depth
CALI.in                       : CALI
RDEP.-                        : Deep Resistivity
DEN.-                         : Density of correlated events
DENC.-                        : DENC
ROP.-                         : ROP
GR.API                        : smoothed gr
RMED.-                        : Medium Resistivity
NEU.-                         : NEU
PEF.b/e                       : Photoelectric Factor
BS.-                          : Bit Size
AC.µs/ft                      : Sonic Transit Time (Slowness)
ACS.µs/ft                     : ACS
~PARAMETER INFORMATION
#MNEM.UNIT           DATA                 DESCRIPTION OF MNEMONIC
#---------         -----------         ------------------------------
~A   DEPT          CALI          RDEP           DEN          DENC           ROP            GR          RMED           NEU           PEF            BS            AC           ACS
# ...
     3436.70         8.6976         1.2388         2.4623         0.0548        28.9128        65.7421         1.2019         0.2061         6.5478           8.50        -999.25        -999.25
     3436.86         8.6976         1.2328         2.4578         0.0479        28.8839         65.833         1.2116         0.2108         6.6276           8.50        -999.25        -999.25
     3437.01         8.6806         1.2513         2.4772         0.0499        28.9858        75.0756           1.31         0.2222         6.7327           8.50        -999.25        -999.25
     3437.16         8.6637         1.2544         2.4899         0.0561        29.0368        80.2664         1.2809          0.225         6.7593           8.50        -999.25        -999.25
     3437.31         8.6976         1.2304         2.4966         0.0646        29.0048        89.1566         1.1364         0.2233          6.837           8.50        -999.25        -999.25
     3437.47         8.6976         1.2656         2.4941         0.0663        28.9889        92.1912         1.1475           0.22         6.8428           8.50        -999.25        -999.25
     3437.62         8.6976         1.3711         2.4875         0.0641        28.4544         98.498         1.3323         0.2091         6.7354           8.50        -999.25        -999.25
     3437.77         8.6976         1.4288         2.4853         0.0606        28.1871         96.481          1.426         0.2047         6.6752           8.50        -999.25        -999.25
     3437.92         8.6976         1.5157         2.4918         0.0565        27.5382        86.0714         1.5326         0.2012         6.5804           8.50        -999.25        -999.25
     3438.08         8.6976          1.527         2.4997         0.0583        27.2137        86.5483         1.5189         0.1977         6.5301           8.50        -999.25        -999.25
     3438.23         8.6976          1.594         2.5048         0.0628        27.2911        82.4743         1.5667         0.1791         6.3954           8.50        -999.25        -999.25
     3438.38         8.6976         1.6428         2.4997         0.0626        27.3298         72.275         1.6634         0.1738         6.3268           8.50        -999.25        -999.25
     3438.53         8.6976         1.6866         2.4914         0.0624        27.8516        65.4874         1.7599         0.1744         6.3033           8.50        -999.25        -999.25
     3438.69         8.6976         1.6946         2.4929         0.0633        28.1126        67.3738         1.7811         0.1781         6.3787           8.50        -999.25        -999.25
     3438.84         8.6976         1.6915         2.5033         0.0643        28.6615        71.4838         1.7899         0.1741         6.5494           8.50        -999.25        -999.25
     3438.99         8.6976         1.6606         2.5101         0.0654         28.936         71.434         1.7756          0.169         6.5639           8.50        -999.25        -999.25
     3439.14         8.6976         1.6466         2.5187         0.0688        29.3077        64.5495          1.803         0.1656         6.5315           8.50        -999.25        -999.25
     3439.30         8.6976         1.6336         2.5197         0.0701        29.4936        65.7195         1.8451         0.1691         6.5641           8.50        -999.25        -999.25
     3439.45         8.6976          1.597         2.5188         0.0758        29.5769        67.9791         1.7803         0.1771          6.633           8.50        -999.25        -999.25
     3439.60         8.6976         1.5049         2.5082         0.0753        29.6319        61.5855         1.5886         0.1727         6.5437           8.50        -999.25        -999.25
     3439.75         8.6976         1.4419         2.5024         0.0722        29.6453        59.5894         1.5116         0.1686         6.5417           8.50        -999.25        -999.25
     3439.91         8.6976         1.3377         2.4887         0.0738        29.6722        57.9033         1.4739        -999.25         6.7329           8.50        -999.25        -999.25
     3440.06         8.6637          1.181         2.4719          0.073        29.6856        51.5562         1.1455        -999.25         6.7871           8.50        -999.25        -999.25
     3440.21         8.6637         1.0492         2.4406         0.0573        29.6399        50.2647         0.7637        -999.25         6.5598           8.50        -999.25        -999.25
     3440.36         8.6637         1.2282         2.4497         0.0554        29.5808        50.3109         1.2232        -999.25         6.4537           8.50        -999.25        -999.25
     3440.51         8.6976          1.332          2.495         0.0778        29.5665        45.6258         1.3976        -999.25         6.5228           8.50        -999.25        -999.25
     3440.67         8.6976         1.2976         2.4991          0.088        29.6113        46.8627         1.2842        -999.25         6.5259           8.50        -999.25        -999.25
     3440.82         8.6976         1.2561         2.4557         0.0807        29.6745         53.739         1.0653        -999.25         6.3782           8.50        -999.25        -999.25
     3440.97         8.6976         1.3067         2.4314         0.0675        29.6927        58.7039         1.1433        -999.25         6.3645           8.50        -999.25        -999.25
     3441.12         8.6976         1.5301         2.4312         0.0435        29.7295        68.3631         1.4374        -999.25         6.4318           8.50        -999.25        -999.25
     3441.28         8.6976         1.6443         2.4557         0.0388         29.748        72.7228         1.6509        -999.25         6.4801           8.50        -999.25        -999.25
     3441.43         8.6637         1.7491          2.517         0.0471        29.7849        90.6388         1.8194        -999.25         6.6591           8.50        -999.25        -999.25
     3441.58         8.6637         1.7398         2.5352          0.053        29.8033       102.6021         1.7363        -999.25         6.7318           8.50        -999.25        -999.25
     3441.73         8.6976         1.7415         2.5388         0.0572        29.7839       103.7374         1.6899        -999.25         6.7165           8.50        -999.25        -999.25
     3441.89         8.6637         1.7508         2.5337         0.0576        29.7461        100.696         1.6957        -999.25         6.6399           8.50        -999.25        -999.25
     3442.04        -999.25         1.8161          2.525         0.0593        29.6988        82.4462          1.853        -999.25         6.4788           8.50        -999.25        -999.25
     3442.19        -999.25         1.8515         2.5242         0.0601        29.6894        75.0999         1.9626        -999.25         6.4243           8.50        -999.25        -999.25
     3442.34        -999.25          1.846         2.5305          0.063        29.6198        65.9989         1.9871        -999.25         6.4005           8.50        -999.25        -999.25
     3442.50        -999.25         1.8098         2.5334         0.0652        29.5597        59.9079         1.9512        -999.25         6.4085           8.50        -999.25        -999.25
     3442.65        -999.25         1.7158         2.5353         0.0696        29.4895        54.5181         1.7262        -999.25         6.4057           8.50        -999.25        -999.25
     3442.80        -999.25         1.5799        -999.25        -999.25        29.4695        56.1304         1.4972        -999.25        -999.25           8.50        -999.25        -999.25
     3442.95        -999.25         1.5545        -999.25        -999.25        29.4872        53.4969         1.5008        -999.25        -999.25           8.50        -999.25        -999.25
