~VERSION INFORMATION
 VERS.                 2.0:   CWLS LOG ASCII STANDARD -VERSION 2.0
 WRAP.                  NO:   ONE LINE PER DEPTH STEP
~WELL INFORMATION BLOCK
#MNEM.UNIT           DATA                DESCRIPTION OF MNEMONIC
#---------    -------------------        -------------------------------
 STRT.M                     197.90          :START DEPTH
 STOP.M                    3465.97          :STOP DEPTH
 STEP.M                     0.1524          :STEP
 NULL.                     -999.25          :NULL VALUE
 COMP.                                      :COMPANY
 WELL.                  15/9-F-1 B          :WELL
 FLD.                        VOLVE          :FIELD
 LOC.                                       :LOCATION
 CNTY.                                      :COUNTY
 STAT.                                      :STATE
 CTRY.                                      :COUNTRY
 SRVC.                                      :SERVICE COMPANY
 DATE.                   17-Apr-20          :DATE
 UWI.                   15/9-F-1 B          :UNIQUE WELL ID
 ELEVREF.                       KB          :REFERENCE ELEVATION
 ELEV.M                      54.90          :ELEVATION
 XCOORD.                435046.531          :SURFACE X
 YCOORD.               6478567.000          :SURFACE Y
~CURVE INFORMATION      
#MNEM.UNIT      API CODE      CURVE DESCRIPTION
#---------    -------------   ------------------------------
DEPT.M                        : Depth
CALI.in                       : CALI
RDEP.-                        : Deep Resistivity
DEN.-                         : Density of correlated events
DENC.-                        : DENC
ROP.-                         : ROP
GR.API                        : smoothed gr
RMED.-                        : Medium Resistivity
NEU.-                         : NEU
PEF.b/e                       : Photoelectric Factor
BS.-                          : Bit Size
AC.µs/ft                      : Sonic Transit Time (Slowness)
ACS.µs/ft                     : ACS
~PARAMETER INFORMATION
#MNEM.UNIT           DATA                 DESCRIPTION OF MNEMONIC
#---------         -----------         ------------------------------
~A   DEPT          CALI          RDEP           DEN          DENC           ROP            GR          RMED           NEU           PEF            BS            AC           ACS
# ...
     3353.49         8.6976         1.4679         2.5147         0.0569        21.4432        47.1745         1.5282         0.1332         6.1362           8.50        73.0371       125.7308
     3353.65         8.6637         1.3764         2.5047         0.0595        21.0683        50.4917         1.3694         0.1467         6.0899           8.50        73.0153        125.915
     3353.80         8.6976         1.3455          2.498         0.0596        20.8808        52.5451         1.3297         0.1485         6.1294           8.50        73.0217       126.2245
     3353.95         8.6976         1.2954         2.4951         0.0618        20.6549        53.5391         1.2672         0.1492         6.2043           8.50        72.9017       127.3041
     3354.10         8.6976         1.2589         2.4929         0.0646        20.4848         50.271         1.1793         0.1489         6.1545           8.50         72.652       128.0808
     3354.26         8.6806         1.2579         2.4902         0.0628        20.4277        49.2157         1.1682         0.1469         6.1803           8.50        72.5055       128.2505
     3354.41         8.6976         1.3424         2.4944         0.0564        20.5579        51.7245         1.3113         0.1384         6.3465           8.50        72.3782       128.2786
     3354.56         8.6806         1.4042         2.5016         0.0538        20.7452        51.4513         1.4168         0.1356         6.3923           8.50        72.3026       128.0302
     3354.71         8.6976         1.5294         2.5216         0.0541        20.9243        50.8028         1.7287         0.1275         6.3717           8.50        72.6002       127.5273
     3354.87         8.6976         1.5188         2.5311         0.0581        20.9161        50.4943         1.7113         0.1297         6.3568           8.50        72.6053       127.1946
     3355.02         8.6976          1.445         2.5312         0.0673        20.8446        52.1078         1.4718         0.1409         6.3292           8.50        72.6219       126.4948
     3355.17         8.6976         1.3757         2.5193         0.0671        20.7814        52.8533         1.3056         0.1436         6.2942           8.50        72.5862        125.931
     3355.32         8.6806         1.3418           2.50         0.0562        20.7865        48.8508         1.2456         0.1357         6.3051           8.50         72.675       126.0044
     3355.48         8.6976         1.3917         2.5069         0.0541         20.855        47.5574         1.3695         0.1318         6.3797           8.50        72.7591       126.1479
     3355.63         8.6976         1.4694         2.5315         0.0648        20.6706        46.3757         1.6413         0.1405         6.3922           8.50        72.9068       126.8245
     3355.78         8.6976         1.4552         2.5307         0.0706        20.4178        50.7759         1.6092         0.1525         6.2941           8.50        72.9259       127.3605
     3355.93         8.6637         1.2448         2.4937         0.0654        20.1966        55.9475         1.0948         0.1597         6.1237           8.50        72.9655       127.9258
     3356.09         8.6637         1.2463         2.4782          0.058        20.2282        57.1094         1.1099         0.1545         6.1187           8.50        72.8268       128.2611
     3356.24         8.6637         1.3635         2.4842         0.0494        20.4612        51.0455          1.305         0.1345         6.1714           8.50        72.3908       128.2001
     3356.39         8.6806         1.4929         2.5011         0.0489        20.6625        49.5388         1.5669         0.1277         6.2335           8.50        72.0472       127.9578
     3356.54         8.6976         1.6366         2.5356         0.0533        20.5323         49.312         1.8761         0.1125          6.427           8.50        71.4575       124.3742
     3356.69         8.6976         1.6489         2.5433         0.0547        20.2007        47.9966         1.9101         0.1088          6.449           8.50        71.2205       123.3947
     3356.85         8.6976         1.6621          2.547          0.057        19.5809        45.3235         1.9567         0.1102         6.3208           8.50        70.8331       122.5044
     3357.00         8.6976         1.6412         2.5441         0.0603        19.2925        45.5683         1.9075         0.1166         6.2292           8.50        70.8401       122.6719
     3357.15         8.6637         1.4055         2.5215         0.0599        18.6692        47.4915         1.3147         0.1345          6.088           8.50        71.2758       124.1703
     3357.30         8.6637         1.4507         2.5089         0.0493        17.9992        53.6431         1.5101         0.1435         6.1756           8.50        72.2743       125.8055
     3357.46         8.6637         1.4739         2.5187         0.0522        18.2957        56.4581         1.6221         0.1448         6.2794           8.50        72.8214       126.4826
     3357.61         8.6637         1.2981         2.5368           0.07        18.8887        58.5543         1.2311         0.1536         6.3513           8.50        73.7989       128.2058
     3357.76         8.6637         1.2383          2.529         0.0731        19.2217         56.644         1.1744         0.1571         6.3182           8.50        74.2003       129.2685
     3357.91         8.6806         1.1664         2.4979         0.0656        19.8876        56.7374         1.1503         0.1618         6.2272           8.50        74.7369       130.8781
     3358.07         8.6976         1.1347         2.4885         0.0638        20.4634        56.2173         1.1356         0.1636         6.1769           8.50        74.7422       131.0561
     3358.22         8.6806         0.9964         2.4722         0.0633        21.6151        47.7412         0.8177         0.1604         6.0948           8.50        74.3105       130.6677
     3358.37         8.6383         1.0578         2.4621         0.0591        21.9467        44.6906         0.9874         0.1555         6.0917           8.50         73.998       130.3256
     3358.52         8.6976         1.3019         2.4682         0.0527        22.6101        45.1217         1.4599         0.1326         6.1662           8.50        73.7597       129.8866
     3358.68         8.6806         1.3662         2.4864         0.0557        22.4654        50.1973         1.5594         0.1309         6.1801           8.50        73.7933       129.8318
     3358.83         8.6976         1.4155         2.5182         0.0656         22.176        57.2368           1.62         0.1299         6.1178           8.50        74.0858       129.1733
     3358.98         8.6976         1.3898         2.5208         0.0689        21.9698        53.4879          1.532         0.1337         6.0824           8.50        74.1163       128.9711
     3359.13         8.6976         1.2651         2.4965         0.0669        21.5572        51.3189         1.2204         0.1453         6.0794           8.50         73.973       129.5067
     3359.29         8.6976         1.2363         2.4795         0.0631        21.6605        51.3487         1.1855         0.1541         6.1227           8.50        74.1682       130.0921
     3359.44         8.6637         1.2034         2.4636         0.0602        21.8671        53.3409         1.1544         0.1663         6.2584           8.50        74.2455       130.6256
     3359.59         8.6976         1.1898         2.4649         0.0619        22.2958        53.9249         1.1541         0.1675         6.3128           8.50        74.2526        130.608
     3359.74         8.6976         1.1557         2.4745         0.0628        23.1533        49.7588         1.0801         0.1669         6.3544           8.50        73.5096       130.4166
