~VERSION INFORMATION
 VERS.                 2.0:   CWLS LOG ASCII STANDARD -VERSION 2.0
 WRAP.                  NO:   ONE LINE PER DEPTH STEP
~WELL INFORMATION BLOCK
#MNEM.UNIT           DATA                DESCRIPTION OF MNEMONIC
#---------    -------------------        -------------------------------
 STRT.M                     197.90          :START DEPTH
 STOP.M                    3465.97          :STOP DEPTH
 STEP.M                     0.1524          :STEP
 NULL.                     -999.25          :NULL VALUE
 COMP.                                      :COMPANY
 WELL.                  15/9-F-1 B          :WELL
 FLD.                        VOLVE          :FIELD
 LOC.                                       :LOCATION
 CNTY.                                      :COUNTY
 STAT.                                      :STATE
 CTRY.                                      :COUNTRY
 SRVC.                                      :SERVICE COMPANY
 DATE.                   17-Apr-20          :DATE
 UWI.                   15/9-F-1 B          :UNIQUE WELL ID
 ELEVREF.                       KB          :REFERENCE ELEVATION
 ELEV.M                      54.90          :ELEVATION
 XCOORD.                435046.531          :SURFACE X
 YCOORD.               6478567.000          :SURFACE Y
~CURVE INFORMATION      
#MNEM.UNIT      API CODE      CURVE DESCRIPTION
#---------    -------------   ------------------------------
DEPT.M                        : Depth
CALI.in                       : CALI
RDEP.-                        : Deep Resistivity
DEN.-                         : Density of correlated events
DENC.-                        : DENC
ROP.-                         : ROP
GR.API                        : smoothed gr
RMED.-                        : Medium Resistivity
NEU.-                         : NEU
PEF.b/e                       : Photoelectric Factor
BS.-                          : Bit Size
AC.µs/ft                      : Sonic Transit Time (Slowness)
ACS.µs/ft                     : ACS
~PARAMETER INFORMATION
#MNEM.UNIT           DATA                 DESCRIPTION OF MNEMONIC
#---------         -----------         ------------------------------
~A   DEPT          CALI          RDEP           DEN          DENC           ROP            GR          RMED           NEU           PEF            BS            AC           ACS
# ...
     3027.05        -999.25          9.015        -999.25        -999.25        24.6877         6.9357        10.0268        -999.25        -999.25          12.25        66.1408       116.4193
     3027.21        -999.25         8.9756        -999.25        -999.25        25.7529         7.3295         9.9818        -999.25        -999.25          12.25        66.2053       115.2641
     3027.36        -999.25         8.8361        -999.25        -999.25        26.2855         7.7702         9.6381        -999.25        -999.25          12.25        66.0423       114.8633
     3027.51        -999.25          8.631        -999.25        -999.25        26.7003         6.6328         9.2373        -999.25        -999.25          12.25        65.1097       115.3013
     3027.66        -999.25         8.7272        -999.25        -999.25        26.9078         6.1533         9.4458        -999.25        -999.25          12.25        64.3832       115.8284
     3027.82        -999.25         8.5784        -999.25        -999.25        25.6985         7.3375         9.2418        -999.25        -999.25          12.25        63.0588         117.07
     3027.97        -999.25          8.373        -999.25        -999.25        25.0938         6.5312         8.8753        -999.25        -999.25          12.25        62.7397       117.2517
     3028.12        -999.25         7.5158        -999.25        -999.25        24.5196        10.9776          7.337        -999.25        -999.25          12.25        62.7935       117.0207
     3028.27        -999.25         7.2537        -999.25        -999.25        24.2324        11.1087         6.7111        -999.25        -999.25          12.25        63.3583        116.596
     3028.43        -999.25         7.0063        -999.25        -999.25        24.8218        10.8992         6.3247        -999.25        -999.25          12.25          64.54       116.7963
     3028.58        -999.25         7.0745        -999.25        -999.25        25.1166        12.4151         6.4384        -999.25        -999.25          12.25        65.0937       117.2806
     3028.73        -999.25         6.7865        -999.25        -999.25        26.2179        14.0815         5.9949        -999.25        -999.25          12.25        65.4739       119.0907
     3028.88        -999.25         6.7228        -999.25        -999.25        26.7686         15.367         5.8428        -999.25        -999.25          12.25        65.3427       119.6305
     3029.03        -999.25         7.0632        -999.25        -999.25        27.6642         14.391         6.4039        -999.25        -999.25          12.25        64.2796       119.8375
     3029.19        -999.25         7.1515        -999.25        -999.25         28.112        13.8884         6.5937        -999.25        -999.25          12.25        63.6879       119.5855
     3029.34        -999.25         7.0216        -999.25        -999.25        28.8946        15.0179         6.2915        -999.25        -999.25          12.25        61.4403       118.7058
     3029.49        -999.25          7.334        -999.25        -999.25        29.2859        13.0756         6.7766        -999.25        -999.25          12.25        60.4594       118.2743
     3029.64        -999.25         8.1084        -999.25        -999.25        27.4339         8.7803         8.0931        -999.25        -999.25          12.25        59.5897       117.4883
     3029.80        -999.25         8.1658        -999.25        -999.25        26.5079         8.0736          8.151        -999.25        -999.25          12.25        59.3547       117.0095
     3029.95        -999.25         8.2437        -999.25        -999.25        25.1584         7.5948         8.1111        -999.25        -999.25          12.25        59.8764       114.9975
     3030.10        -999.25         8.2535        -999.25        -999.25        24.8014         9.7502         7.9366        -999.25        -999.25          12.25        60.7166       114.0805
     3030.25        -999.25          8.229        -999.25        -999.25        25.1191        11.3549         7.8054        -999.25        -999.25          12.25        61.0882       113.9615
     3030.41        -999.25         8.4134        -999.25        -999.25        26.0638        10.7578         8.0356        -999.25        -999.25          12.25        61.3337       114.6373
     3030.56        -999.25          8.584        -999.25        -999.25        26.6908        10.4125         8.2771        -999.25        -999.25          12.25         61.381       115.0864
     3030.71        -999.25          8.981        -999.25        -999.25        27.4562        10.1928         9.0362        -999.25        -999.25          12.25        61.6066       115.7412
     3030.86        -999.25          9.171        -999.25        -999.25        27.5946        10.3271         9.3434        -999.25        -999.25          12.25        61.5939       115.4317
     3031.02        -999.25         9.5146        -999.25        -999.25        25.9348          9.882          9.951        -999.25        -999.25          12.25        61.4355       113.8315
     3031.17        -999.25         9.6087        -999.25        -999.25        24.1365         8.4683        10.1061        -999.25        -999.25          12.25        61.5312       113.2584
     3031.32        -999.25         9.6277        -999.25        -999.25        21.4901         9.8449        10.2045        -999.25        -999.25          12.25        61.6157       112.6503
     3031.47        -999.25         9.6023        -999.25        -999.25        20.6421          9.754        10.0369        -999.25        -999.25          12.25        61.7873       112.6148
     3031.63        -999.25         8.7813        -999.25        -999.25        19.4254        12.8737         8.4744        -999.25        -999.25          12.25         62.289       112.1224
     3031.78        -999.25          8.658        -999.25        -999.25        19.0568        13.9044         8.4408        -999.25        -999.25          12.25         62.402       111.9693
     3031.93        -999.25         8.7488        -999.25        -999.25        18.8795        12.7029         8.7609        -999.25        -999.25          12.25        62.6358       112.2739
     3032.08        -999.25         8.3749        -999.25        -999.25        19.0708        14.3539         8.0998        -999.25        -999.25          12.25        62.7993       112.9406
     3032.24        -999.25         8.1852        -999.25        -999.25        20.3484        14.7261         7.7985        -999.25        -999.25          12.25        62.9498       115.0705
     3032.39        -999.25         8.3031        -999.25        -999.25        21.4347        15.6907         8.0401        -999.25        -999.25          12.25        63.3176        116.597
     3032.54        -999.25         7.4323        -999.25        -999.25        22.3089        19.7234         6.5595        -999.25        -999.25          12.25        63.5203       117.8874
     3032.69        -999.25         7.2939        -999.25        -999.25        22.0967        22.5038         6.3959        -999.25        -999.25          12.25        63.7508       118.4156
     3032.84        -999.25         7.5667        -999.25        -999.25        22.3276        19.3716         6.9076        -999.25        -999.25          12.25        63.0501       118.5098
     3033.00        -999.25         7.8299        -999.25        -999.25        22.7706        17.0211         7.3712        -999.25        -999.25          12.25        62.6495       118.7495
     3033.15        -999.25         7.7149        -999.25        -999.25        23.0588        14.0119          7.354        -999.25        -999.25          12.25        61.1378       118.0844
     3033.30        -999.25          7.424        -999.25        -999.25        22.7492         12.046         7.2631        -999.25        -999.25          12.25        59.7021       115.9797
