~VERSION INFORMATION
 VERS.                 2.0:   CWLS LOG ASCII STANDARD -VERSION 2.0
 WRAP.                  NO:   ONE LINE PER DEPTH STEP
~WELL INFORMATION BLOCK
#MNEM.UNIT           DATA                DESCRIPTION OF MNEMONIC
#---------    -------------------        -------------------------------
 STRT.M                     197.90          :START DEPTH
 STOP.M                    3465.97          :STOP DEPTH
 STEP.M                     0.1524          :STEP
 NULL.                     -999.25          :NULL VALUE
 COMP.                                      :COMPANY
 WELL.                  15/9-F-1 B          :WELL
 FLD.                        VOLVE          :FIELD
 LOC.                                       :LOCATION
 CNTY.                                      :COUNTY
 STAT.                                      :STATE
 CTRY.                                      :COUNTRY
 SRVC.                                      :SERVICE COMPANY
 DATE.                   17-Apr-20          :DATE
 UWI.                   15/9-F-1 B          :UNIQUE WELL ID
 ELEVREF.                       KB          :REFERENCE ELEVATION
 ELEV.M                      54.90          :ELEVATION
 XCOORD.                435046.531          :SURFACE X
 YCOORD.               6478567.000          :SURFACE Y
~CURVE INFORMATION      
#MNEM.UNIT      API CODE      CURVE DESCRIPTION
#---------    -------------   ------------------------------
DEPT.M                        : Depth
CALI.in                       : CALI
RDEP.-                        : Deep Resistivity
DEN.-                         : Density of correlated events
DENC.-                        : DENC
ROP.-                         : ROP
GR.API                        : smoothed gr
RMED.-                        : Medium Resistivity
NEU.-                         : NEU
PEF.b/e                       : Photoelectric Factor
BS.-                          : Bit Size
AC.µs/ft                      : Sonic Transit Time (Slowness)
ACS.µs/ft                     : ACS
~PARAMETER INFORMATION
#MNEM.UNIT           DATA                 DESCRIPTION OF MNEMONIC
#---------         -----------         ------------------------------
~A   DEPT          CALI          RDEP           DEN          DENC           ROP            GR          RMED           NEU           PEF            BS            AC           ACS
# ...
     3097.46         9.2559         2.8814        -999.25         0.1921         4.2458        23.9995         2.9192        -999.25        -999.25           8.50         73.072       143.6777
     3097.61         9.0952         2.8748        -999.25         0.2036         5.4947        23.7918         2.7864        -999.25        -999.25           8.50        72.3114       147.7926
     3097.77          9.803         2.9124        -999.25         0.2017         6.5005        25.8357          2.866        -999.25        -999.25           8.50        71.7942       149.2031
     3097.92         9.7635         2.9161        -999.25         0.1521         8.1695        27.1091          2.967        -999.25        -999.25           8.50        70.3728       149.5577
     3098.07        10.1922         2.9221        -999.25         0.1086         8.8327         25.387         2.9233        -999.25        -999.25           8.50        69.5314       149.0469
     3098.22         9.3292         3.0065        -999.25         0.0358         9.3701        27.9242          3.013        -999.25        -999.25           8.50        67.7575       146.9191
     3098.38         8.6976          2.949        -999.25         0.0269         9.2443        29.7217         2.8243        -999.25        -999.25           8.50        66.9873       145.6267
     3098.53         8.6637         2.9913         2.5396         0.0511          8.926         29.703         2.7968         0.0961         7.7115           8.50        66.5403       143.1481
     3098.68         8.6637         3.0591         2.5788         0.0589         8.7335        28.6744         2.8758         0.0932         7.5277           8.50        66.6816       141.9218
     3098.83         8.6637         3.3108          2.592         0.0481          8.317        25.4896         3.1804         0.0846         7.5665           8.50        67.2501       141.1839
     3098.99         8.6637         3.4329         2.5909         0.0419         8.0931        24.5376         3.3378         0.0799         7.6234           8.50        67.4626       141.3337
     3099.14         8.6637          3.832         2.6003         0.0409         7.8781        20.2839         4.0153         0.0719         7.7725           8.50        67.2658       143.4422
     3099.29         8.6637         3.9553         2.6074         0.0434         7.8871        19.7069         4.1654         0.0689         7.8765           8.50         67.054       144.8911
     3099.44         8.6637         4.2161         2.6157          0.049         7.9484        17.2129         4.5544         0.0652         8.1112           8.50        66.7072       147.7852
     3099.60         8.6806         4.3097         2.6198         0.0522         8.0008        16.3332         4.6856          0.064         8.1666           8.50         66.615       149.1313
     3099.75         8.6637         4.4229         2.6292         0.0575         8.0854        17.2731         4.7795         0.0631         8.1412           8.50        66.8212       150.9027
     3099.90         8.6637         4.5116         2.6306         0.0589           8.15         18.821          4.856         0.0642         8.1828           8.50        67.2562       151.4846
     3100.05         8.6637          4.475         2.6299         0.0584          8.241        19.6987         4.8175         0.0655         8.2226           8.50        67.5418       151.5572
     3100.21         8.6637         4.3812         2.6295         0.0548         8.4229        18.9292         4.6841         0.0681         8.1752           8.50        68.1825       151.5225
     3100.36         8.6637         4.2951         2.6298          0.052          8.237        19.2296         4.5609          0.069         8.0933           8.50        68.5048       151.4541
     3100.51         8.6637         4.2429         2.6299         0.0474         7.8651        20.3168          4.613         0.0706          7.971           8.50        69.0067       151.0715
     3100.66         8.6637         4.1352         2.6292         0.0469         7.9142         22.209          4.523         0.0722         7.9473           8.50        69.3282       150.7851
     3100.82         8.6637         3.9094         2.6264         0.0479         8.0124        23.6653         4.2017         0.0799          7.853           8.50        70.4277       149.8897
     3100.97         8.6637          3.718         2.6254         0.0492         8.0264         25.151         3.9339         0.0869         7.7452           8.50        71.0895       149.3988
     3101.12         8.6637         3.4317         2.6222          0.055         8.0544        30.4449          3.678         0.1067          7.501           8.50        72.3207       149.0427
     3101.27         8.6637         3.2703         2.6179         0.0587         8.2927        33.7249         3.4563         0.1173         7.4112           8.50        72.8351       149.1753
     3101.42         8.6637         2.9555         2.5963         0.0595         8.7694        39.7001         2.9858          0.129         7.3482           8.50        74.1538       150.4439
     3101.58         8.6637         2.6576         2.5817         0.0557         9.2367        41.6587         2.5489         0.1283         7.3809           8.50        75.0987       151.4626
     3101.73         8.6637          2.424         2.5635         0.0493        10.1712        34.5127         2.3088         0.1241          7.507           8.50        77.3741       151.8198
     3101.88         8.6637         2.4317         2.5614         0.0491        10.4648        32.1556         2.3769         0.1261         7.5617           8.50        78.2525       152.0199
     3102.03         8.6637         2.2872         2.5614         0.0517         11.052        31.5898         2.3265         0.1389         7.5856           8.50        79.8098       153.3599
     3102.19         8.6637          2.138         2.5602         0.0525        11.6157        32.5977         2.1457         0.1452         7.5504           8.50        80.5078       154.2866
     3102.34          8.675         1.9207         2.5567         0.0535        12.7431        37.2359         1.8026         0.1485         7.4675           8.50        82.8825       157.4111
     3102.49         8.6637         1.8535         2.5556         0.0541        12.2853        39.2342         1.7233         0.1522         7.4578           8.50        83.7406       159.3777
     3102.64         8.6637         1.7904         2.5562         0.0558        11.3698        40.7102         1.7212         0.1549         7.4822           8.50        85.1093       163.5641
     3102.80         8.6637         1.7495          2.557         0.0569         11.707        40.7157         1.6859         0.1558         7.5213           8.50        85.6075       165.4716
     3102.95         8.6863         1.7031         2.5574           0.06        12.3814         42.905         1.6661         0.1592         7.6726           8.50        85.9324       168.2397
     3103.10         8.6976         1.6367         2.5539         0.0614        12.9179        43.5355         1.5903         0.1664         7.7355           8.50         86.083       169.6567
     3103.25         8.6976         1.6095         2.5511         0.0596        13.1861        43.5918         1.5514         0.1665         7.6882           8.50        86.1208       170.0915
     3103.41         8.6976         1.5853         2.5477         0.0533        13.5323         45.064         1.5073         0.1611         7.5238           8.50        86.4626       170.6668
     3103.56         8.6976         1.6009         2.5477         0.0518        13.7053        45.0563         1.5385         0.1596         7.4863           8.50        86.5811       170.8507
     3103.71         8.6637         1.6311         2.5462         0.0529        13.9736        44.0721         1.5867         0.1664         7.5478           8.50         86.726       170.3252
