~VERSION INFORMATION
 VERS.                 2.0:   CWLS LOG ASCII STANDARD -VERSION 2.0
 WRAP.                  NO:   ONE LINE PER DEPTH STEP
~WELL INFORMATION BLOCK
#MNEM.UNIT           DATA                DESCRIPTION OF MNEMONIC
#---------    -------------------        -------------------------------
 STRT.M                     197.90          :START DEPTH
 STOP.M                    3465.97          :STOP DEPTH
 STEP.M                     0.1524          :STEP
 NULL.                     -999.25          :NULL VALUE
 COMP.                                      :COMPANY
 WELL.                  15/9-F-1 B          :WELL
 FLD.                        VOLVE          :FIELD
 LOC.                                       :LOCATION
 CNTY.                                      :COUNTY
 STAT.                                      :STATE
 CTRY.                                      :COUNTRY
 SRVC.                                      :SERVICE COMPANY
 DATE.                   17-Apr-20          :DATE
 UWI.                   15/9-F-1 B          :UNIQUE WELL ID
 ELEVREF.                       KB          :REFERENCE ELEVATION
 ELEV.M                      54.90          :ELEVATION
 XCOORD.                435046.531          :SURFACE X
 YCOORD.               6478567.000          :SURFACE Y
~CURVE INFORMATION      
#MNEM.UNIT      API CODE      CURVE DESCRIPTION
#---------    -------------   ------------------------------
DEPT.M                        : Depth
CALI.in                       : CALI
RDEP.-                        : Deep Resistivity
DEN.-                         : Density of correlated events
DENC.-                        : DENC
ROP.-                         : ROP
GR.API                        : smoothed gr
RMED.-                        : Medium Resistivity
NEU.-                         : NEU
PEF.b/e                       : Photoelectric Factor
BS.-                          : Bit Size
AC.µs/ft                      : Sonic Transit Time (Slowness)
ACS.µs/ft                     : ACS
~PARAMETER INFORMATION
#MNEM.UNIT           DATA                 DESCRIPTION OF MNEMONIC
#---------         -----------         ------------------------------
~A   DEPT          CALI          RDEP           DEN          DENC           ROP            GR          RMED           NEU           PEF            BS            AC           ACS
# ...
     3379.10         8.6637         1.2698         2.4635         0.0557        20.6689        52.3239         1.1743         0.1738         6.0787           8.50        74.1111       129.3638
     3379.25         8.6976          1.422         2.4638         0.0495        21.1699         47.004         1.4965         0.1605         6.1892           8.50        74.5022       129.6013
     3379.40         8.6976         1.4438         2.4934         0.0635        20.8086        44.5647         1.5053         0.1467         6.4039           8.50         74.565       129.6364
     3379.55         8.6976         1.4195          2.498         0.0686         20.628        43.7451         1.4089         0.1448          6.415           8.50        74.5464       129.6145
     3379.71         8.6976         1.4638         2.4881         0.0648        20.5708        42.0089         1.4774         0.1488          6.306           8.50        74.4755       129.8669
     3379.86         8.6976         1.5398          2.485         0.0595        20.5423        45.6666         1.6344         0.1516         6.2286           8.50        74.4881       129.9136
     3380.01         8.6976         1.5246         2.4933         0.0566        20.2587        55.7984         1.5583         0.1592         6.0123           8.50        74.5901       129.8723
     3380.16         8.6806         1.4969         2.4943         0.0575         20.117        58.4705          1.499         0.1582         5.8908           8.50        74.5514       129.8644
     3380.32         8.6976         1.4903         2.4788         0.0558        20.0947        54.1135         1.4874         0.1603         5.7092           8.50        74.5212       130.6287
     3380.47         8.6637         1.4817         2.4698         0.0544        20.0835        49.4692         1.4718         0.1617          5.661           8.50         74.568       130.7961
     3380.62         8.6976         1.4778         2.4637         0.0519        20.4511        47.7772         1.4594         0.1617         5.7689           8.50        74.6159       130.3954
     3380.77         8.6976         1.5164         2.4667          0.051        20.6348        48.3303         1.5377         0.1601         5.8727           8.50          74.72       129.8439
     3380.93         8.6976         1.5137          2.475         0.0518         21.054        48.2808         1.4683         0.1549         5.8439           8.50        74.6238       129.5998
     3381.08         8.6637         1.5157          2.478         0.0516        21.2636         47.232         1.4712         0.1568         5.7261           8.50        74.5322       129.2037
     3381.23          8.613         1.6058         2.4885         0.0525        21.3299        52.5712          1.744         0.1483         5.6047           8.50         74.124       129.0773
     3381.38         8.6637         1.5926         2.4959         0.0567        21.3631        51.6621          1.744         0.1435          5.707           8.50         73.885       129.1747
     3381.54         8.6976         1.5364         2.5019         0.0671        21.4895        46.9127         1.6783         0.1441         6.1213           8.50        73.5324       128.9969
     3381.69         8.6976         1.4996         2.4992         0.0687        21.5527         46.632         1.6588         0.1443         6.2579           8.50        73.4606       128.7313
     3381.84         8.6976         1.4655         2.4915         0.0626        21.3475        43.9036          1.601         0.1391         6.2037           8.50        73.9871       128.6086
     3381.99         8.6976         1.4581         2.4912         0.0586        21.2449        45.3358         1.6854         0.1373         6.1407           8.50        74.4696        128.433
     3382.15         8.7483         1.3804           2.50         0.0625        20.7978        44.8195         1.6407         0.1446         6.1069           8.50        75.6885       131.5418
     3382.30         8.7229         1.2746         2.4996         0.0696        20.5742        41.9217         1.5096         0.1615         6.0588           8.50        76.2867       133.2222
     3382.45         8.6637         1.0083         2.4573         0.0785         21.465        39.0094         1.0477         0.1924         5.8751           8.50        77.5351       135.8246
     3382.60         8.6383         0.7963         2.3829          0.065        22.4873        33.6116         0.5969         0.1917         5.7651           8.50        77.9066       136.4386
     3382.76         8.6637         0.7712         2.3668         0.0543        23.0643        31.3375         0.5907         0.1747         5.7896           8.50        77.7125       136.3706
     3382.91         8.6637         0.9373         2.4062         0.0498        23.3418         35.565         0.9074         0.1569         5.9817           8.50        76.5437       133.8358
     3383.06         8.6637         1.1079           2.44         0.0566        23.0422        39.7387         1.2061         0.1584         6.1003           8.50        75.8395       131.2891
     3383.21         8.6976          1.316         2.4732         0.0625        22.4431        49.3926         1.4223         0.1576         6.2176           8.50        74.7791       126.0414
     3383.36         8.7229         1.4299         2.4735          0.058        22.1436        48.6259         1.5314         0.1599         6.2043           8.50        74.3817       125.3964
     3383.52         8.6976         1.5708         2.4723         0.0489         21.618        51.8206         1.7096         0.1629         6.1933           8.50        74.0693       126.3236
     3383.67         8.6976          1.611         2.4752         0.0494        21.3919        54.5584         1.7413         0.1667         6.2172           8.50        73.9732       127.5009
     3383.82         8.6976         1.6987          2.476         0.0554        21.3915        59.9819          1.657         0.1723         6.2715           8.50        73.8327        128.238
     3383.97         8.7483         1.7315         2.4725         0.0548        21.6173        60.6472         1.6973          0.169         6.3161           8.50        73.6397       128.2613
     3384.13         8.7483          1.863         2.4768         0.0492        21.5187        63.3465          1.901         0.1613         6.3273           8.50        73.1464       128.0342
     3384.28         8.6976         1.9408         2.4857         0.0492        21.1944        62.7261         2.0162         0.1589         6.2779           8.50        72.7821       127.6685
     3384.43         8.7229         2.0216         2.4977         0.0508        21.1128        60.0383         2.1378         0.1521         6.2856           8.50        72.3715        126.249
     3384.58         8.7483         2.0521         2.5031         0.0513        21.3555        58.1053         2.2129         0.1471         6.3772           8.50        72.0871       124.8562
     3384.74         8.6976         2.0708         2.5265         0.0635        22.3704         60.089         2.2868         0.1493         6.5889           8.50        71.7731       123.9043
     3384.89         8.6976         2.0164         2.5332         0.0707        23.1426        59.3482         2.0454         0.1501         6.6429           8.50        71.6769       123.3336
     3385.04         8.6976         1.9133         2.5178         0.0637        24.6871        58.5487          1.819          0.149         6.6394           8.50        71.5349        123.178
     3385.19         8.6976         2.0192         2.5122         0.0552        25.4593         60.131         2.0252         0.1463         6.6018           8.50        71.5108       122.9662
     3385.35         8.6976         2.1329          2.528         0.0526        26.8324        61.1216         2.3495         0.1434         6.4403           8.50        71.3743       122.6223
