~VERSION INFORMATION
 VERS.                 2.0:   CWLS LOG ASCII STANDARD -VERSION 2.0
 WRAP.                  NO:   ONE LINE PER DEPTH STEP
~WELL INFORMATION BLOCK
#MNEM.UNIT           DATA                DESCRIPTION OF MNEMONIC
#---------    -------------------        -------------------------------
 STRT.M                     197.90          :START DEPTH
 STOP.M                    3465.97          :STOP DEPTH
 STEP.M                     0.1524          :STEP
 NULL.                     -999.25          :NULL VALUE
 COMP.                                      :COMPANY
 WELL.                  15/9-F-1 B          :WELL
 FLD.                        VOLVE          :FIELD
 LOC.                                       :LOCATION
 CNTY.                                      :COUNTY
 STAT.                                      :STATE
 CTRY.                                      :COUNTRY
 SRVC.                                      :SERVICE COMPANY
 DATE.                   17-Apr-20          :DATE
 UWI.                   15/9-F-1 B          :UNIQUE WELL ID
 ELEVREF.                       KB          :REFERENCE ELEVATION
 ELEV.M                      54.90          :ELEVATION
 XCOORD.                435046.531          :SURFACE X
 YCOORD.               6478567.000          :SURFACE Y
~CURVE INFORMATION      
#MNEM.UNIT      API CODE      CURVE DESCRIPTION
#---------    -------------   ------------------------------
DEPT.M                        : Depth
CALI.in                       : CALI
RDEP.-                        : Deep Resistivity
DEN.-                         : Density of correlated events
DENC.-                        : DENC
ROP.-                         : ROP
GR.API                        : smoothed gr
RMED.-                        : Medium Resistivity
NEU.-                         : NEU
PEF.b/e                       : Photoelectric Factor
BS.-                          : Bit Size
AC.µs/ft                      : Sonic Transit Time (Slowness)
ACS.µs/ft                     : ACS
~PARAMETER INFORMATION
#MNEM.UNIT           DATA                 DESCRIPTION OF MNEMONIC
#---------         -----------         ------------------------------
~A   DEPT          CALI          RDEP           DEN          DENC           ROP            GR          RMED           NEU           PEF            BS            AC           ACS
# ...
     3238.28         8.6637         1.2053         2.4862         0.0522        29.6299        62.6442         1.2316         0.2223         6.9386           8.50        81.5894       130.5096
     3238.43         8.6637          1.217         2.4953         0.0582        29.7701        58.2992         1.2146         0.2158         6.7052           8.50        79.9247       130.0908
     3238.58         8.6637         1.2231         2.4907         0.0576        29.8403        56.0405          1.195         0.2064         6.4998           8.50        78.8222       129.9798
     3238.74         8.6637         1.2458         2.4782          0.043        29.8439        50.2546          1.204         0.1835          6.547           8.50        76.8554        129.049
     3238.89         8.6976         1.2687         2.4881         0.0354        29.8457        46.3669         1.2706         0.1748         6.8372           8.50        75.9398       128.3731
     3239.04         8.6976         1.3589         2.5488         0.0276        29.9056        43.4986         1.5793         0.1709         7.6804           8.50        74.2933       126.6397
     3239.19         8.6976         1.2869         2.5887         0.0294        29.9356         41.438         1.3692         0.1733          8.024           8.50        73.4421       125.7771
     3239.35         8.6976         1.2443         2.6494         0.0496        29.9395        41.7729         1.2823         0.1928         8.0478           8.50        72.4768       124.4727
     3239.50         8.6976         1.2289         2.6566         0.0577        29.9415        40.9183         1.3043         0.2029         7.8664           8.50          72.28       124.0621
     3239.65         8.6976         1.1522         2.6392          0.049         29.945        38.0667          1.198         0.1997         7.7709           8.50        71.9495       124.0449
     3239.80         8.6637         1.1391         2.6437         0.0473        29.9486        34.3302         1.3222         0.1738         7.8949           8.50        72.5378       125.1466
     3239.96         8.6976         1.0399          2.648         0.0475        29.9504        35.2333         1.1227         0.1652         7.9974           8.50        73.3128        126.052
     3240.11         8.6976          0.942         2.6606         0.0274          29.95        33.7439         0.8527         0.1769          8.786           8.50        75.2855       128.3723
     3240.26         8.6863         0.9587         2.6973         0.0341        29.9477        28.5839         1.0074         0.1886         9.2233           8.50        76.0708         129.54
     3240.41         8.6976         0.8953         2.7771         0.1079        29.9672        31.8049         0.9163         0.1988         8.7834           8.50        76.3607        131.357
     3240.57         8.6637         0.7891         2.7479         0.1299         29.989        35.6057         0.7075         0.1982         8.0133           8.50        76.2285       131.9822
     3240.72         8.6637         0.7719         2.5674         0.0827        30.0042        38.1871         0.7517          0.188         6.9445           8.50        75.7884       132.2324
     3240.87         8.6637         0.7893         2.5078         0.0487        29.9977        39.2872         0.7832         0.1917         6.9135           8.50        75.8664       131.9973
     3241.02         8.6637           0.95         2.5026        -0.0014        29.9847        32.8602         1.1246         0.2277         7.5614           8.50        75.5818       130.8476
     3241.18         8.6637         0.9506         2.5371        -0.0194        29.9783        34.5226         1.1608          0.249         8.1356           8.50        75.4223        130.296
     3241.33         8.6976         0.7093         2.6402        -0.0056        29.9681        45.7515         0.5325         0.2731         8.9823           8.50        75.5177       130.5253
     3241.48         8.6637         0.7094           2.69         0.0236        29.9644        51.3261         0.5132          0.273         9.0346           8.50        76.0855       131.2466
     3241.63         8.6637         0.9494         2.7266         0.0647        29.9542        55.8902         1.0307         0.2695          8.549           8.50        79.6001       134.2506
     3241.79         8.6637         1.1249         2.7079         0.0632        29.9477        50.6456         1.5219         0.2869         8.2062           8.50        81.5206       136.0506
     3241.94         8.6637         1.3622         2.6881         0.0323         29.963        39.6302         1.9411         0.3635         8.2295           8.50        82.0812       139.5726
     3242.09         8.4776         1.3699         2.7326         0.0263        29.9847        42.7769         1.9346          0.396         8.7882           8.50          81.51       141.1947
     3242.24          8.613          1.194         2.8746         0.0675          30.00        58.2395         1.4092         0.3746         9.9024           8.50        80.7801       143.5031
     3242.39         8.6637         1.1365         2.8996         0.0792        29.9935         57.421         1.1602         0.3489        10.1535           8.50        81.0459       144.3219
     3242.55         8.6806         1.1522         2.8871         0.0311        29.9806        41.4311         1.2381         0.3497        10.6179           8.50        81.0518       145.4123
     3242.70         8.6722         1.1728          2.916         0.0061        29.9741        37.2077          1.365         0.3744        10.8701           8.50        80.9906       145.9357
     3242.85         8.6976         1.2981         3.0251         0.0225        29.9611        38.9744         1.9667          0.411        10.9283           8.50        80.8061        147.267
     3243.00         8.6976         0.8448         3.0375         0.0614        29.9482        48.1432         0.6782         0.3666        10.6606           8.50        82.2181       149.0913
     3243.16         8.6806         0.8709         2.9863         0.0566        29.9419         46.403         0.7053         0.3378        10.5549           8.50        82.5882       150.0264
     3243.31         8.6637         0.9555         2.8571         0.0177        29.9292        41.4095          0.935         0.2848        10.2313           8.50        82.2472       150.9894
     3243.46         8.6976         0.9666         2.8332         0.0022        29.9227        42.5126         0.9188         0.2702        10.1572           8.50        81.4978       150.5993
     3243.61         8.6637          1.079         2.9126         0.0353        29.9096        38.7232         1.1344         0.2802         10.057           8.50        78.6318       146.8922
     3243.77         8.6637          1.201         2.9593         0.0902        29.9313        35.9661         1.3439         0.2913         9.5435           8.50        77.7688       144.2818
     3243.92         8.6976         1.3678         2.8756         0.1495        29.9745        38.5112         1.7916         0.3028         8.0729           8.50        77.0006       140.0596
     3244.07         8.6976         1.1842         2.7603         0.1196         29.968        47.9372         1.3954         0.3047          7.737           8.50        77.0722       138.8751
     3244.22         8.6637         1.1241         2.6188         0.0464        29.9551        61.8287         1.1287         0.2998         7.8524           8.50        78.9428       138.8486
     3244.38         8.6637         1.1258         2.6173         0.0304        29.9487        66.4178          1.137         0.3023         8.1264           8.50        80.4881       138.9976
     3244.53         8.6637         1.0811         2.6707         0.0389        29.9358        69.4628          0.861         0.3194          8.677           8.50        84.0914       138.5477
