~VERSION INFORMATION
 VERS.                 2.0:   CWLS LOG ASCII STANDARD -VERSION 2.0
 WRAP.                  NO:   ONE LINE PER DEPTH STEP
~WELL INFORMATION BLOCK
#MNEM.UNIT           DATA                DESCRIPTION OF MNEMONIC
#---------    -------------------        -------------------------------
 STRT.M                     197.90          :START DEPTH
 STOP.M                    3465.97          :STOP DEPTH
 STEP.M                     0.1524          :STEP
 NULL.                     -999.25          :NULL VALUE
 COMP.                                      :COMPANY
 WELL.                  15/9-F-1 B          :WELL
 FLD.                        VOLVE          :FIELD
 LOC.                                       :LOCATION
 CNTY.                                      :COUNTY
 STAT.                                      :STATE
 CTRY.                                      :COUNTRY
 SRVC.                                      :SERVICE COMPANY
 DATE.                   17-Apr-20          :DATE
 UWI.                   15/9-F-1 B          :UNIQUE WELL ID
 ELEVREF.                       KB          :REFERENCE ELEVATION
 ELEV.M                      54.90          :ELEVATION
 XCOORD.                435046.531          :SURFACE X
 YCOORD.               6478567.000          :SURFACE Y
~CURVE INFORMATION      
#MNEM.UNIT      API CODE      CURVE DESCRIPTION
#---------    -------------   ------------------------------
DEPT.M                        : Depth
CALI.in                       : CALI
RDEP.-                        : Deep Resistivity
DEN.-                         : Density of correlated events
DENC.-                        : DENC
ROP.-                         : ROP
GR.API                        : smoothed gr
RMED.-                        : Medium Resistivity
NEU.-                         : NEU
PEF.b/e                       : Photoelectric Factor
BS.-                          : Bit Size
AC.µs/ft                      : Sonic Transit Time (Slowness)
ACS.µs/ft                     : ACS
~PARAMETER INFORMATION
#MNEM.UNIT           DATA                 DESCRIPTION OF MNEMONIC
#---------         -----------         ------------------------------
~A   DEPT          CALI          RDEP           DEN          DENC           ROP            GR          RMED           NEU           PEF            BS            AC           ACS
# ...
     3212.68         8.6976         1.5144         2.4209         0.0336        29.9824       160.8669         1.4457         0.3502         5.8322           8.50       104.6888       201.9304
     3212.83         8.6637         1.6006         2.4173         0.0261        29.9775       155.2896         1.6126         0.3478          5.872           8.50       103.9758       202.0668
     3212.98         8.6637         1.6155         2.4213         0.0254        29.9942       151.8211         1.6355         0.3541         5.8828           8.50       104.1102       202.1413
     3213.13          8.613         1.5552         2.4303         0.0331         29.991       147.6248         1.5119         0.3777         5.7635           8.50       103.0874        201.563
     3213.29         8.6468          1.526         2.4289         0.0378        29.9713       146.0699         1.4568         0.3795         5.7991           8.50       103.1537       200.8771
     3213.44         8.6637         1.4949         2.4249         0.0426        29.9691       145.4879         1.3976         0.3839         6.2514           8.50       103.2619       198.7258
     3213.59         8.6637         1.4782         2.4262         0.0442        29.9866       141.1133         1.3767         0.3773         6.5314           8.50       103.2801        197.678
     3213.74         8.6976         1.4469         2.4331         0.0454        29.9844       139.4031         1.3326         0.3486         6.9412           8.50       102.2265       196.0096
     3213.90         8.6976         1.4251         2.4347         0.0434        29.9646       137.2331         1.2907         0.3431         6.9491           8.50        101.562       195.1391
     3214.05         8.6637         1.4514          2.435         0.0385        29.9624       136.5623         1.3418         0.3518         6.7126           8.50        100.258        193.181
     3214.20         8.6637         1.4982         2.4407         0.0323        29.9976        131.381         1.4472          0.329         6.3616           8.50        99.4278       190.9444
     3214.35          8.596         1.4844         2.4485         0.0282        29.9778       130.2494         1.4072         0.3172         6.2563           8.50        99.1094        189.861
     3214.51         8.5791         1.4479         2.4806          0.027        29.9383       123.7716         1.3537         0.3003         6.1027           8.50        98.8456       188.4106
     3214.66         8.5791          1.491         2.4998         0.0344        29.9558        125.636         1.4365         0.3021         5.9393           8.50        98.8401       188.1016
     3214.81         8.5537         1.4739          2.506         0.0471        29.9909        127.526         1.3692         0.3019         5.6371           8.50        99.1223       188.3222
     3214.96          8.613          1.459         2.4929         0.0453        29.9494       127.2577         1.3244         0.2998         5.6302           8.50         99.351       188.4402
     3215.12         8.6637         1.4769         2.4776         0.0431        29.8662       126.9646           1.34         0.3097         5.7579           8.50        99.7786       188.0391
     3215.27         8.6976         1.5063          2.477         0.0467        29.8862       125.6717         1.4117         0.3267         5.8616           8.50       100.0183       187.6965
     3215.42         8.6637          1.509         2.4649         0.0488        29.9261        131.396         1.4368         0.3367         6.1728           8.50       100.3415       187.2243
     3215.57         8.6637         1.5374         2.4551         0.0462        29.9195       133.3069         1.4907         0.3338         6.3006           8.50       100.4323       187.2531
     3215.72         8.6637         1.5883         2.4439         0.0405        29.9063       132.7417         1.5436         0.3281         6.2801           8.50       100.3307       187.6671
     3215.88         8.5537         1.7319         2.4418         0.0389        29.8006       135.3521         1.7571         0.3282         6.1643           8.50       100.1517       187.8695
     3216.03         8.5791         1.7799         2.4381         0.0391         29.589       131.6738         1.8367         0.3265         5.9632           8.50         99.829       187.5891
     3216.18         8.5791          1.793         2.4355         0.0392        29.4979        129.022         1.8555         0.3221          5.917           8.50        99.6538       187.2159
     3216.33         8.5791         1.8001         2.4371         0.0377        29.3158       124.6837         1.8342         0.3013          5.998           8.50         99.716       185.2013
     3216.49         8.6637         1.7926         2.4443         0.0383        29.1484       123.6752         1.7873         0.2886          6.132           8.50        99.7073       183.9177
     3216.64         8.6637          1.758         2.4643         0.0457        28.8137       120.7841         1.6925         0.2995         6.4077           8.50        99.8985       182.0869
     3216.79         8.6637         1.7381         2.4695         0.0513        28.8006       124.3783         1.6663         0.3116         6.5292           8.50        99.9805       181.5573
     3216.94         8.6637         1.7566         2.4594         0.0581        28.7744       126.0416          1.759          0.331         6.8228           8.50        100.056       181.5978
     3217.10         8.6637         1.7799         2.4486         0.0569        28.7648       125.0848         1.8492         0.3338         6.9139           8.50       100.0079        181.794
     3217.25         8.6637         1.6747         2.4333         0.0491        28.7456       124.5339         1.6506         0.3258         6.7959           8.50        99.6278       182.3484
     3217.40         8.6637         1.5363         2.4278         0.0474        28.2233        124.849         1.3908         0.3151         6.6401           8.50        99.1234       183.1252
     3217.55         8.6637          1.551         2.4244         0.0465        27.9621       128.1329          1.438         0.3106         6.5799           8.50        98.9413       183.5078
     3217.71         8.6637         1.5527         2.4238         0.0418         28.155        129.147         1.4923         0.3066         6.5109           8.50        98.6072       183.9567
     3217.86         8.6637         1.5057         2.4314         0.0422        28.2514       127.5032         1.4071         0.3082         6.5179           8.50        98.5126       184.0697
     3218.01         8.6637           1.50         2.4478         0.0474        28.4474       128.5216         1.4371         0.3163         6.5158           8.50        98.3866       184.2491
     3218.16         8.6637         1.5089         2.4491         0.0487        28.5453       127.1553         1.4746         0.3228          6.478           8.50        98.4143       184.4165
     3218.32         8.6637         1.4389         2.4425         0.0481        28.7381        127.603         1.3268         0.3243          6.448           8.50        98.7695       185.0684
     3218.47         8.6637         1.3995         2.4382         0.0477        28.8345        128.308         1.2266         0.3222         6.5095           8.50        98.9719       185.4572
     3218.62         8.6637         1.4461         2.4322         0.0497        28.9659       128.1042         1.3482         0.3279         6.6643           8.50        99.1056       185.9428
     3218.77         8.6637         1.4622         2.4308         0.0512        29.0316       128.0105         1.3772         0.3294         6.6665           8.50        99.1031       186.0514
     3218.93         8.6637         1.4495         2.4252         0.0477        29.1901       129.3629         1.3616         0.3202         6.5776           8.50         98.938       185.7953
