~VERSION INFORMATION
 VERS.                 2.0:   CWLS LOG ASCII STANDARD -VERSION 2.0
 WRAP.                  NO:   ONE LINE PER DEPTH STEP
~WELL INFORMATION BLOCK
#MNEM.UNIT           DATA                DESCRIPTION OF MNEMONIC
#---------    -------------------        -------------------------------
 STRT.M                     197.90          :START DEPTH
 STOP.M                    3465.97          :STOP DEPTH
 STEP.M                     0.1524          :STEP
 NULL.                     -999.25          :NULL VALUE
 COMP.                                      :COMPANY
 WELL.                  15/9-F-1 B          :WELL
 FLD.                        VOLVE          :FIELD
 LOC.                                       :LOCATION
 CNTY.                                      :COUNTY
 STAT.                                      :STATE
 CTRY.                                      :COUNTRY
 SRVC.                                      :SERVICE COMPANY
 DATE.                   17-Apr-20          :DATE
 UWI.                   15/9-F-1 B          :UNIQUE WELL ID
 ELEVREF.                       KB          :REFERENCE ELEVATION
 ELEV.M                      54.90          :ELEVATION
 XCOORD.                435046.531          :SURFACE X
 YCOORD.               6478567.000          :SURFACE Y
~CURVE INFORMATION      
#MNEM.UNIT      API CODE      CURVE DESCRIPTION
#---------    -------------   ------------------------------
DEPT.M                        : Depth
CALI.in                       : CALI
RDEP.-                        : Deep Resistivity
DEN.-                         : Density of correlated events
DENC.-                        : DENC
ROP.-                         : ROP
GR.API                        : smoothed gr
RMED.-                        : Medium Resistivity
NEU.-                         : NEU
PEF.b/e                       : Photoelectric Factor
BS.-                          : Bit Size
AC.µs/ft                      : Sonic Transit Time (Slowness)
ACS.µs/ft                     : ACS
~PARAMETER INFORMATION
#MNEM.UNIT           DATA                 DESCRIPTION OF MNEMONIC
#---------         -----------         ------------------------------
~A   DEPT          CALI          RDEP           DEN          DENC           ROP            GR          RMED           NEU           PEF            BS            AC           ACS
# ...
     3180.67         8.6806         1.8807         2.2577         0.0438        29.9633        224.801          1.806         0.4323         7.0402           8.50       120.4111        -999.25
     3180.83         8.6637         1.8408         2.2601         0.0409         29.987       226.8249         1.7696         0.4354         7.4386           8.50       120.7792        -999.25
     3180.98         8.6637         1.7415         2.2627           0.04        29.9989       227.7575         1.5566         0.4333           7.28           8.50       121.0731        -999.25
     3181.13         8.6637         1.7281         2.2629         0.0392        29.9699       222.9282         1.5119         0.4349         6.7813           8.50       121.6477        -999.25
     3181.28         8.6637         1.7627         2.2615         0.0386        29.9553       230.1904         1.5876         0.4363         6.6896           8.50       121.9496        -999.25
     3181.43         8.6637         1.8854         2.2625         0.0424          29.98       247.6983         1.7899         0.4465         6.8024           8.50       122.3579        -999.25
     3181.59         8.6637         1.8758         2.2603         0.0433        29.9923       250.8774          1.756         0.4532         6.8664           8.50       122.5621        -999.25
     3181.74         8.6637         1.8988         2.2435         0.0311        29.9765        262.203         1.7693         0.4519         6.9733           8.50       122.8707        -999.25
     3181.89         8.6637         1.9319         2.2404         0.0266        29.9686       266.4096         1.8351         0.4561           7.02           8.50       122.9697        -999.25
     3182.04         8.6637         1.8911         2.2489         0.0345        30.0093       254.2069         1.7417         0.4929         6.8802           8.50       122.9401        -999.25
     3182.20         8.6637         1.8892         2.2484         0.0376        30.0297       251.6957         1.7243         0.4995         6.6963           8.50       122.8238        -999.25
     3182.35         8.6637         1.9351          2.236         0.0328        30.0163       249.9904         1.7995         0.4624         6.4164           8.50       122.5495        -999.25
     3182.50          8.613         2.0587         2.2317         0.0356        30.0257       249.3433         2.0191         0.4462         6.5702           8.50       122.2888        -999.25
     3182.65         8.6976         2.0392         2.2308         0.0413        30.0418       238.5938         1.9945          0.448         6.7458           8.50       122.1804        -999.25
     3182.81         8.6976         2.0094         2.2257         0.0487         27.163       214.9568         1.9119         0.4418         6.8652           8.50       122.0664        -999.25
     3182.96         8.6976         1.9989          2.223         0.0489         24.268       205.0313         1.8798         0.4432         6.7681           8.50        122.025        -999.25
     3183.11         8.6637         1.9989         2.2203         0.0462        20.2969       202.0854         1.8695         0.4621         6.4937           8.50       121.9657        -999.25
     3183.26         8.6637         2.0104         2.2197          0.043        19.2208       203.9395         1.8776         0.4633         6.4103           8.50       121.9146        -999.25
     3183.42         8.6637         2.0115         2.2213         0.0371        17.5882       205.9971         1.8746         0.4477         6.4194           8.50       121.8124        -999.25
     3183.57         8.6637         2.0554         2.2226          0.038        17.0317       196.2229         1.9969         0.4446         6.4011           8.50       121.7671        -999.25
     3183.72         8.5791         2.0392          2.217         0.0437        17.8369       182.3984         1.9156         0.4459         6.3182           8.50       121.8387        -999.25
     3183.87         8.6637         2.0413          2.209         0.0438        19.1987       183.8665         1.9128         0.4345          6.378           8.50       121.9425        -999.25
     3184.03          8.613         2.1157         2.1958         0.0364        21.9222       193.2132         2.0587         0.4234         6.5646           8.50       122.2778        -999.25
     3184.18          8.596         2.1283         2.1956         0.0329        23.2841       195.7298         2.0944         0.4273         6.6074           8.50       122.4565        -999.25
     3184.33         8.6637         2.0686         2.2123         0.0391        26.0488       192.6344         1.9472         0.4383         6.6682           8.50       122.7251        -999.25
     3184.48         8.6637         2.0818           2.22          0.045        27.4517       189.3066         1.9964         0.4435         6.6962           8.50       122.8425        -999.25
     3184.64         8.6637         2.0796         2.2135         0.0408        29.2293       204.7646         1.9908         0.4488         6.7419           8.50       122.9786        -999.25
     3184.79         8.6637         1.9969          2.209         0.0319         29.604       216.7771         1.8234         0.4471         6.8145           8.50       123.0662        -999.25
     3184.94         8.6637         2.0199         2.2203         0.0154        29.9722       249.8341         1.8501         0.4292         7.0276           8.50       123.2366        -999.25
     3185.09         8.6637         2.0125         2.2351          0.014        29.9657       262.1529         1.8301         0.4226         7.0604           8.50       123.3604        -999.25
     3185.24          8.613         2.0467         2.2636         0.0294        29.9556       256.9157         1.8893         0.4342         6.9091           8.50       123.5047        -999.25
     3185.40         8.6637         2.0636         2.2642         0.0356        29.9519       259.4878          1.916         0.4391         6.8485           8.50       123.5243        -999.25
     3185.55         8.6637         2.1387         2.2409         0.0284        29.9419       265.1492          2.045         0.4473         6.9099           8.50       123.3349        -999.25
     3185.70         8.6637         2.1381         2.2378          0.025        29.9292       253.6617         2.0467         0.4463         6.9047           8.50       123.0127        -999.25
     3185.85         8.6637         2.0774         2.2445          0.029         29.948       249.5226         1.9359         0.4468         6.8486           8.50       122.8566        -999.25
     3186.01         8.6637         2.0631         2.2502         0.0331        29.9856       255.6956         1.8301         0.4585         6.8718           8.50       122.6185        -999.25
     3186.16         8.6637         2.0796         2.2493         0.0323        29.9819       259.6819         1.8636          0.464         6.9351           8.50       122.5337        -999.25
     3186.31         8.6637         2.1527         2.2466         0.0336        29.9745       257.3804         1.9945         0.4674         6.9352           8.50        122.465        -999.25
     3186.46         8.6637         2.1752         2.2427         0.0357         29.968       257.1367         2.0011         0.4707         6.8945           8.50       122.4403        -999.25
     3186.62         8.6637         2.2563         2.2259         0.0327        29.9551       258.0692         2.1706         0.4689         6.7318           8.50       122.2942        -999.25
     3186.77         8.6637         2.3311         2.2164         0.0262        29.9487       254.3114         2.2788         0.4542         6.5946           8.50       122.1738        -999.25
     3186.92         8.5284         2.3723         2.2115         0.0183        29.9358       243.7236         2.3524          0.425         6.4902           8.50       121.8991        -999.25
