~VERSION INFORMATION
 VERS.                 2.0:   CWLS LOG ASCII STANDARD -VERSION 2.0
 WRAP.                  NO:   ONE LINE PER DEPTH STEP
~WELL INFORMATION BLOCK
#MNEM.UNIT           DATA                DESCRIPTION OF MNEMONIC
#---------    -------------------        -------------------------------
 STRT.M                     197.90          :START DEPTH
 STOP.M                    3465.97          :STOP DEPTH
 STEP.M                     0.1524          :STEP
 NULL.                     -999.25          :NULL VALUE
 COMP.                                      :COMPANY
 WELL.                  15/9-F-1 B          :WELL
 FLD.                        VOLVE          :FIELD
 LOC.                                       :LOCATION
 CNTY.                                      :COUNTY
 STAT.                                      :STATE
 CTRY.                                      :COUNTRY
 SRVC.                                      :SERVICE COMPANY
 DATE.                   17-Apr-20          :DATE
 UWI.                   15/9-F-1 B          :UNIQUE WELL ID
 ELEVREF.                       KB          :REFERENCE ELEVATION
 ELEV.M                      54.90          :ELEVATION
 XCOORD.                435046.531          :SURFACE X
 YCOORD.               6478567.000          :SURFACE Y
~CURVE INFORMATION      
#MNEM.UNIT      API CODE      CURVE DESCRIPTION
#---------    -------------   ------------------------------
DEPT.M                        : Depth
CALI.in                       : CALI
RDEP.-                        : Deep Resistivity
DEN.-                         : Density of correlated events
DENC.-                        : DENC
ROP.-                         : ROP
GR.API                        : smoothed gr
RMED.-                        : Medium Resistivity
NEU.-                         : NEU
PEF.b/e                       : Photoelectric Factor
BS.-                          : Bit Size
AC.µs/ft                      : Sonic Transit Time (Slowness)
ACS.µs/ft                     : ACS
~PARAMETER INFORMATION
#MNEM.UNIT           DATA                 DESCRIPTION OF MNEMONIC
#---------         -----------         ------------------------------
~A   DEPT          CALI          RDEP           DEN          DENC           ROP            GR          RMED           NEU           PEF            BS            AC           ACS
# ...
     3321.49         8.6976          2.141         2.5944         0.0627        24.8029         46.422          2.741         0.0664         6.6344           8.50        67.2679       113.1136
     3321.64         8.6976         1.9418         2.5992         0.0799        23.3401        53.8649         2.2547         0.0731         6.6657           8.50        67.7931       112.9322
     3321.80         8.6976         1.8197         2.5815         0.0808         22.326        53.5391          1.944         0.0864         6.6401           8.50        68.2925       112.8666
     3321.95         8.6806          1.561         2.5353         0.0686        20.2976        50.3823         1.4491         0.1191         6.4852           8.50        69.2869        117.138
     3322.10         8.6976         1.4158         2.5208         0.0639        20.6725        47.6134         1.1993         0.1259         6.3583           8.50         70.036       118.8881
     3322.25         8.6637         1.5587         2.5041         0.0583        21.4224        43.9822         1.3957         0.1343         6.0688           8.50         71.068       121.3764
     3322.40         8.6806         1.6842         2.4897         0.0456        22.9524        47.8632         1.7007         0.1332         6.0036           8.50        71.7239       122.8906
     3322.56         8.6637         1.7215         2.4919         0.0426        23.7174        49.1325         1.7791         0.1302         6.0788           8.50        71.8356       123.1406
     3322.71         8.6637         1.6763         2.5156         0.0524        24.7763        41.8233         1.5557         0.1228         6.2295           8.50        71.6535       122.4241
     3322.86         8.6637         1.6684         2.5252         0.0578        25.3057        39.1936         1.5317         0.1163          6.269           8.50        71.3382        121.648
     3323.01         8.6976         1.9926         2.5314         0.0562        26.4977        45.8569         2.2058          0.105         6.3658           8.50        70.5608       119.9904
     3323.17         8.6976         2.0295         2.5409         0.0552        27.0937        50.5514         2.2879         0.1004         6.4275           8.50        70.1515       119.2981
     3323.32         8.6976         2.0402         2.5675         0.0631        26.2632        56.4867         2.2452         0.1002         6.3878           8.50         69.696       119.3678
     3323.47         8.6976         2.0199         2.5685         0.0647        25.8479         57.478         2.1711         0.1052         6.2975           8.50        69.5086         119.54
     3323.62         8.6976         2.1645         2.5537         0.0602        25.5033         61.614         2.4121         0.1157         6.1538           8.50         68.857       119.8355
     3323.78         8.6976         2.2922         2.5468         0.0555         25.331        63.8919         2.7046         0.1166         6.1732           8.50        68.6044       119.6959
     3323.93         8.6976         2.4939         2.5497         0.0477        25.2764        61.0485         3.0895         0.1113          6.375           8.50        68.6797       119.2323
     3324.08         8.6976         2.5342         2.5597         0.0473        25.2491        60.5399         3.1421          0.108         6.4774           8.50         68.851       119.0228
     3324.23         8.6976         2.3532         2.5835         0.0527        25.2777        57.2313         2.5871         0.1058         6.5253           8.50        69.5637       119.1083
     3324.39         8.6976         2.2425         2.5923         0.0577         25.292        54.5615         2.2732         0.1092         6.4616           8.50        69.8487       119.3241
     3324.54         8.6637         2.3066         2.5913         0.0664        25.5323         53.119         2.3763         0.1218         6.3141           8.50        70.6891       119.8838
     3324.69         8.6976         2.3628         2.5801         0.0656        25.6525        52.4379         2.4598         0.1217         6.2827           8.50        70.7619       120.1788
     3324.84         8.6976         2.3317         2.5582         0.0588        25.8409        46.2402         2.3667          0.116         6.2745           8.50         71.025       120.6642
     3325.00         8.6976         2.3324         2.5543          0.059        25.9352        45.3554         2.3094         0.1127         6.2774           8.50        71.1808       120.8676
     3325.15         8.6976         2.3805         2.5499         0.0635        25.6977        49.9959         2.4563         0.1122         6.2883           8.50        71.5379       121.2885
     3325.30         8.6976         2.3737          2.548         0.0611         25.398        69.3232         2.4913         0.1182         6.2507           8.50        71.5612        121.728
     3325.45         8.6976         2.3519         2.5513         0.0582        25.2169        77.6213         2.4848         0.1269         6.2135           8.50         71.487       121.8499
     3325.61         8.6976          2.289         2.5597         0.0553        24.9143        81.5086         2.5231         0.1559         6.2594           8.50        71.0647       121.2551
     3325.76         8.6976         2.2513         2.5631         0.0567        24.7928        70.7931         2.5795         0.1662         6.3591           8.50        70.7126       120.6557
     3325.91         8.6976         2.0424         2.5666         0.0643        24.7325         46.053         2.4429          0.159          6.532           8.50        69.8142       119.8184
     3326.06         8.6976         1.9558         2.5645         0.0653        24.7937        39.9122         2.5487         0.1421         6.5288           8.50        69.5602        119.545
     3326.21         8.6976         1.6162         2.5643         0.0556        24.2151        45.1147         3.0168         0.0967         6.3965           8.50        69.9594       119.7893
     3326.37         8.6976          1.404         2.5741         0.0497        23.5753        50.8603         2.3786         0.0848         6.3563           8.50        70.6159       120.4353
     3326.52         8.6976          1.058          2.606         0.0571        22.3395        52.9494         1.3527         0.1022         6.3778           8.50        73.2501       123.6983
     3326.67         8.6637         0.9104         2.6131         0.0729        21.7435        50.7023         0.9627         0.1267         6.3207           8.50        75.0284       126.0447
     3326.82         8.6383         0.6518          2.559         0.1021        21.1499        48.6953         0.5485         0.1839         5.9415           8.50        79.0814       130.5488
     3326.98          8.613         0.5946         2.4904         0.0991        21.1523         47.202         0.5675         0.2033         5.7427           8.50        81.3074       131.9845
     3327.13         8.6637         0.5012         2.3574         0.0648        21.5465        43.0628         0.5128         0.2111          5.597           8.50        83.4957       132.2844
     3327.28         8.6637         0.4859         2.3304         0.0538        21.9385        41.8775         0.4909         0.2076         5.5825           8.50        84.1347       132.0884
     3327.43         8.6637         0.4808         2.3243         0.0486        22.9197        34.5487         0.4867         0.1981          5.563           8.50         84.304       134.6778
     3327.59         8.6637          0.486         2.3288         0.0463         23.509        35.1014          0.515         0.1932           5.64           8.50        84.4235       136.6971
     3327.74          8.613         0.4623         2.3581         0.0508        24.7353        40.0159         0.5189         0.1927         5.9096           8.50        84.5126       141.4921
